{
  "streets": [
    {
      "latmax": 50.73593241782196, 
      "name": "Aardslokkerserf", 
      "lonmin": 4.254096315779714, 
      "sanName": "aardslokkerserf", 
      "numOfAddr": 6, 
      "lonmax": 4.254570045009686, 
      "latmin": 50.73551278575783
    }, 
    {
      "latmax": 50.73698823360797, 
      "name": "Acacialaan", 
      "lonmin": 4.247165454158757, 
      "sanName": "acacialaan", 
      "numOfAddr": 1, 
      "lonmax": 4.247165454158757, 
      "latmin": 50.73698823360797
    }, 
    {
      "latmax": 50.73783247735331, 
      "name": "Albert Bosmansstraat", 
      "lonmin": 4.27315181400044, 
      "sanName": "albertbosmansstraat", 
      "numOfAddr": 6, 
      "lonmax": 4.273638086483693, 
      "latmin": 50.73709737987657
    }, 
    {
      "latmax": 50.75333815478886, 
      "name": "Alsembergsesteenweg", 
      "lonmin": 4.25606108132162, 
      "sanName": "alsembergsesteenweg", 
      "numOfAddr": 155, 
      "lonmax": 4.268678793460441, 
      "latmin": 50.74451611063814
    }, 
    {
      "latmax": 50.74997988236752, 
      "name": "Beerselsestraat", 
      "lonmin": 4.262000273553594, 
      "sanName": "beerselsestraat", 
      "numOfAddr": 16, 
      "lonmax": 4.26340775820638, 
      "latmin": 50.74866108094723
    }, 
    {
      "latmax": 50.74426677935055, 
      "name": "Begonialaan", 
      "lonmin": 4.257041359118032, 
      "sanName": "begonialaan", 
      "numOfAddr": 19, 
      "lonmax": 4.258581648236235, 
      "latmin": 50.743568209219276
    }, 
    {
      "latmax": 50.726492601725354, 
      "name": "Berkenlaan", 
      "lonmin": 4.270794548047102, 
      "sanName": "berkenlaan", 
      "numOfAddr": 10, 
      "lonmax": 4.272601803376273, 
      "latmin": 50.7240548467752
    }, 
    {
      "latmax": 50.74848038251516, 
      "name": "Biezeput", 
      "lonmin": 4.251241151023425, 
      "sanName": "biezeput", 
      "numOfAddr": 53, 
      "lonmax": 4.257613495744926, 
      "latmin": 50.74303776021656
    }, 
    {
      "latmax": 50.73472400675436, 
      "name": "Bleukenstraat", 
      "lonmin": 4.256800336730398, 
      "sanName": "bleukenstraat", 
      "numOfAddr": 1, 
      "lonmax": 4.256800336730398, 
      "latmin": 50.73472400675436
    }, 
    {
      "latmax": 50.74318012642781, 
      "name": "Delleputstraat", 
      "lonmin": 4.250528612140661, 
      "sanName": "delleputstraat", 
      "numOfAddr": 10, 
      "lonmax": 4.251362180221263, 
      "latmin": 50.7427803809097
    }, 
    {
      "latmax": 50.738584712906636, 
      "name": "Disbeekweg", 
      "lonmin": 4.268078428240181, 
      "sanName": "disbeekweg", 
      "numOfAddr": 19, 
      "lonmax": 4.271265828699541, 
      "latmin": 50.73636321610255
    }, 
    {
      "latmax": 50.73798089499528, 
      "name": "Distelweg", 
      "lonmin": 4.266257625543549, 
      "sanName": "distelweg", 
      "numOfAddr": 16, 
      "lonmax": 4.267621925919453, 
      "latmin": 50.7366244379821
    }, 
    {
      "latmax": 50.73623539746592, 
      "name": "Dorekensveld", 
      "lonmin": 4.250868890168211, 
      "sanName": "dorekensveld", 
      "numOfAddr": 75, 
      "lonmax": 4.254953119551659, 
      "latmin": 50.73402018315029
    }, 
    {
      "latmax": 50.74004888107769, 
      "name": "Dorpslaan", 
      "lonmin": 4.249645581630215, 
      "sanName": "dorpslaan", 
      "numOfAddr": 34, 
      "lonmax": 4.251511366041394, 
      "latmin": 50.737293481405665
    }, 
    {
      "latmax": 50.73436351306055, 
      "name": "Drasop", 
      "lonmin": 4.262543625463579, 
      "sanName": "drasop", 
      "numOfAddr": 11, 
      "lonmax": 4.273662968363311, 
      "latmin": 50.72615034076978
    }, 
    {
      "latmax": 50.74570709034644, 
      "name": "Eizingendorp", 
      "lonmin": 4.253364365274795, 
      "sanName": "eizingendorp", 
      "numOfAddr": 17, 
      "lonmax": 4.25457041517054, 
      "latmin": 50.74475182891284
    }, 
    {
      "latmax": 50.744844294818286, 
      "name": "Emiel Derooverlaan", 
      "lonmin": 4.262483025954967, 
      "sanName": "emielderooverlaan", 
      "numOfAddr": 78, 
      "lonmax": 4.268113480492912, 
      "latmin": 50.74246477572975
    }, 
    {
      "latmax": 50.73572250446182, 
      "name": "Felix Handelberghlaan", 
      "lonmin": 4.25226101037559, 
      "sanName": "felixhandelberghlaan", 
      "numOfAddr": 18, 
      "lonmax": 4.253232112921586, 
      "latmin": 50.73471071670168
    }, 
    {
      "latmax": 50.75178444266946, 
      "name": "Felix Roggemanskaai", 
      "lonmin": 4.246771128156824, 
      "sanName": "felixroggemanskaai", 
      "numOfAddr": 29, 
      "lonmax": 4.255316465433972, 
      "latmin": 50.74406268739236
    }, 
    {
      "latmax": 50.73758499178182, 
      "name": "Floralaan", 
      "lonmin": 4.248566048619906, 
      "sanName": "floralaan", 
      "numOfAddr": 60, 
      "lonmax": 4.25346899873599, 
      "latmin": 50.73571408862328
    }, 
    {
      "latmax": 50.7372175224708, 
      "name": "Frans Daystraat", 
      "lonmin": 4.2651287514398275, 
      "sanName": "fransdaystraat", 
      "numOfAddr": 15, 
      "lonmax": 4.267452426006652, 
      "latmin": 50.73651087497821
    }, 
    {
      "latmax": 50.74156045413599, 
      "name": "Gemeenteplein", 
      "lonmin": 4.2490884803604, 
      "sanName": "gemeenteplein", 
      "numOfAddr": 5, 
      "lonmax": 4.249693643319549, 
      "latmin": 50.74082227689929
    }, 
    {
      "latmax": 50.74738127818365, 
      "name": "Gerard Mercatorstraat", 
      "lonmin": 4.261327499353492, 
      "sanName": "gerardmercatorstraat", 
      "numOfAddr": 8, 
      "lonmax": 4.262947680260647, 
      "latmin": 50.74635142178332
    }, 
    {
      "latmax": 50.74115111268734, 
      "name": "Geynstbos", 
      "lonmin": 4.263545588766331, 
      "sanName": "geynstbos", 
      "numOfAddr": 66, 
      "lonmax": 4.267618272982969, 
      "latmin": 50.73822733025989
    }, 
    {
      "latmax": 50.74189972260554, 
      "name": "Grensweg", 
      "lonmin": 4.269627460584611, 
      "sanName": "grensweg", 
      "numOfAddr": 5, 
      "lonmax": 4.270229136363445, 
      "latmin": 50.74095854905965
    }, 
    {
      "latmax": 50.74432857337475, 
      "name": "Groenstraat", 
      "lonmin": 4.255243061301377, 
      "sanName": "groenstraat", 
      "numOfAddr": 91, 
      "lonmax": 4.264690976365847, 
      "latmin": 50.73783649407036
    }, 
    {
      "latmax": 50.740994819545996, 
      "name": "Gulden Erf", 
      "lonmin": 4.266791177785792, 
      "sanName": "guldenerf", 
      "numOfAddr": 6, 
      "lonmax": 4.2682653855242245, 
      "latmin": 50.73997032421068
    }, 
    {
      "latmax": 50.74744884568734, 
      "name": "Haasblok", 
      "lonmin": 4.262027992611805, 
      "sanName": "haasblok", 
      "numOfAddr": 11, 
      "lonmax": 4.262710292687159, 
      "latmin": 50.74692217381613
    }, 
    {
      "latmax": 50.74248319767704, 
      "name": "Henri Devedeleerstraat", 
      "lonmin": 4.26247133158651, 
      "sanName": "henridevedeleerstraat", 
      "numOfAddr": 34, 
      "lonmax": 4.266413661498085, 
      "latmin": 50.74009018031364
    }, 
    {
      "latmax": 50.7453405764042, 
      "name": "Herv\u0082 Nihoullaan", 
      "lonmin": 4.264932287203593, 
      "sanName": "hervnihoullaan", 
      "numOfAddr": 34, 
      "lonmax": 4.266309202106224, 
      "latmin": 50.74452075018538
    }, 
    {
      "latmax": 50.73640845439474, 
      "name": "Hof ten Blooten", 
      "lonmin": 4.267879217926412, 
      "sanName": "hoftenblooten", 
      "numOfAddr": 18, 
      "lonmax": 4.270308445140743, 
      "latmin": 50.73581201392823
    }, 
    {
      "latmax": 50.74635852372595, 
      "name": "Hoogveld", 
      "lonmin": 4.26004739992862, 
      "sanName": "hoogveld", 
      "numOfAddr": 29, 
      "lonmax": 4.262895530771667, 
      "latmin": 50.7439748634354
    }, 
    {
      "latmax": 50.74372412046927, 
      "name": "Jaak Liekensstraat", 
      "lonmin": 4.254250686948761, 
      "sanName": "jaakliekensstraat", 
      "numOfAddr": 8, 
      "lonmax": 4.255618886940766, 
      "latmin": 50.743169400484845
    }, 
    {
      "latmax": 50.74180282362818, 
      "name": "Jozef Degelaenstraat", 
      "lonmin": 4.251082238607985, 
      "sanName": "jozefdegelaenstraat", 
      "numOfAddr": 25, 
      "lonmax": 4.256593208297142, 
      "latmin": 50.740364356060674
    }, 
    {
      "latmax": 50.73602375666283, 
      "name": "Kamerijkbos", 
      "lonmin": 4.272407947092418, 
      "sanName": "kamerijkbos", 
      "numOfAddr": 41, 
      "lonmax": 4.277117241217158, 
      "latmin": 50.72953029962508
    }, 
    {
      "latmax": 50.735078125883696, 
      "name": "Kamerijkdelle", 
      "lonmin": 4.27415849853228, 
      "sanName": "kamerijkdelle", 
      "numOfAddr": 42, 
      "lonmax": 4.276711754976871, 
      "latmin": 50.7313744741615
    }, 
    {
      "latmax": 50.733989860778124, 
      "name": "Kastanjelaan", 
      "lonmin": 4.261687293688224, 
      "sanName": "kastanjelaan", 
      "numOfAddr": 10, 
      "lonmax": 4.265721915361048, 
      "latmin": 50.731100276864986
    }, 
    {
      "latmax": 50.73546573899858, 
      "name": "Kerkhoflaan", 
      "lonmin": 4.254430595322414, 
      "sanName": "kerkhoflaan", 
      "numOfAddr": 13, 
      "lonmax": 4.255189346839339, 
      "latmin": 50.73389197198956
    }, 
    {
      "latmax": 50.74144254435925, 
      "name": "Kerkstraat", 
      "lonmin": 4.250106967590975, 
      "sanName": "kerkstraat", 
      "numOfAddr": 12, 
      "lonmax": 4.251637609912918, 
      "latmin": 50.740543456388316
    }, 
    {
      "latmax": 50.72538844229115, 
      "name": "Kesterbeekbos", 
      "lonmin": 4.274093627200012, 
      "sanName": "kesterbeekbos", 
      "numOfAddr": 32, 
      "lonmax": 4.283220746773738, 
      "latmin": 50.723599706993575
    }, 
    {
      "latmax": 50.739876873254374, 
      "name": "Kleutersbaan", 
      "lonmin": 4.2529186368979115, 
      "sanName": "kleutersbaan", 
      "numOfAddr": 16, 
      "lonmax": 4.255079236538443, 
      "latmin": 50.738736747114025
    }, 
    {
      "latmax": 50.73815395535943, 
      "name": "Kluisbos", 
      "lonmin": 4.256236604307534, 
      "sanName": "kluisbos", 
      "numOfAddr": 21, 
      "lonmax": 4.2635131739657, 
      "latmin": 50.7357341819907
    }, 
    {
      "latmax": 50.74244258452158, 
      "name": "Korenbloemweg", 
      "lonmin": 4.2673507706025795, 
      "sanName": "korenbloemweg", 
      "numOfAddr": 19, 
      "lonmax": 4.269412754294266, 
      "latmin": 50.74175769616068
    }, 
    {
      "latmax": 50.7386045666575, 
      "name": "Kornijkveld", 
      "lonmin": 4.247783308183409, 
      "sanName": "kornijkveld", 
      "numOfAddr": 20, 
      "lonmax": 4.249771181070652, 
      "latmin": 50.737427402230644
    }, 
    {
      "latmax": 50.745017831676854, 
      "name": "Kortestraat", 
      "lonmin": 4.262083328194626, 
      "sanName": "kortestraat", 
      "numOfAddr": 13, 
      "lonmax": 4.262936040965062, 
      "latmin": 50.74448972771682
    }, 
    {
      "latmax": 50.72664435878142, 
      "name": "Krabos", 
      "lonmin": 4.270980533658889, 
      "sanName": "krabos", 
      "numOfAddr": 26, 
      "lonmax": 4.2756991851159984, 
      "latmin": 50.72181037757328
    }, 
    {
      "latmax": 50.744485957783034, 
      "name": "Louis Descampslaan", 
      "lonmin": 4.2677724889403335, 
      "sanName": "louisdescampslaan", 
      "numOfAddr": 39, 
      "lonmax": 4.268740915277119, 
      "latmin": 50.74221413583547
    }, 
    {
      "latmax": 50.743266167222934, 
      "name": "Louis Godeaustraat", 
      "lonmin": 4.258412462253279, 
      "sanName": "louisgodeaustraat", 
      "numOfAddr": 46, 
      "lonmax": 4.26268090932934, 
      "latmin": 50.741457607070664
    }, 
    {
      "latmax": 50.74170772698377, 
      "name": "Louizalaan", 
      "lonmin": 4.268089603785626, 
      "sanName": "louizalaan", 
      "numOfAddr": 16, 
      "lonmax": 4.2699954159260285, 
      "latmin": 50.74060578009643
    }, 
    {
      "latmax": 50.74054063834639, 
      "name": "Nachtegaalstraat", 
      "lonmin": 4.25025445685486, 
      "sanName": "nachtegaalstraat", 
      "numOfAddr": 122, 
      "lonmax": 4.2672071857803875, 
      "latmin": 50.73465271345276
    }, 
    {
      "latmax": 50.74545006276566, 
      "name": "Narcissenlaan", 
      "lonmin": 4.2578554717439046, 
      "sanName": "narcissenlaan", 
      "numOfAddr": 17, 
      "lonmax": 4.259836215759288, 
      "latmin": 50.74463304479585
    }, 
    {
      "latmax": 50.7485691536569, 
      "name": "Oct de Kerchove d'Exaerdestraat", 
      "lonmin": 4.249955331778342, 
      "sanName": "octdekerchovedexaerdestraat", 
      "numOfAddr": 226, 
      "lonmax": 4.261725790321324, 
      "latmin": 50.74118310552109
    }, 
    {
      "latmax": 50.7515230080583, 
      "name": "Pallieterweidestraat", 
      "lonmin": 4.258297623652345, 
      "sanName": "pallieterweidestraat", 
      "numOfAddr": 46, 
      "lonmax": 4.260933074197008, 
      "latmin": 50.7490830699157
    }, 
    {
      "latmax": 50.735343993077265, 
      "name": "Patrijzenlaan", 
      "lonmin": 4.252777307557365, 
      "sanName": "patrijzenlaan", 
      "numOfAddr": 17, 
      "lonmax": 4.25378713007999, 
      "latmin": 50.7344105299193
    }, 
    {
      "latmax": 50.74146449819127, 
      "name": "Paul Turcksinstraat", 
      "lonmin": 4.265956295130245, 
      "sanName": "paulturcksinstraat", 
      "numOfAddr": 6, 
      "lonmax": 4.268848945048999, 
      "latmin": 50.74008178341452
    }, 
    {
      "latmax": 50.7439074780319, 
      "name": "Porseleinstraat", 
      "lonmin": 4.246745663142967, 
      "sanName": "porseleinstraat", 
      "numOfAddr": 5, 
      "lonmax": 4.2479495254261215, 
      "latmin": 50.74281541184374
    }, 
    {
      "latmax": 50.73866182904476, 
      "name": "Potaardelaan", 
      "lonmin": 4.267529224332301, 
      "sanName": "potaardelaan", 
      "numOfAddr": 19, 
      "lonmax": 4.268827945553517, 
      "latmin": 50.73733916548643
    }, 
    {
      "latmax": 50.745035629096996, 
      "name": "Rozenlaan", 
      "lonmin": 4.256133149034558, 
      "sanName": "rozenlaan", 
      "numOfAddr": 31, 
      "lonmax": 4.259634742366481, 
      "latmin": 50.744167983191765
    }, 
    {
      "latmax": 50.740777458469566, 
      "name": "Sanatorialaan", 
      "lonmin": 4.264971347435008, 
      "sanName": "sanatorialaan", 
      "numOfAddr": 50, 
      "lonmax": 4.270805013140911, 
      "latmin": 50.7373155329704
    }, 
    {
      "latmax": 50.74653091109082, 
      "name": "Schoolgatweg", 
      "lonmin": 4.259683079494624, 
      "sanName": "schoolgatweg", 
      "numOfAddr": 20, 
      "lonmax": 4.263903364107242, 
      "latmin": 50.745779499846826
    }, 
    {
      "latmax": 50.72446067769567, 
      "name": "'s Hertogenbos", 
      "lonmin": 4.274072533687746, 
      "sanName": "shertogenbos", 
      "numOfAddr": 4, 
      "lonmax": 4.275363934361076, 
      "latmin": 50.72370899190965
    }, 
    {
      "latmax": 50.724472499342454, 
      "name": "Simmebeekweg", 
      "lonmin": 4.266283971851089, 
      "sanName": "simmebeekweg", 
      "numOfAddr": 1, 
      "lonmax": 4.266283971851089, 
      "latmin": 50.724472499342454
    }, 
    {
      "latmax": 50.73879038330076, 
      "name": "Sint-Jozeflaan", 
      "lonmin": 4.25154132668611, 
      "sanName": "sintjozeflaan", 
      "numOfAddr": 8, 
      "lonmax": 4.252036612135541, 
      "latmin": 50.73819201733877
    }, 
    {
      "latmax": 50.73497516437654, 
      "name": "Sint-Pietersweg", 
      "lonmin": 4.26855881818609, 
      "sanName": "sintpietersweg", 
      "numOfAddr": 7, 
      "lonmax": 4.270027848644478, 
      "latmin": 50.73292213991731
    }, 
    {
      "latmax": 50.72969234710912, 
      "name": "Smeerhout", 
      "lonmin": 4.261430819406113, 
      "sanName": "smeerhout", 
      "numOfAddr": 5, 
      "lonmax": 4.261846419042739, 
      "latmin": 50.72939045131324
    }, 
    {
      "latmax": 50.744038271658205, 
      "name": "Steenborre", 
      "lonmin": 4.258097785717036, 
      "sanName": "steenborre", 
      "numOfAddr": 12, 
      "lonmax": 4.260077804660624, 
      "latmin": 50.74321310909546
    }, 
    {
      "latmax": 50.743339041898054, 
      "name": "Sum", 
      "lonmin": 4.2527939067496705, 
      "sanName": "sum", 
      "numOfAddr": 24, 
      "lonmax": 4.254917457334199, 
      "latmin": 50.74205989363554
    }, 
    {
      "latmax": 50.74622025321055, 
      "name": "Tuinwijk", 
      "lonmin": 4.263052451722626, 
      "sanName": "tuinwijk", 
      "numOfAddr": 98, 
      "lonmax": 4.265867215217905, 
      "latmin": 50.744609666136014
    }, 
    {
      "latmax": 50.72548577590663, 
      "name": "Tulpenlaan", 
      "lonmin": 4.243381475089623, 
      "sanName": "tulpenlaan", 
      "numOfAddr": 1, 
      "lonmax": 4.243381475089623, 
      "latmin": 50.72548577590663
    }, 
    {
      "latmax": 50.74022883350147, 
      "name": "Uilenspiegellaan", 
      "lonmin": 4.264862079621318, 
      "sanName": "uilenspiegellaan", 
      "numOfAddr": 10, 
      "lonmax": 4.265889884903323, 
      "latmin": 50.73919477978196
    }, 
    {
      "latmax": 50.74013195824858, 
      "name": "Vandenpeereboomstraat", 
      "lonmin": 4.246898587205002, 
      "sanName": "vandenpeereboomstraat", 
      "numOfAddr": 38, 
      "lonmax": 4.249537341518504, 
      "latmin": 50.73794655754253
    }, 
    {
      "latmax": 50.75123447022443, 
      "name": "Vanhamstraat", 
      "lonmin": 4.255909196027465, 
      "sanName": "vanhamstraat", 
      "numOfAddr": 10, 
      "lonmax": 4.257088969868553, 
      "latmin": 50.75093031272198
    }, 
    {
      "latmax": 50.74615308143412, 
      "name": "Victor Mertensstraat", 
      "lonmin": 4.258579884341508, 
      "sanName": "victormertensstraat", 
      "numOfAddr": 50, 
      "lonmax": 4.263654475444785, 
      "latmin": 50.743368019794545
    }, 
    {
      "latmax": 50.73917050557798, 
      "name": "Vinkenlaan", 
      "lonmin": 4.253632682528228, 
      "sanName": "vinkenlaan", 
      "numOfAddr": 26, 
      "lonmax": 4.2547861076730165, 
      "latmin": 50.73776713300313
    }, 
    {
      "latmax": 50.74362854704532, 
      "name": "Watertorenstraat", 
      "lonmin": 4.2654819604239895, 
      "sanName": "watertorenstraat", 
      "numOfAddr": 52, 
      "lonmax": 4.268181863829737, 
      "latmin": 50.74242103064304
    }, 
    {
      "latmax": 50.74426606403946, 
      "name": "Wijkplein", 
      "lonmin": 4.266920406331114, 
      "sanName": "wijkplein", 
      "numOfAddr": 13, 
      "lonmax": 4.268123365264703, 
      "latmin": 50.7436127801024
    }, 
    {
      "latmax": 50.74260868663055, 
      "name": "Zenneweg", 
      "lonmin": 4.249698949568751, 
      "sanName": "zenneweg", 
      "numOfAddr": 20, 
      "lonmax": 4.250420059989249, 
      "latmin": 50.74180412514699
    }, 
    {
      "latmax": 50.74276128325118, 
      "name": "Zijdeweverserf", 
      "lonmin": 4.2652420946077925, 
      "sanName": "zijdeweverserf", 
      "numOfAddr": 2, 
      "lonmax": 4.26542059153457, 
      "latmin": 50.74275204688591
    }, 
    {
      "latmax": 50.74465594881295, 
      "name": "Zonnelaan", 
      "lonmin": 4.2635577178150905, 
      "sanName": "zonnelaan", 
      "numOfAddr": 21, 
      "lonmax": 4.264838255851768, 
      "latmin": 50.74387424319227
    }
  ]
}