{
  "streets": [
    {
      "latmax": 50.77973776426465, 
      "name": "Alsembergsesteenweg", 
      "lonmin": 4.3249385112322365, 
      "sanName": "alsembergsesteenweg", 
      "numOfAddr": 124, 
      "lonmax": 4.331250044834262, 
      "latmin": 50.76767469522441
    }, 
    {
      "latmax": 50.76948932745576, 
      "name": "Armandinepad", 
      "lonmin": 4.337942182081407, 
      "sanName": "armandinepad", 
      "numOfAddr": 2, 
      "lonmax": 4.338269282256345, 
      "latmin": 50.76917261420533
    }, 
    {
      "latmax": 50.77348698640634, 
      "name": "Arthur Van Dormaelstraat", 
      "lonmin": 4.332300163657335, 
      "sanName": "arthurvandormaelstraat", 
      "numOfAddr": 18, 
      "lonmax": 4.3336891027294655, 
      "latmin": 50.77281668987702
    }, 
    {
      "latmax": 50.76529268590828, 
      "name": "Bambos", 
      "lonmin": 4.345173618730532, 
      "sanName": "bambos", 
      "numOfAddr": 5, 
      "lonmax": 4.345648580703271, 
      "latmin": 50.764928690674026
    }, 
    {
      "latmax": 50.76971389905857, 
      "name": "Bankveld", 
      "lonmin": 4.345777152724027, 
      "sanName": "bankveld", 
      "numOfAddr": 9, 
      "lonmax": 4.347067324172184, 
      "latmin": 50.7670755486358
    }, 
    {
      "latmax": 50.772674328988195, 
      "name": "Beukenstraat", 
      "lonmin": 4.322302842527425, 
      "sanName": "beukenstraat", 
      "numOfAddr": 78, 
      "lonmax": 4.3322146690199235, 
      "latmin": 50.76934789603571
    }, 
    {
      "latmax": 50.77245457524691, 
      "name": "Bloemhof", 
      "lonmin": 4.340468492648024, 
      "sanName": "bloemhof", 
      "numOfAddr": 29, 
      "lonmax": 4.34413522875356, 
      "latmin": 50.770415167317736
    }, 
    {
      "latmax": 50.76499411125157, 
      "name": "Boesdaal", 
      "lonmin": 4.3490558951105625, 
      "sanName": "boesdaal", 
      "numOfAddr": 8, 
      "lonmax": 4.3516034098735, 
      "latmin": 50.76366896463425
    }, 
    {
      "latmax": 50.766493182600435, 
      "name": "Bospad", 
      "lonmin": 4.3406346839298475, 
      "sanName": "bospad", 
      "numOfAddr": 21, 
      "lonmax": 4.3449318320646775, 
      "latmin": 50.76166682259783
    }, 
    {
      "latmax": 50.77566570995703, 
      "name": "Boterberg", 
      "lonmin": 4.3232533524771535, 
      "sanName": "boterberg", 
      "numOfAddr": 32, 
      "lonmax": 4.325285435804805, 
      "latmin": 50.773500460544454
    }, 
    {
      "latmax": 50.77432539871792, 
      "name": "Braambezi\u0089nlaan", 
      "lonmin": 4.335685203759265, 
      "sanName": "braambezinlaan", 
      "numOfAddr": 13, 
      "lonmax": 4.3379631554965385, 
      "latmin": 50.77376814333283
    }, 
    {
      "latmax": 50.76914183662755, 
      "name": "Bremhof", 
      "lonmin": 4.343960396423599, 
      "sanName": "bremhof", 
      "numOfAddr": 9, 
      "lonmax": 4.344550760624261, 
      "latmin": 50.76866459793966
    }, 
    {
      "latmax": 50.77931944265092, 
      "name": "Brouwerijstraat", 
      "lonmin": 4.325690045852395, 
      "sanName": "brouwerijstraat", 
      "numOfAddr": 123, 
      "lonmax": 4.334290031272039, 
      "latmin": 50.769787048087544
    }, 
    {
      "latmax": 50.77453162836767, 
      "name": "Dapperensquare", 
      "lonmin": 4.334932803059104, 
      "sanName": "dapperensquare", 
      "numOfAddr": 39, 
      "lonmax": 4.33655966514002, 
      "latmin": 50.77340514351747
    }, 
    {
      "latmax": 50.76969725020134, 
      "name": "Dwersbos", 
      "lonmin": 4.331612640501148, 
      "sanName": "dwersbos", 
      "numOfAddr": 13, 
      "lonmax": 4.33514863474895, 
      "latmin": 50.76647427016107
    }, 
    {
      "latmax": 50.77817062834721, 
      "name": "Edmond Theunissenlaan", 
      "lonmin": 4.32344829822211, 
      "sanName": "edmondtheunissenlaan", 
      "numOfAddr": 24, 
      "lonmax": 4.324559585495296, 
      "latmin": 50.77679509063433
    }, 
    {
      "latmax": 50.76397977563319, 
      "name": "Elsgatveld", 
      "lonmin": 4.364938995185193, 
      "sanName": "elsgatveld", 
      "numOfAddr": 1, 
      "lonmax": 4.364938995185193, 
      "latmin": 50.76397977563319
    }, 
    {
      "latmax": 50.76675736816403, 
      "name": "Esselaar", 
      "lonmin": 4.350569201499462, 
      "sanName": "esselaar", 
      "numOfAddr": 65, 
      "lonmax": 4.353114154630951, 
      "latmin": 50.76549801218175
    }, 
    {
      "latmax": 50.77188165096844, 
      "name": "Fons Dehaesstraat", 
      "lonmin": 4.334277119850242, 
      "sanName": "fonsdehaesstraat", 
      "numOfAddr": 18, 
      "lonmax": 4.336329446073529, 
      "latmin": 50.77104427154989
    }, 
    {
      "latmax": 50.765676984276176, 
      "name": "Galgendries", 
      "lonmin": 4.3472638129901675, 
      "sanName": "galgendries", 
      "numOfAddr": 3, 
      "lonmax": 4.347546700929319, 
      "latmin": 50.76557930615631
    }, 
    {
      "latmax": 50.773238533154306, 
      "name": "Gemeenteplein", 
      "lonmin": 4.335301768015536, 
      "sanName": "gemeenteplein", 
      "numOfAddr": 32, 
      "lonmax": 4.336821355837304, 
      "latmin": 50.77220615087639
    }, 
    {
      "latmax": 50.76898550254351, 
      "name": "Grasmusdreef", 
      "lonmin": 4.333999675809893, 
      "sanName": "grasmusdreef", 
      "numOfAddr": 29, 
      "lonmax": 4.340410643311251, 
      "latmin": 50.766323117044806
    }, 
    {
      "latmax": 50.77507325385456, 
      "name": "Grote Baan", 
      "lonmin": 4.323935091782564, 
      "sanName": "grotebaan", 
      "numOfAddr": 19, 
      "lonmax": 4.326087911445469, 
      "latmin": 50.773439002919346
    }, 
    {
      "latmax": 50.764580661923134, 
      "name": "Haldorp", 
      "lonmin": 4.3519065332147875, 
      "sanName": "haldorp", 
      "numOfAddr": 27, 
      "lonmax": 4.353945341943179, 
      "latmin": 50.763158361772284
    }, 
    {
      "latmax": 50.768434732617344, 
      "name": "Heidedreef", 
      "lonmin": 4.333496902279065, 
      "sanName": "heidedreef", 
      "numOfAddr": 14, 
      "lonmax": 4.339015317271553, 
      "latmin": 50.765823309710186
    }, 
    {
      "latmax": 50.77745676757073, 
      "name": "Hess de Lilezlaan", 
      "lonmin": 4.322539001633593, 
      "sanName": "hessdelilezlaan", 
      "numOfAddr": 27, 
      "lonmax": 4.3255544178868, 
      "latmin": 50.776206800349975
    }, 
    {
      "latmax": 50.77105250700457, 
      "name": "Hoekstraat", 
      "lonmin": 4.3278119263876995, 
      "sanName": "hoekstraat", 
      "numOfAddr": 37, 
      "lonmax": 4.330639847250132, 
      "latmin": 50.770217549916396
    }, 
    {
      "latmax": 50.77636749644705, 
      "name": "Hof Roger Thi\u0082ry", 
      "lonmin": 4.323666371752774, 
      "sanName": "hofrogerthiry", 
      "numOfAddr": 4, 
      "lonmax": 4.323871651190049, 
      "latmin": 50.776059844316315
    }, 
    {
      "latmax": 50.778632021923826, 
      "name": "Hof ten Bleutesquare", 
      "lonmin": 4.324635888805718, 
      "sanName": "hoftenbleutesquare", 
      "numOfAddr": 12, 
      "lonmax": 4.325185974919942, 
      "latmin": 50.778043067892526
    }, 
    {
      "latmax": 50.770696911703816, 
      "name": "Hofveld", 
      "lonmin": 4.3257332467279666, 
      "sanName": "hofveld", 
      "numOfAddr": 6, 
      "lonmax": 4.326852172265931, 
      "latmin": 50.76984787913042
    }, 
    {
      "latmax": 50.76982810161356, 
      "name": "Hollebeekstraat", 
      "lonmin": 4.335300505705285, 
      "sanName": "hollebeekstraat", 
      "numOfAddr": 195, 
      "lonmax": 4.361187099809702, 
      "latmin": 50.763475303972896
    }, 
    {
      "latmax": 50.767848192368, 
      "name": "Hollekensweg", 
      "lonmin": 4.3482284478257816, 
      "sanName": "hollekensweg", 
      "numOfAddr": 19, 
      "lonmax": 4.351001188784186, 
      "latmin": 50.7654971278564
    }, 
    {
      "latmax": 50.769080823474276, 
      "name": "Hongarijestraat", 
      "lonmin": 4.322365643284678, 
      "sanName": "hongarijestraat", 
      "numOfAddr": 4, 
      "lonmax": 4.322830090726866, 
      "latmin": 50.76859718121
    }, 
    {
      "latmax": 50.77410897625161, 
      "name": "Jef Van Lishoutstraat", 
      "lonmin": 4.331779552065307, 
      "sanName": "jefvanlishoutstraat", 
      "numOfAddr": 16, 
      "lonmax": 4.3329678346413205, 
      "latmin": 50.77279771556057
    }, 
    {
      "latmax": 50.77340942471946, 
      "name": "J. en R. Wijtsmanpad", 
      "lonmin": 4.343551607825698, 
      "sanName": "jenrwijtsmanpad", 
      "numOfAddr": 4, 
      "lonmax": 4.34488481672378, 
      "latmin": 50.772838594902815
    }, 
    {
      "latmax": 50.76617997440117, 
      "name": "Karenveld", 
      "lonmin": 4.3396589330504, 
      "sanName": "karenveld", 
      "numOfAddr": 10, 
      "lonmax": 4.340831670767976, 
      "latmin": 50.76485997883759
    }, 
    {
      "latmax": 50.770334697225586, 
      "name": "Kasteeldreef", 
      "lonmin": 4.3368316364394355, 
      "sanName": "kasteeldreef", 
      "numOfAddr": 1, 
      "lonmax": 4.3368316364394355, 
      "latmin": 50.770334697225586
    }, 
    {
      "latmax": 50.77124421593632, 
      "name": "Kasteelstraat", 
      "lonmin": 4.335453125833129, 
      "sanName": "kasteelstraat", 
      "numOfAddr": 8, 
      "lonmax": 4.33904627396401, 
      "latmin": 50.769925228027
    }, 
    {
      "latmax": 50.772139837809064, 
      "name": "Kerkstraat", 
      "lonmin": 4.33487439897827, 
      "sanName": "kerkstraat", 
      "numOfAddr": 31, 
      "lonmax": 4.3371234792058795, 
      "latmin": 50.77133169521656
    }, 
    {
      "latmax": 50.77104896370225, 
      "name": "Kerkveld", 
      "lonmin": 4.34145282592355, 
      "sanName": "kerkveld", 
      "numOfAddr": 21, 
      "lonmax": 4.343742056363155, 
      "latmin": 50.76976232235029
    }, 
    {
      "latmax": 50.77264647924496, 
      "name": "Klaprozenweg", 
      "lonmin": 4.345783258216324, 
      "sanName": "klaprozenweg", 
      "numOfAddr": 11, 
      "lonmax": 4.34754040897143, 
      "latmin": 50.77110841644508
    }, 
    {
      "latmax": 50.77120771615272, 
      "name": "Kleindalpad", 
      "lonmin": 4.348281498068992, 
      "sanName": "kleindalpad", 
      "numOfAddr": 7, 
      "lonmax": 4.349430958811646, 
      "latmin": 50.77056684290261
    }, 
    {
      "latmax": 50.772244072699735, 
      "name": "Kleindalstraat", 
      "lonmin": 4.342680346596182, 
      "sanName": "kleindalstraat", 
      "numOfAddr": 25, 
      "lonmax": 4.3484603815330845, 
      "latmin": 50.77054486805298
    }, 
    {
      "latmax": 50.770136933122444, 
      "name": "Kleiveld", 
      "lonmin": 4.344563634571125, 
      "sanName": "kleiveld", 
      "numOfAddr": 31, 
      "lonmax": 4.345867508706199, 
      "latmin": 50.76619642321909
    }, 
    {
      "latmax": 50.77138869586101, 
      "name": "Koekoekpad", 
      "lonmin": 4.3300173518228045, 
      "sanName": "koekoekpad", 
      "numOfAddr": 4, 
      "lonmax": 4.331990187080084, 
      "latmin": 50.76982970780271
    }, 
    {
      "latmax": 50.77328102421596, 
      "name": "Komd. Romain Marissaldreef", 
      "lonmin": 4.34385196653262, 
      "sanName": "komdromainmarissaldreef", 
      "numOfAddr": 14, 
      "lonmax": 4.346369406879223, 
      "latmin": 50.7715747117443
    }, 
    {
      "latmax": 50.768447395046806, 
      "name": "Krekelendries", 
      "lonmin": 4.336502942888149, 
      "sanName": "krekelendries", 
      "numOfAddr": 5, 
      "lonmax": 4.337493619452289, 
      "latmin": 50.76798327411238
    }, 
    {
      "latmax": 50.77024663673758, 
      "name": "Lange Haagstraat", 
      "lonmin": 4.345629777826585, 
      "sanName": "langehaagstraat", 
      "numOfAddr": 89, 
      "lonmax": 4.356202769747177, 
      "latmin": 50.76473481016639
    }, 
    {
      "latmax": 50.77362195280483, 
      "name": "Marcel en Robert Maassquare", 
      "lonmin": 4.337998419390107, 
      "sanName": "marcelenrobertmaassquare", 
      "numOfAddr": 17, 
      "lonmax": 4.339160193067194, 
      "latmin": 50.7729063136416
    }, 
    {
      "latmax": 50.76896669360215, 
      "name": "Mezenhof", 
      "lonmin": 4.330277086920294, 
      "sanName": "mezenhof", 
      "numOfAddr": 7, 
      "lonmax": 4.3317048389741135, 
      "latmin": 50.76838566709898
    }, 
    {
      "latmax": 50.7767326217974, 
      "name": "Molenhof", 
      "lonmin": 4.327204877630911, 
      "sanName": "molenhof", 
      "numOfAddr": 25, 
      "lonmax": 4.329800296007899, 
      "latmin": 50.775458027406046
    }, 
    {
      "latmax": 50.775762903590405, 
      "name": "Molenstraat", 
      "lonmin": 4.327161883100737, 
      "sanName": "molenstraat", 
      "numOfAddr": 29, 
      "lonmax": 4.330718644421452, 
      "latmin": 50.77450446753343
    }, 
    {
      "latmax": 50.773573407636135, 
      "name": "Oplinkebeekpad", 
      "lonmin": 4.3414584355529025, 
      "sanName": "oplinkebeekpad", 
      "numOfAddr": 13, 
      "lonmax": 4.343666703991078, 
      "latmin": 50.77227449907182
    }, 
    {
      "latmax": 50.775128239645504, 
      "name": "Oude Weg", 
      "lonmin": 4.332545536904688, 
      "sanName": "oudeweg", 
      "numOfAddr": 17, 
      "lonmax": 4.334846285100679, 
      "latmin": 50.77449718669358
    }, 
    {
      "latmax": 50.77294818364169, 
      "name": "Pastorijpad", 
      "lonmin": 4.333621754979735, 
      "sanName": "pastorijpad", 
      "numOfAddr": 6, 
      "lonmax": 4.335466009985435, 
      "latmin": 50.772578613262674
    }, 
    {
      "latmax": 50.77327573512087, 
      "name": "Perkstraat", 
      "lonmin": 4.352204601647483, 
      "sanName": "perkstraat", 
      "numOfAddr": 46, 
      "lonmax": 4.3599225738178715, 
      "latmin": 50.76482580625324
    }, 
    {
      "latmax": 50.76489472772434, 
      "name": "Rodestraat", 
      "lonmin": 4.347705372807911, 
      "sanName": "rodestraat", 
      "numOfAddr": 4, 
      "lonmax": 4.350435044751476, 
      "latmin": 50.75878834771663
    }, 
    {
      "latmax": 50.76597642265973, 
      "name": "Schaveistraat", 
      "lonmin": 4.3441522682560265, 
      "sanName": "schaveistraat", 
      "numOfAddr": 16, 
      "lonmax": 4.345174530457054, 
      "latmin": 50.762803280592195
    }, 
    {
      "latmax": 50.77025939024465, 
      "name": "Scheeweg", 
      "lonmin": 4.336931770958882, 
      "sanName": "scheeweg", 
      "numOfAddr": 5, 
      "lonmax": 4.339230888959239, 
      "latmin": 50.76908844168926
    }, 
    {
      "latmax": 50.7639505872771, 
      "name": "Schouwendaal", 
      "lonmin": 4.356594159659675, 
      "sanName": "schouwendaal", 
      "numOfAddr": 12, 
      "lonmax": 4.357579355175383, 
      "latmin": 50.76212306237305
    }, 
    {
      "latmax": 50.773202836222126, 
      "name": "Sint Sebastiaanstraat", 
      "lonmin": 4.333127547402599, 
      "sanName": "sintsebastiaanstraat", 
      "numOfAddr": 18, 
      "lonmax": 4.335151702357496, 
      "latmin": 50.77180755124874
    }, 
    {
      "latmax": 50.7752317856856, 
      "name": "Stationsstraat", 
      "lonmin": 4.331692628122297, 
      "sanName": "stationsstraat", 
      "numOfAddr": 68, 
      "lonmax": 4.339310785189319, 
      "latmin": 50.773424112757084
    }, 
    {
      "latmax": 50.77845429303087, 
      "name": "Ukkelsesteenweg", 
      "lonmin": 4.321908597030231, 
      "sanName": "ukkelsesteenweg", 
      "numOfAddr": 24, 
      "lonmax": 4.324510726946465, 
      "latmin": 50.777343340736685
    }, 
    {
      "latmax": 50.77132263752104, 
      "name": "Vijversdreef", 
      "lonmin": 4.330514883697562, 
      "sanName": "vijversdreef", 
      "numOfAddr": 19, 
      "lonmax": 4.333023451909878, 
      "latmin": 50.76793710193546
    }, 
    {
      "latmax": 50.76947732894345, 
      "name": "Villalaan", 
      "lonmin": 4.3403551128397675, 
      "sanName": "villalaan", 
      "numOfAddr": 77, 
      "lonmax": 4.34818513229386, 
      "latmin": 50.76535616191867
    }, 
    {
      "latmax": 50.76998133248907, 
      "name": "Wijnbrondal", 
      "lonmin": 4.337938039758516, 
      "sanName": "wijnbrondal", 
      "numOfAddr": 8, 
      "lonmax": 4.344585758260981, 
      "latmin": 50.766423472409635
    }, 
    {
      "latmax": 50.76459996505177, 
      "name": "Woudpad", 
      "lonmin": 4.35808280459527, 
      "sanName": "woudpad", 
      "numOfAddr": 7, 
      "lonmax": 4.359381668443788, 
      "latmin": 50.76415361240501
    }, 
    {
      "latmax": 50.76608386018017, 
      "name": "Wouterbos", 
      "lonmin": 4.342115780909334, 
      "sanName": "wouterbos", 
      "numOfAddr": 29, 
      "lonmax": 4.34404201693964, 
      "latmin": 50.76431280593553
    }, 
    {
      "latmax": 50.77287724426213, 
      "name": "Zavelstraat", 
      "lonmin": 4.337141420116414, 
      "sanName": "zavelstraat", 
      "numOfAddr": 1, 
      "lonmax": 4.337141420116414, 
      "latmin": 50.77287724426213
    }
  ]
}