{
  "streets": [
    {
      "latmax": 50.74598855110525, 
      "name": "Eikstraat", 
      "lonmin": 4.17899950855974, 
      "sanName": "eikstraat", 
      "numOfAddr": 59, 
      "lonmax": 4.186182232084012, 
      "latmin": 50.73268888780748
    }, 
    {
      "latmax": 50.739291668200686, 
      "name": "Elbeekstraat", 
      "lonmin": 4.1829804456121416, 
      "sanName": "elbeekstraat", 
      "numOfAddr": 10, 
      "lonmax": 4.1849417811168355, 
      "latmin": 50.7386163411786
    }, 
    {
      "latmax": 50.74405375521454, 
      "name": "Galgenstraat", 
      "lonmin": 4.180853704710866, 
      "sanName": "galgenstraat", 
      "numOfAddr": 3, 
      "lonmax": 4.181752028234358, 
      "latmin": 50.743723996767194
    }, 
    {
      "latmax": 50.73147696297805, 
      "name": "Grimmigenstraat", 
      "lonmin": 4.186629389939451, 
      "sanName": "grimmigenstraat", 
      "numOfAddr": 17, 
      "lonmax": 4.190489124991866, 
      "latmin": 50.72821093762241
    }, 
    {
      "latmax": 50.744221592194634, 
      "name": "Grote Baan", 
      "lonmin": 4.176666665336156, 
      "sanName": "grotebaan", 
      "numOfAddr": 10, 
      "lonmax": 4.179628277963716, 
      "latmin": 50.74379624378339
    }, 
    {
      "latmax": 50.731642949918104, 
      "name": "Hoge Kouter", 
      "lonmin": 4.175797728008719, 
      "sanName": "hogekouter", 
      "numOfAddr": 6, 
      "lonmax": 4.1775846662322, 
      "latmin": 50.72630160681622
    }, 
    {
      "latmax": 50.74111564722138, 
      "name": "Hollestraat", 
      "lonmin": 4.177863568938419, 
      "sanName": "hollestraat", 
      "numOfAddr": 15, 
      "lonmax": 4.17873769175524, 
      "latmin": 50.73871743591299
    }, 
    {
      "latmax": 50.72444505644596, 
      "name": "Hondzochtstraat", 
      "lonmin": 4.173125173403002, 
      "sanName": "hondzochtstraat", 
      "numOfAddr": 5, 
      "lonmax": 4.175609926210487, 
      "latmin": 50.7237733032224
    }, 
    {
      "latmax": 50.74372909131219, 
      "name": "Johan Demaegtstraat", 
      "lonmin": 4.176392780627565, 
      "sanName": "johandemaegtstraat", 
      "numOfAddr": 37, 
      "lonmax": 4.1822396540489795, 
      "latmin": 50.738167285549956
    }, 
    {
      "latmax": 50.73413539628667, 
      "name": "Kapellestraat", 
      "lonmin": 4.170627472220596, 
      "sanName": "kapellestraat", 
      "numOfAddr": 8, 
      "lonmax": 4.1799751475830424, 
      "latmin": 50.72999334600995
    }, 
    {
      "latmax": 50.73811976158571, 
      "name": "Kiethomstraat", 
      "lonmin": 4.184943589576754, 
      "sanName": "kiethomstraat", 
      "numOfAddr": 4, 
      "lonmax": 4.185807243404819, 
      "latmin": 50.73782473876016
    }, 
    {
      "latmax": 50.732377744161795, 
      "name": "Krockomstraat", 
      "lonmin": 4.176325490123286, 
      "sanName": "krockomstraat", 
      "numOfAddr": 6, 
      "lonmax": 4.182852550596782, 
      "latmin": 50.72920595587388
    }, 
    {
      "latmax": 50.73418032212533, 
      "name": "Marcel Ravetstraat", 
      "lonmin": 4.1799588693127365, 
      "sanName": "marcelravetstraat", 
      "numOfAddr": 9, 
      "lonmax": 4.181877064172641, 
      "latmin": 50.731999960300506
    }, 
    {
      "latmax": 50.7385634592487, 
      "name": "Nederbeertstraat", 
      "lonmin": 4.1777133231755235, 
      "sanName": "nederbeertstraat", 
      "numOfAddr": 9, 
      "lonmax": 4.1789870122259, 
      "latmin": 50.73824858128233
    }, 
    {
      "latmax": 50.74017047138606, 
      "name": "Schoolstraat", 
      "lonmin": 4.178262630406184, 
      "sanName": "schoolstraat", 
      "numOfAddr": 2, 
      "lonmax": 4.178648803935298, 
      "latmin": 50.740163912375046
    }, 
    {
      "latmax": 50.74376527001879, 
      "name": "Trapkensstraat", 
      "lonmin": 4.179125992990589, 
      "sanName": "trapkensstraat", 
      "numOfAddr": 2, 
      "lonmax": 4.179724670898297, 
      "latmin": 50.74318198900509
    }
  ]
}