{
  "streets": [
    {
      "latmax": 50.86241717965897, 
      "name": "Assesteenweg", 
      "lonmin": 4.1489058527897695, 
      "sanName": "assesteenweg", 
      "numOfAddr": 57, 
      "lonmax": 4.1569273599633165, 
      "latmin": 50.84337292484312
    }, 
    {
      "latmax": 50.85596330535715, 
      "name": "Bollestraat", 
      "lonmin": 4.16153476672723, 
      "sanName": "bollestraat", 
      "numOfAddr": 21, 
      "lonmax": 4.162915433491754, 
      "latmin": 50.85395940826871
    }, 
    {
      "latmax": 50.863393918904066, 
      "name": "Boomgaard", 
      "lonmin": 4.141684317683337, 
      "sanName": "boomgaard", 
      "numOfAddr": 7, 
      "lonmax": 4.142447480326721, 
      "latmin": 50.86295454405736
    }, 
    {
      "latmax": 50.867151166402316, 
      "name": "Bosstraat", 
      "lonmin": 4.13167589440541, 
      "sanName": "bosstraat", 
      "numOfAddr": 1, 
      "lonmax": 4.13167589440541, 
      "latmin": 50.867151166402316
    }, 
    {
      "latmax": 50.86223256739198, 
      "name": "De Klei", 
      "lonmin": 4.116935987979894, 
      "sanName": "deklei", 
      "numOfAddr": 23, 
      "lonmax": 4.130174259796005, 
      "latmin": 50.856079418780155
    }, 
    {
      "latmax": 50.849316040264846, 
      "name": "D'Hoef", 
      "lonmin": 4.17091971739549, 
      "sanName": "dhoef", 
      "numOfAddr": 11, 
      "lonmax": 4.172976856689802, 
      "latmin": 50.848348611611144
    }, 
    {
      "latmax": 50.852689755762405, 
      "name": "Doelstraat", 
      "lonmin": 4.164351246904263, 
      "sanName": "doelstraat", 
      "numOfAddr": 66, 
      "lonmax": 4.167453174936624, 
      "latmin": 50.84706013715791
    }, 
    {
      "latmax": 50.84999273913741, 
      "name": "Drijvelingslos", 
      "lonmin": 4.1572230562315875, 
      "sanName": "drijvelingslos", 
      "numOfAddr": 28, 
      "lonmax": 4.160139825081619, 
      "latmin": 50.843916441178024
    }, 
    {
      "latmax": 50.85207660232555, 
      "name": "Droge Weidestraat", 
      "lonmin": 4.167311917213837, 
      "sanName": "drogeweidestraat", 
      "numOfAddr": 14, 
      "lonmax": 4.169010501420531, 
      "latmin": 50.85081810906595
    }, 
    {
      "latmax": 50.86354658815888, 
      "name": "Dronkenborrestraat", 
      "lonmin": 4.145055752698801, 
      "sanName": "dronkenborrestraat", 
      "numOfAddr": 47, 
      "lonmax": 4.153682171651509, 
      "latmin": 50.85902799719008
    }, 
    {
      "latmax": 50.86507207839782, 
      "name": "Egaartbaan", 
      "lonmin": 4.14258309389215, 
      "sanName": "egaartbaan", 
      "numOfAddr": 21, 
      "lonmax": 4.1466760546917945, 
      "latmin": 50.86253108082501
    }, 
    {
      "latmax": 50.845218748652236, 
      "name": "Elshoutweg", 
      "lonmin": 4.157768702343885, 
      "sanName": "elshoutweg", 
      "numOfAddr": 3, 
      "lonmax": 4.160101214179927, 
      "latmin": 50.84385910283128
    }, 
    {
      "latmax": 50.85654800614716, 
      "name": "Fijnestraat", 
      "lonmin": 4.1660080027185495, 
      "sanName": "fijnestraat", 
      "numOfAddr": 8, 
      "lonmax": 4.174160511303199, 
      "latmin": 50.85438462048566
    }, 
    {
      "latmax": 50.87039950030487, 
      "name": "Fossebaan", 
      "lonmin": 4.119774899227307, 
      "sanName": "fossebaan", 
      "numOfAddr": 119, 
      "lonmax": 4.152426297905444, 
      "latmin": 50.85665192225424
    }, 
    {
      "latmax": 50.86831128561343, 
      "name": "Heidestraat", 
      "lonmin": 4.132618061355328, 
      "sanName": "heidestraat", 
      "numOfAddr": 56, 
      "lonmax": 4.141391551493026, 
      "latmin": 50.866335649350745
    }, 
    {
      "latmax": 50.86353414901809, 
      "name": "Hertstokweg", 
      "lonmin": 4.139026071739912, 
      "sanName": "hertstokweg", 
      "numOfAddr": 6, 
      "lonmax": 4.139641021281238, 
      "latmin": 50.863197036052625
    }, 
    {
      "latmax": 50.86623349103413, 
      "name": "Kattestraat", 
      "lonmin": 4.126138365213205, 
      "sanName": "kattestraat", 
      "numOfAddr": 39, 
      "lonmax": 4.132453448167584, 
      "latmin": 50.860428486075854
    }, 
    {
      "latmax": 50.851643717641245, 
      "name": "Klapscheutstraat", 
      "lonmin": 4.152895364354656, 
      "sanName": "klapscheutstraat", 
      "numOfAddr": 43, 
      "lonmax": 4.160015932533408, 
      "latmin": 50.84403461455519
    }, 
    {
      "latmax": 50.866656240819594, 
      "name": "Kleemstraat", 
      "lonmin": 4.13942125484388, 
      "sanName": "kleemstraat", 
      "numOfAddr": 65, 
      "lonmax": 4.146462361548144, 
      "latmin": 50.86249593577232
    }, 
    {
      "latmax": 50.86266795103611, 
      "name": "Kruisstraat", 
      "lonmin": 4.161351751977838, 
      "sanName": "kruisstraat", 
      "numOfAddr": 1, 
      "lonmax": 4.161351751977838, 
      "latmin": 50.86266795103611
    }, 
    {
      "latmax": 50.85387497224035, 
      "name": "Langestraat", 
      "lonmin": 4.160986071039174, 
      "sanName": "langestraat", 
      "numOfAddr": 133, 
      "lonmax": 4.185976760469042, 
      "latmin": 50.85000847801538
    }, 
    {
      "latmax": 50.86123364450023, 
      "name": "Loddershoekstraat", 
      "lonmin": 4.133780657978308, 
      "sanName": "loddershoekstraat", 
      "numOfAddr": 55, 
      "lonmax": 4.144435377983009, 
      "latmin": 50.85699774807241
    }, 
    {
      "latmax": 50.852414864662734, 
      "name": "Massestraat", 
      "lonmin": 4.16902536293226, 
      "sanName": "massestraat", 
      "numOfAddr": 53, 
      "lonmax": 4.170670064794892, 
      "latmin": 50.846431524167684
    }, 
    {
      "latmax": 50.868213559530524, 
      "name": "Natte Kouter", 
      "lonmin": 4.175723033314852, 
      "sanName": "nattekouter", 
      "numOfAddr": 1, 
      "lonmax": 4.175723033314852, 
      "latmin": 50.868213559530524
    }, 
    {
      "latmax": 50.85416898027674, 
      "name": "Pijpelarestraat", 
      "lonmin": 4.169790440606339, 
      "sanName": "pijpelarestraat", 
      "numOfAddr": 12, 
      "lonmax": 4.172782257735992, 
      "latmin": 50.85311524323914
    }, 
    {
      "latmax": 50.8533431240721, 
      "name": "Pol de Montstraat", 
      "lonmin": 4.160107261184994, 
      "sanName": "poldemontstraat", 
      "numOfAddr": 31, 
      "lonmax": 4.162616393733561, 
      "latmin": 50.85196467501012
    }, 
    {
      "latmax": 50.84936416185117, 
      "name": "Polleringestraat", 
      "lonmin": 4.167979408404967, 
      "sanName": "polleringestraat", 
      "numOfAddr": 35, 
      "lonmax": 4.176097937870672, 
      "latmin": 50.84731337264438
    }, 
    {
      "latmax": 50.85002405491874, 
      "name": "Populiereveldlos", 
      "lonmin": 4.155035129027733, 
      "sanName": "populiereveldlos", 
      "numOfAddr": 12, 
      "lonmax": 4.158038738019664, 
      "latmin": 50.84822504449636
    }, 
    {
      "latmax": 50.85191047975961, 
      "name": "Potgieter", 
      "lonmin": 4.161732994197964, 
      "sanName": "potgieter", 
      "numOfAddr": 22, 
      "lonmax": 4.16406893804219, 
      "latmin": 50.85019325578652
    }, 
    {
      "latmax": 50.85533469157271, 
      "name": "Schapenbaan", 
      "lonmin": 4.17517880729684, 
      "sanName": "schapenbaan", 
      "numOfAddr": 27, 
      "lonmax": 4.178296177296091, 
      "latmin": 50.844024028435584
    }, 
    {
      "latmax": 50.85726333169346, 
      "name": "Spiegelstraat", 
      "lonmin": 4.15579547049814, 
      "sanName": "spiegelstraat", 
      "numOfAddr": 9, 
      "lonmax": 4.157688378308174, 
      "latmin": 50.855105933414166
    }, 
    {
      "latmax": 50.85600329913877, 
      "name": "Stenebrugstraat", 
      "lonmin": 4.154654764903621, 
      "sanName": "stenebrugstraat", 
      "numOfAddr": 72, 
      "lonmax": 4.1609194296480725, 
      "latmin": 50.8534514075288
    }, 
    {
      "latmax": 50.85336851525053, 
      "name": "Terlindenbaan", 
      "lonmin": 4.186236577401304, 
      "sanName": "terlindenbaan", 
      "numOfAddr": 2, 
      "lonmax": 4.187309803289381, 
      "latmin": 50.85325079308753
    }, 
    {
      "latmax": 50.86507476741109, 
      "name": "Vianestraat", 
      "lonmin": 4.147318182887817, 
      "sanName": "vianestraat", 
      "numOfAddr": 4, 
      "lonmax": 4.149498798975094, 
      "latmin": 50.864583078541884
    }, 
    {
      "latmax": 50.851386268601956, 
      "name": "Weurfstraat", 
      "lonmin": 4.153585498914314, 
      "sanName": "weurfstraat", 
      "numOfAddr": 8, 
      "lonmax": 4.1555592964495, 
      "latmin": 50.85103084255797
    }, 
    {
      "latmax": 50.861219408740304, 
      "name": "Weverstraat", 
      "lonmin": 4.163937786927926, 
      "sanName": "weverstraat", 
      "numOfAddr": 52, 
      "lonmax": 4.170226960258709, 
      "latmin": 50.85357382860121
    }, 
    {
      "latmax": 50.84955223317399, 
      "name": "Zierbeekstraat", 
      "lonmin": 4.185280327247867, 
      "sanName": "zierbeekstraat", 
      "numOfAddr": 1, 
      "lonmax": 4.185280327247867, 
      "latmin": 50.84955223317399
    }
  ]
}