{
  "streets": [
    {
      "latmax": 50.87251860199052, 
      "name": "Acacialaan", 
      "lonmin": 4.153733876629273, 
      "sanName": "acacialaan", 
      "numOfAddr": 23, 
      "lonmax": 4.155325828122702, 
      "latmin": 50.87078374202016
    }, 
    {
      "latmax": 50.882126316312096, 
      "name": "Affligemstraat", 
      "lonmin": 4.114028414177835, 
      "sanName": "affligemstraat", 
      "numOfAddr": 129, 
      "lonmax": 4.129706624786085, 
      "latmin": 50.88120462582037
    }, 
    {
      "latmax": 50.875557249751814, 
      "name": "Asbaan", 
      "lonmin": 4.157018681193846, 
      "sanName": "asbaan", 
      "numOfAddr": 39, 
      "lonmax": 4.162900647673553, 
      "latmin": 50.87501539786591
    }, 
    {
      "latmax": 50.877818553176205, 
      "name": "Assesteenweg", 
      "lonmin": 4.15792699381923, 
      "sanName": "assesteenweg", 
      "numOfAddr": 85, 
      "lonmax": 4.164172170008018, 
      "latmin": 50.86485512650216
    }, 
    {
      "latmax": 50.871722238964516, 
      "name": "Beekstraat", 
      "lonmin": 4.1555647075023225, 
      "sanName": "beekstraat", 
      "numOfAddr": 27, 
      "lonmax": 4.158180898624089, 
      "latmin": 50.86988685613062
    }, 
    {
      "latmax": 50.87329856830074, 
      "name": "Beukstraat", 
      "lonmin": 4.1481743155062185, 
      "sanName": "beukstraat", 
      "numOfAddr": 16, 
      "lonmax": 4.1503269289466935, 
      "latmin": 50.872451087797295
    }, 
    {
      "latmax": 50.88242692745854, 
      "name": "Bosstraat", 
      "lonmin": 4.127935963647033, 
      "sanName": "bosstraat", 
      "numOfAddr": 225, 
      "lonmax": 4.133335360882156, 
      "latmin": 50.86714682052096
    }, 
    {
      "latmax": 50.87988069889425, 
      "name": "Broekstraat", 
      "lonmin": 4.147627604232711, 
      "sanName": "broekstraat", 
      "numOfAddr": 16, 
      "lonmax": 4.150716287373375, 
      "latmin": 50.877814713953036
    }, 
    {
      "latmax": 50.87436120601147, 
      "name": "Canadastraat", 
      "lonmin": 4.159974718825014, 
      "sanName": "canadastraat", 
      "numOfAddr": 7, 
      "lonmax": 4.160533368506522, 
      "latmin": 50.87416802255213
    }, 
    {
      "latmax": 50.87978099313415, 
      "name": "Dahlialaan", 
      "lonmin": 4.124529616453438, 
      "sanName": "dahlialaan", 
      "numOfAddr": 52, 
      "lonmax": 4.1294448847531, 
      "latmin": 50.87573504028445
    }, 
    {
      "latmax": 50.874117505145215, 
      "name": "Dennenstraat", 
      "lonmin": 4.150169941406654, 
      "sanName": "dennenstraat", 
      "numOfAddr": 8, 
      "lonmax": 4.151018185878631, 
      "latmin": 50.873584368936235
    }, 
    {
      "latmax": 50.877130022632834, 
      "name": "Driesweg", 
      "lonmin": 4.154788873493818, 
      "sanName": "driesweg", 
      "numOfAddr": 8, 
      "lonmax": 4.155858169146327, 
      "latmin": 50.87683572185438
    }, 
    {
      "latmax": 50.870778772602684, 
      "name": "Eikveldstraat", 
      "lonmin": 4.145635281951068, 
      "sanName": "eikveldstraat", 
      "numOfAddr": 12, 
      "lonmax": 4.146882515497093, 
      "latmin": 50.870036525923034
    }, 
    {
      "latmax": 50.87288147331519, 
      "name": "Esdoornstraat", 
      "lonmin": 4.14971014742221, 
      "sanName": "esdoornstraat", 
      "numOfAddr": 30, 
      "lonmax": 4.152385875336604, 
      "latmin": 50.8721176216628
    }, 
    {
      "latmax": 50.87015064556275, 
      "name": "Fazantenlaan", 
      "lonmin": 4.154279867590379, 
      "sanName": "fazantenlaan", 
      "numOfAddr": 101, 
      "lonmax": 4.158541514196125, 
      "latmin": 50.86559752822936
    }, 
    {
      "latmax": 50.87275214227225, 
      "name": "Heidestraat", 
      "lonmin": 4.1324080336650475, 
      "sanName": "heidestraat", 
      "numOfAddr": 131, 
      "lonmax": 4.149147110837777, 
      "latmin": 50.86692790145605
    }, 
    {
      "latmax": 50.87698193133494, 
      "name": "Hertigemstraat", 
      "lonmin": 4.118918488710194, 
      "sanName": "hertigemstraat", 
      "numOfAddr": 17, 
      "lonmax": 4.121389951097115, 
      "latmin": 50.87632768162539
    }, 
    {
      "latmax": 50.882176128792445, 
      "name": "Hopstraat", 
      "lonmin": 4.107143039896348, 
      "sanName": "hopstraat", 
      "numOfAddr": 29, 
      "lonmax": 4.111521382797113, 
      "latmin": 50.878989465984844
    }, 
    {
      "latmax": 50.874726571937025, 
      "name": "Kapelleveld", 
      "lonmin": 4.156675564769538, 
      "sanName": "kapelleveld", 
      "numOfAddr": 55, 
      "lonmax": 4.162702361795463, 
      "latmin": 50.87285875170207
    }, 
    {
      "latmax": 50.87481581071301, 
      "name": "Kerkpleinweg", 
      "lonmin": 4.15599414221141, 
      "sanName": "kerkpleinweg", 
      "numOfAddr": 16, 
      "lonmax": 4.157759684366783, 
      "latmin": 50.87335193298769
    }, 
    {
      "latmax": 50.873471109231154, 
      "name": "Kerkstraat", 
      "lonmin": 4.155167869947678, 
      "sanName": "kerkstraat", 
      "numOfAddr": 60, 
      "lonmax": 4.160105467695427, 
      "latmin": 50.8698745760917
    }, 
    {
      "latmax": 50.88052384334323, 
      "name": "Klaverstraat", 
      "lonmin": 4.129409451946707, 
      "sanName": "klaverstraat", 
      "numOfAddr": 22, 
      "lonmax": 4.1332560303253745, 
      "latmin": 50.87940153715748
    }, 
    {
      "latmax": 50.87552891963219, 
      "name": "Klimopstraat", 
      "lonmin": 4.127548904451234, 
      "sanName": "klimopstraat", 
      "numOfAddr": 21, 
      "lonmax": 4.13014153674672, 
      "latmin": 50.874711563488276
    }, 
    {
      "latmax": 50.870837594368666, 
      "name": "Knotwilgenlaan", 
      "lonmin": 4.152774335018986, 
      "sanName": "knotwilgenlaan", 
      "numOfAddr": 16, 
      "lonmax": 4.155065569500537, 
      "latmin": 50.8702317844109
    }, 
    {
      "latmax": 50.8813770126213, 
      "name": "Korenbloemstraat", 
      "lonmin": 4.130624782423888, 
      "sanName": "korenbloemstraat", 
      "numOfAddr": 23, 
      "lonmax": 4.13386132777612, 
      "latmin": 50.87952977880164
    }, 
    {
      "latmax": 50.87923248284302, 
      "name": "Kruidenlaan", 
      "lonmin": 4.125618369794857, 
      "sanName": "kruidenlaan", 
      "numOfAddr": 70, 
      "lonmax": 4.128816301868375, 
      "latmin": 50.876328126374645
    }, 
    {
      "latmax": 50.87761641954891, 
      "name": "Leliestraat", 
      "lonmin": 4.118629725625849, 
      "sanName": "leliestraat", 
      "numOfAddr": 23, 
      "lonmax": 4.122248782778451, 
      "latmin": 50.876726038514214
    }, 
    {
      "latmax": 50.86838418804465, 
      "name": "Lijsterlaan", 
      "lonmin": 4.156029999083208, 
      "sanName": "lijsterlaan", 
      "numOfAddr": 41, 
      "lonmax": 4.158367527753829, 
      "latmin": 50.86697598707857
    }, 
    {
      "latmax": 50.87261099935192, 
      "name": "Lindenstraat", 
      "lonmin": 4.150148045684557, 
      "sanName": "lindenstraat", 
      "numOfAddr": 35, 
      "lonmax": 4.153214290893226, 
      "latmin": 50.86970712726653
    }, 
    {
      "latmax": 50.8766988501843, 
      "name": "Lippensputweg", 
      "lonmin": 4.154886487514539, 
      "sanName": "lippensputweg", 
      "numOfAddr": 26, 
      "lonmax": 4.158603638840532, 
      "latmin": 50.87548370992251
    }, 
    {
      "latmax": 50.88035874803871, 
      "name": "Lostraat", 
      "lonmin": 4.142768966525845, 
      "sanName": "lostraat", 
      "numOfAddr": 10, 
      "lonmax": 4.144356842308272, 
      "latmin": 50.876883167416615
    }, 
    {
      "latmax": 50.88321193999558, 
      "name": "Meersstraat", 
      "lonmin": 4.131376513013726, 
      "sanName": "meersstraat", 
      "numOfAddr": 245, 
      "lonmax": 4.1552197982328005, 
      "latmin": 50.874175535214874
    }, 
    {
      "latmax": 50.8768373947769, 
      "name": "Muilemlaan", 
      "lonmin": 4.142246028700906, 
      "sanName": "muilemlaan", 
      "numOfAddr": 65, 
      "lonmax": 4.153605770848738, 
      "latmin": 50.873373662068595
    }, 
    {
      "latmax": 50.88076758730899, 
      "name": "Nieuwbaan", 
      "lonmin": 4.107836568766034, 
      "sanName": "nieuwbaan", 
      "numOfAddr": 143, 
      "lonmax": 4.128339409105149, 
      "latmin": 50.87909919840351
    }, 
    {
      "latmax": 50.87384440240484, 
      "name": "Notestraat", 
      "lonmin": 4.13858819351383, 
      "sanName": "notestraat", 
      "numOfAddr": 60, 
      "lonmax": 4.14415091641623, 
      "latmin": 50.87073833732885
    }, 
    {
      "latmax": 50.87127386117643, 
      "name": "Plotersstraat", 
      "lonmin": 4.151773834636922, 
      "sanName": "plotersstraat", 
      "numOfAddr": 15, 
      "lonmax": 4.152898053087507, 
      "latmin": 50.86972766914325
    }, 
    {
      "latmax": 50.87661310808804, 
      "name": "Processiestraat", 
      "lonmin": 4.15560050516797, 
      "sanName": "processiestraat", 
      "numOfAddr": 79, 
      "lonmax": 4.163404030729238, 
      "latmin": 50.874054324185565
    }, 
    {
      "latmax": 50.866374127128296, 
      "name": "Reigerlaan", 
      "lonmin": 4.155810776986251, 
      "sanName": "reigerlaan", 
      "numOfAddr": 5, 
      "lonmax": 4.1565209395396066, 
      "latmin": 50.86617016705484
    }, 
    {
      "latmax": 50.87959011943507, 
      "name": "Rietstraat", 
      "lonmin": 4.1185256320929655, 
      "sanName": "rietstraat", 
      "numOfAddr": 6, 
      "lonmax": 4.120939579396851, 
      "latmin": 50.8784979710772
    }, 
    {
      "latmax": 50.873745794098404, 
      "name": "Rodestraat", 
      "lonmin": 4.1495785719033496, 
      "sanName": "rodestraat", 
      "numOfAddr": 53, 
      "lonmax": 4.154854911742287, 
      "latmin": 50.87244705848453
    }, 
    {
      "latmax": 50.8699716951295, 
      "name": "Roesemslos", 
      "lonmin": 4.1349917165313474, 
      "sanName": "roesemslos", 
      "numOfAddr": 37, 
      "lonmax": 4.13853764662811, 
      "latmin": 50.867896523984385
    }, 
    {
      "latmax": 50.88127990594381, 
      "name": "Rozenstraat", 
      "lonmin": 4.108835024124911, 
      "sanName": "rozenstraat", 
      "numOfAddr": 44, 
      "lonmax": 4.114132549835303, 
      "latmin": 50.8802595691523
    }, 
    {
      "latmax": 50.87517533843182, 
      "name": "Schoolstraat", 
      "lonmin": 4.1519423141342395, 
      "sanName": "schoolstraat", 
      "numOfAddr": 3, 
      "lonmax": 4.152310009224413, 
      "latmin": 50.87441539761057
    }, 
    {
      "latmax": 50.871909106674664, 
      "name": "Sibbekensveldstraat", 
      "lonmin": 4.14559282721523, 
      "sanName": "sibbekensveldstraat", 
      "numOfAddr": 45, 
      "lonmax": 4.148892459503033, 
      "latmin": 50.86538080477814
    }, 
    {
      "latmax": 50.87275394822669, 
      "name": "Sint-Katherinastraat", 
      "lonmin": 4.153061241647541, 
      "sanName": "sintkatherinastraat", 
      "numOfAddr": 44, 
      "lonmax": 4.1561278243168065, 
      "latmin": 50.8660082724989
    }, 
    {
      "latmax": 50.88325137768215, 
      "name": "Sluisvijverstraat", 
      "lonmin": 4.116557784434118, 
      "sanName": "sluisvijverstraat", 
      "numOfAddr": 41, 
      "lonmax": 4.1183040489824405, 
      "latmin": 50.88004816277142
    }, 
    {
      "latmax": 50.88320339115496, 
      "name": "Spoorwegbaan", 
      "lonmin": 4.107168305371771, 
      "sanName": "spoorwegbaan", 
      "numOfAddr": 40, 
      "lonmax": 4.130518486439845, 
      "latmin": 50.88187412668557
    }, 
    {
      "latmax": 50.878023756252595, 
      "name": "Tarwehof", 
      "lonmin": 4.128870202573117, 
      "sanName": "tarwehof", 
      "numOfAddr": 7, 
      "lonmax": 4.129436325129621, 
      "latmin": 50.877259880768555
    }, 
    {
      "latmax": 50.87420760454668, 
      "name": "Ternatstraat", 
      "lonmin": 4.157431119603845, 
      "sanName": "ternatstraat", 
      "numOfAddr": 44, 
      "lonmax": 4.1617032658539745, 
      "latmin": 50.8726535941497
    }, 
    {
      "latmax": 50.88170159095584, 
      "name": "Tulpenstraat", 
      "lonmin": 4.125225949638308, 
      "sanName": "tulpenstraat", 
      "numOfAddr": 16, 
      "lonmax": 4.125763166257552, 
      "latmin": 50.88064730284764
    }, 
    {
      "latmax": 50.879082714419816, 
      "name": "Veldstraat", 
      "lonmin": 4.116864003363694, 
      "sanName": "veldstraat", 
      "numOfAddr": 46, 
      "lonmax": 4.1196018451001155, 
      "latmin": 50.87480891780462
    }, 
    {
      "latmax": 50.86556421565725, 
      "name": "Vianestraat", 
      "lonmin": 4.147063316903898, 
      "sanName": "vianestraat", 
      "numOfAddr": 8, 
      "lonmax": 4.152107447654649, 
      "latmin": 50.864658566545714
    }, 
    {
      "latmax": 50.8686410623809, 
      "name": "Vierendeelslos", 
      "lonmin": 4.1341307311253805, 
      "sanName": "vierendeelslos", 
      "numOfAddr": 7, 
      "lonmax": 4.134653547378372, 
      "latmin": 50.86768938278434
    }, 
    {
      "latmax": 50.86964440311295, 
      "name": "Vinkenlaan", 
      "lonmin": 4.155598750818386, 
      "sanName": "vinkenlaan", 
      "numOfAddr": 45, 
      "lonmax": 4.15910382235066, 
      "latmin": 50.86821347114498
    }, 
    {
      "latmax": 50.871877385671176, 
      "name": "Watermolenstraat", 
      "lonmin": 4.149047065968317, 
      "sanName": "watermolenstraat", 
      "numOfAddr": 53, 
      "lonmax": 4.153204346442069, 
      "latmin": 50.8685723611366
    }, 
    {
      "latmax": 50.87018275601397, 
      "name": "Weidestraat", 
      "lonmin": 4.157445778297817, 
      "sanName": "weidestraat", 
      "numOfAddr": 30, 
      "lonmax": 4.159206491705679, 
      "latmin": 50.86878026491548
    }, 
    {
      "latmax": 50.866941929349785, 
      "name": "Zwaluwlaan", 
      "lonmin": 4.155820531510194, 
      "sanName": "zwaluwlaan", 
      "numOfAddr": 54, 
      "lonmax": 4.158136828758774, 
      "latmin": 50.86515125507702
    }
  ]
}