{
  "streets": [
    {
      "latmax": 50.801155458055405, 
      "name": "Aambeeldstraat", 
      "lonmin": 4.141304483061596, 
      "sanName": "aambeeldstraat", 
      "numOfAddr": 7, 
      "lonmax": 4.142099755672272, 
      "latmin": 50.80067345578494
    }, 
    {
      "latmax": 50.80796769864746, 
      "name": "Albert Vanderkelenstraat", 
      "lonmin": 4.154606062452325, 
      "sanName": "albertvanderkelenstraat", 
      "numOfAddr": 19, 
      "lonmax": 4.156047536230641, 
      "latmin": 50.8063983047848
    }, 
    {
      "latmax": 50.8082833441965, 
      "name": "Alfred Algoetstraat", 
      "lonmin": 4.15587810485458, 
      "sanName": "alfredalgoetstraat", 
      "numOfAddr": 78, 
      "lonmax": 4.1640602324206135, 
      "latmin": 50.80538684123083
    }, 
    {
      "latmax": 50.812853460735, 
      "name": "Alsingenstraat", 
      "lonmin": 4.176521535134222, 
      "sanName": "alsingenstraat", 
      "numOfAddr": 4, 
      "lonmax": 4.177331975985242, 
      "latmin": 50.812807730247386
    }, 
    {
      "latmax": 50.807873098135005, 
      "name": "Andreas Masiusplein", 
      "lonmin": 4.153882383094689, 
      "sanName": "andreasmasiusplein", 
      "numOfAddr": 6, 
      "lonmax": 4.154792778923162, 
      "latmin": 50.80633416335685
    }, 
    {
      "latmax": 50.81749429741814, 
      "name": "Appelboomstraat", 
      "lonmin": 4.2083879267468625, 
      "sanName": "appelboomstraat", 
      "numOfAddr": 1, 
      "lonmax": 4.2083879267468625, 
      "latmin": 50.81749429741814
    }, 
    {
      "latmax": 50.84170354259145, 
      "name": "Assesteenweg", 
      "lonmin": 4.131415347797621, 
      "sanName": "assesteenweg", 
      "numOfAddr": 133, 
      "lonmax": 4.1483438260566015, 
      "latmin": 50.8052987112805
    }, 
    {
      "latmax": 50.829704174229114, 
      "name": "Baasbergstraat", 
      "lonmin": 4.167229983081402, 
      "sanName": "baasbergstraat", 
      "numOfAddr": 11, 
      "lonmax": 4.176494051348275, 
      "latmin": 50.82342627664173
    }, 
    {
      "latmax": 50.81416772669279, 
      "name": "Begijnhof", 
      "lonmin": 4.170144125869576, 
      "sanName": "begijnhof", 
      "numOfAddr": 13, 
      "lonmax": 4.170983635496389, 
      "latmin": 50.812874063547106
    }, 
    {
      "latmax": 50.79948375101933, 
      "name": "Binnenweg", 
      "lonmin": 4.191327800786621, 
      "sanName": "binnenweg", 
      "numOfAddr": 9, 
      "lonmax": 4.192255176495514, 
      "latmin": 50.79750356939667
    }, 
    {
      "latmax": 50.81103735459398, 
      "name": "Blok ter Vaart", 
      "lonmin": 4.141512570122922, 
      "sanName": "bloktervaart", 
      "numOfAddr": 17, 
      "lonmax": 4.145790786812524, 
      "latmin": 50.808881024986164
    }, 
    {
      "latmax": 50.807741695455285, 
      "name": "Borrekeitse", 
      "lonmin": 4.15571585258013, 
      "sanName": "borrekeitse", 
      "numOfAddr": 11, 
      "lonmax": 4.156716678598901, 
      "latmin": 50.80627504211256
    }, 
    {
      "latmax": 50.82188708424183, 
      "name": "Bossuitstraat", 
      "lonmin": 4.169287530900682, 
      "sanName": "bossuitstraat", 
      "numOfAddr": 41, 
      "lonmax": 4.183648089446845, 
      "latmin": 50.81635485569203
    }, 
    {
      "latmax": 50.83773354237686, 
      "name": "Braambos", 
      "lonmin": 4.129081692791036, 
      "sanName": "braambos", 
      "numOfAddr": 5, 
      "lonmax": 4.133757750480735, 
      "latmin": 50.83466954880309
    }, 
    {
      "latmax": 50.78371642888721, 
      "name": "Bree-eik", 
      "lonmin": 4.148478933146377, 
      "sanName": "breeeik", 
      "numOfAddr": 1, 
      "lonmax": 4.148478933146377, 
      "latmin": 50.78371642888721
    }, 
    {
      "latmax": 50.820952515693946, 
      "name": "Brouwerijstraat", 
      "lonmin": 4.207604447558028, 
      "sanName": "brouwerijstraat", 
      "numOfAddr": 1, 
      "lonmax": 4.207604447558028, 
      "latmin": 50.820952515693946
    }, 
    {
      "latmax": 50.80312753268457, 
      "name": "Bruegelhof", 
      "lonmin": 4.158021067743101, 
      "sanName": "bruegelhof", 
      "numOfAddr": 24, 
      "lonmax": 4.1598054415931855, 
      "latmin": 50.80179877473101
    }, 
    {
      "latmax": 50.814041348795335, 
      "name": "Brusselsestraat", 
      "lonmin": 4.16696328126461, 
      "sanName": "brusselsestraat", 
      "numOfAddr": 149, 
      "lonmax": 4.210818533058001, 
      "latmin": 50.808581724178914
    }, 
    {
      "latmax": 50.81515701065865, 
      "name": "Busingenstraat", 
      "lonmin": 4.142119956951845, 
      "sanName": "busingenstraat", 
      "numOfAddr": 62, 
      "lonmax": 4.148020821803771, 
      "latmin": 50.810368418718035
    }, 
    {
      "latmax": 50.833274470832315, 
      "name": "Carnaalstraat", 
      "lonmin": 4.137698469800484, 
      "sanName": "carnaalstraat", 
      "numOfAddr": 16, 
      "lonmax": 4.141398989470957, 
      "latmin": 50.83243295893326
    }, 
    {
      "latmax": 50.827212471158255, 
      "name": "Cottemstraat", 
      "lonmin": 4.198568487274099, 
      "sanName": "cottemstraat", 
      "numOfAddr": 23, 
      "lonmax": 4.2018165063424595, 
      "latmin": 50.824247341965545
    }, 
    {
      "latmax": 50.807077969495836, 
      "name": "Deken Verbesseltstraat", 
      "lonmin": 4.153285413046067, 
      "sanName": "dekenverbesseltstraat", 
      "numOfAddr": 7, 
      "lonmax": 4.154488383105866, 
      "latmin": 50.80671246522995
    }, 
    {
      "latmax": 50.80180346254615, 
      "name": "de Saint-Genoisstraat", 
      "lonmin": 4.139841086131664, 
      "sanName": "desaintgenoisstraat", 
      "numOfAddr": 29, 
      "lonmax": 4.142711868323348, 
      "latmin": 50.80060316984402
    }, 
    {
      "latmax": 50.802008537113814, 
      "name": "Diepenbroekstraat", 
      "lonmin": 4.155902660046252, 
      "sanName": "diepenbroekstraat", 
      "numOfAddr": 19, 
      "lonmax": 4.1611547553718555, 
      "latmin": 50.800798818230334
    }, 
    {
      "latmax": 50.81430443254556, 
      "name": "Doelestraat", 
      "lonmin": 4.164877568210757, 
      "sanName": "doelestraat", 
      "numOfAddr": 18, 
      "lonmax": 4.168055460592979, 
      "latmin": 50.812483006767216
    }, 
    {
      "latmax": 50.802132096992935, 
      "name": "Donkerstraat", 
      "lonmin": 4.179057312140869, 
      "sanName": "donkerstraat", 
      "numOfAddr": 44, 
      "lonmax": 4.194999252467684, 
      "latmin": 50.79409845261797
    }, 
    {
      "latmax": 50.811484075085204, 
      "name": "Dorekenstraat", 
      "lonmin": 4.1656678168444445, 
      "sanName": "dorekenstraat", 
      "numOfAddr": 16, 
      "lonmax": 4.168339539700524, 
      "latmin": 50.81042096121975
    }, 
    {
      "latmax": 50.81288519294331, 
      "name": "Dorp", 
      "lonmin": 4.165016886736977, 
      "sanName": "dorp", 
      "numOfAddr": 35, 
      "lonmax": 4.168153004806491, 
      "latmin": 50.81138390986853
    }, 
    {
      "latmax": 50.81902231503711, 
      "name": "Driekruisenstraat", 
      "lonmin": 4.164348706096737, 
      "sanName": "driekruisenstraat", 
      "numOfAddr": 2, 
      "lonmax": 4.1660875398783555, 
      "latmin": 50.818194593929185
    }, 
    {
      "latmax": 50.822597707790344, 
      "name": "Eizeringenstraat", 
      "lonmin": 4.133147057746374, 
      "sanName": "eizeringenstraat", 
      "numOfAddr": 9, 
      "lonmax": 4.133851037163543, 
      "latmin": 50.821310784653804
    }, 
    {
      "latmax": 50.822108107950235, 
      "name": "Eksterstraat", 
      "lonmin": 4.204036775095816, 
      "sanName": "eksterstraat", 
      "numOfAddr": 19, 
      "lonmax": 4.207094447508695, 
      "latmin": 50.8144142920708
    }, 
    {
      "latmax": 50.84177290327051, 
      "name": "Elshoutweg", 
      "lonmin": 4.162399002334766, 
      "sanName": "elshoutweg", 
      "numOfAddr": 1, 
      "lonmax": 4.162399002334766, 
      "latmin": 50.84177290327051
    }, 
    {
      "latmax": 50.80024209248182, 
      "name": "Espehoutstraat", 
      "lonmin": 4.178839789443509, 
      "sanName": "espehoutstraat", 
      "numOfAddr": 8, 
      "lonmax": 4.182067326010672, 
      "latmin": 50.79790054270101
    }, 
    {
      "latmax": 50.83671855555929, 
      "name": "Felix Van Den Boschstraat", 
      "lonmin": 2.306689562140502, 
      "sanName": "felixvandenboschstraat", 
      "numOfAddr": 19, 
      "lonmax": 4.143173773648406, 
      "latmin": 49.293335165093566
    }, 
    {
      "latmax": 50.83314172029617, 
      "name": "Frans Baetensstraat", 
      "lonmin": 4.138005727677301, 
      "sanName": "fransbaetensstraat", 
      "numOfAddr": 32, 
      "lonmax": 4.143149672967372, 
      "latmin": 50.83135512812839
    }, 
    {
      "latmax": 50.82186687126278, 
      "name": "Frans Devoghellaan", 
      "lonmin": 4.152130220571481, 
      "sanName": "fransdevoghellaan", 
      "numOfAddr": 56, 
      "lonmax": 4.155875589530866, 
      "latmin": 50.80746436157051
    }, 
    {
      "latmax": 50.838798419057184, 
      "name": "Frans De Wolfstraat", 
      "lonmin": 4.150532384536909, 
      "sanName": "fransdewolfstraat", 
      "numOfAddr": 15, 
      "lonmax": 4.156535233230495, 
      "latmin": 50.83571891827844
    }, 
    {
      "latmax": 50.80121990082447, 
      "name": "Frans Jozef De Gronckelstraat", 
      "lonmin": 4.143059087195393, 
      "sanName": "fransjozefdegronckelstraat", 
      "numOfAddr": 14, 
      "lonmax": 4.145251282342146, 
      "latmin": 50.80066355782154
    }, 
    {
      "latmax": 50.79479621857306, 
      "name": "Frans Luckxstraat", 
      "lonmin": 4.1440535843702655, 
      "sanName": "fransluckxstraat", 
      "numOfAddr": 34, 
      "lonmax": 4.161241288752909, 
      "latmin": 50.78590783190947
    }, 
    {
      "latmax": 50.80543465147694, 
      "name": "Frans Van der Steenstraat", 
      "lonmin": 4.149019437313464, 
      "sanName": "fransvandersteenstraat", 
      "numOfAddr": 144, 
      "lonmax": 4.155886036596307, 
      "latmin": 50.79283919195951
    }, 
    {
      "latmax": 50.81090786540745, 
      "name": "Gaasbeeksestraat", 
      "lonmin": 4.189522151339619, 
      "sanName": "gaasbeeksestraat", 
      "numOfAddr": 15, 
      "lonmax": 4.191282693473335, 
      "latmin": 50.809018507005234
    }, 
    {
      "latmax": 50.84102111763279, 
      "name": "Galgestraat", 
      "lonmin": 4.165973289930826, 
      "sanName": "galgestraat", 
      "numOfAddr": 16, 
      "lonmax": 4.171798222666317, 
      "latmin": 50.83682497439391
    }, 
    {
      "latmax": 50.81282525129416, 
      "name": "Geraardsweg", 
      "lonmin": 4.137435697911146, 
      "sanName": "geraardsweg", 
      "numOfAddr": 1, 
      "lonmax": 4.137435697911146, 
      "latmin": 50.81282525129416
    }, 
    {
      "latmax": 50.81046819181714, 
      "name": "Groeneweg", 
      "lonmin": 4.195144877968962, 
      "sanName": "groeneweg", 
      "numOfAddr": 3, 
      "lonmax": 4.204558537205691, 
      "latmin": 50.80641003181857
    }, 
    {
      "latmax": 50.81077485290926, 
      "name": "Groenstraat", 
      "lonmin": 4.191099630391667, 
      "sanName": "groenstraat", 
      "numOfAddr": 25, 
      "lonmax": 4.199023356402945, 
      "latmin": 50.802845691680304
    }, 
    {
      "latmax": 50.80458697479946, 
      "name": "Grote Vijverselenweg", 
      "lonmin": 4.172481818450452, 
      "sanName": "grotevijverselenweg", 
      "numOfAddr": 12, 
      "lonmax": 4.1760078912367735, 
      "latmin": 50.79769228654049
    }, 
    {
      "latmax": 50.832800579969565, 
      "name": "Gustaaf Breynaertstraat", 
      "lonmin": 4.144986385896542, 
      "sanName": "gustaafbreynaertstraat", 
      "numOfAddr": 51, 
      "lonmax": 4.15571818876821, 
      "latmin": 50.81709490558139
    }, 
    {
      "latmax": 50.80619585546723, 
      "name": "Gustaaf Van der Steenstraat", 
      "lonmin": 4.160069354193539, 
      "sanName": "gustaafvandersteenstraat", 
      "numOfAddr": 54, 
      "lonmax": 4.1839229586768205, 
      "latmin": 50.798967749859116
    }, 
    {
      "latmax": 50.80229042337337, 
      "name": "Halleweg", 
      "lonmin": 4.15610167536705, 
      "sanName": "halleweg", 
      "numOfAddr": 9, 
      "lonmax": 4.156795481223231, 
      "latmin": 50.80113683237829
    }, 
    {
      "latmax": 50.80115553693835, 
      "name": "Hamerstraat", 
      "lonmin": 4.141422995118959, 
      "sanName": "hamerstraat", 
      "numOfAddr": 12, 
      "lonmax": 4.142989228856409, 
      "latmin": 50.80013235935239
    }, 
    {
      "latmax": 50.81551347346478, 
      "name": "Hemelveldweg", 
      "lonmin": 4.144762181217263, 
      "sanName": "hemelveldweg", 
      "numOfAddr": 19, 
      "lonmax": 4.148025465180829, 
      "latmin": 50.81395628114929
    }, 
    {
      "latmax": 50.80627380655503, 
      "name": "Hendrik Ghijselenstraat", 
      "lonmin": 4.151795721541498, 
      "sanName": "hendrikghijselenstraat", 
      "numOfAddr": 23, 
      "lonmax": 4.1537073001124964, 
      "latmin": 50.80573384505433
    }, 
    {
      "latmax": 50.80077804045262, 
      "name": "Henry Dunantstraat", 
      "lonmin": 4.142694887178324, 
      "sanName": "henrydunantstraat", 
      "numOfAddr": 13, 
      "lonmax": 4.144162048111969, 
      "latmin": 50.79979298169481
    }, 
    {
      "latmax": 50.81533557083064, 
      "name": "Hondenstraat", 
      "lonmin": 4.140683811673492, 
      "sanName": "hondenstraat", 
      "numOfAddr": 1, 
      "lonmax": 4.140683811673492, 
      "latmin": 50.81533557083064
    }, 
    {
      "latmax": 50.83244781914197, 
      "name": "Hunselstraat", 
      "lonmin": 4.1113132387066935, 
      "sanName": "hunselstraat", 
      "numOfAddr": 46, 
      "lonmax": 4.116618891805576, 
      "latmin": 50.824385981713355
    }, 
    {
      "latmax": 50.83040433777074, 
      "name": "Hunselveld", 
      "lonmin": 4.11231721577908, 
      "sanName": "hunselveld", 
      "numOfAddr": 24, 
      "lonmax": 4.123422990063025, 
      "latmin": 50.82757306971897
    }, 
    {
      "latmax": 50.83245901191272, 
      "name": "Hunselveldweg", 
      "lonmin": 4.114972733848333, 
      "sanName": "hunselveldweg", 
      "numOfAddr": 16, 
      "lonmax": 4.11787498944157, 
      "latmin": 50.83088441679829
    }, 
    {
      "latmax": 50.80021002115589, 
      "name": "Ilingenstraat", 
      "lonmin": 4.15557088095826, 
      "sanName": "ilingenstraat", 
      "numOfAddr": 25, 
      "lonmax": 4.161797905919721, 
      "latmin": 50.79497715842236
    }, 
    {
      "latmax": 50.80562828660371, 
      "name": "Jan Baptist Van der Lindenstraat", 
      "lonmin": 4.156844847741417, 
      "sanName": "janbaptistvanderlindenstraat", 
      "numOfAddr": 41, 
      "lonmax": 4.158103070954817, 
      "latmin": 50.80136257364299
    }, 
    {
      "latmax": 50.80697823639288, 
      "name": "Joseph Van den Bosschestraat", 
      "lonmin": 4.131556341699376, 
      "sanName": "josephvandenbosschestraat", 
      "numOfAddr": 93, 
      "lonmax": 4.147066606917627, 
      "latmin": 50.80237138059441
    }, 
    {
      "latmax": 50.803656950461914, 
      "name": "Kamerveldweg", 
      "lonmin": 4.147602925299393, 
      "sanName": "kamerveldweg", 
      "numOfAddr": 4, 
      "lonmax": 4.148369868108906, 
      "latmin": 50.80321941106787
    }, 
    {
      "latmax": 50.830935661827, 
      "name": "Kamstraat", 
      "lonmin": 4.142196396645576, 
      "sanName": "kamstraat", 
      "numOfAddr": 15, 
      "lonmax": 4.143937710840228, 
      "latmin": 50.827464948196386
    }, 
    {
      "latmax": 50.83836768292269, 
      "name": "Kapellestraat", 
      "lonmin": 4.161799741045895, 
      "sanName": "kapellestraat", 
      "numOfAddr": 17, 
      "lonmax": 4.16900394296755, 
      "latmin": 50.836662546517914
    }, 
    {
      "latmax": 50.810131313589444, 
      "name": "Karel Keymolenstraat", 
      "lonmin": 2.306689562140502, 
      "sanName": "karelkeymolenstraat", 
      "numOfAddr": 66, 
      "lonmax": 4.154570380848398, 
      "latmin": 49.293335165093566
    }, 
    {
      "latmax": 50.83953166076278, 
      "name": "Karenbergstraat", 
      "lonmin": 4.163031924259584, 
      "sanName": "karenbergstraat", 
      "numOfAddr": 10, 
      "lonmax": 4.167639660622049, 
      "latmin": 50.836210639072156
    }, 
    {
      "latmax": 50.80010132061952, 
      "name": "Kasteelstraat", 
      "lonmin": 4.197046301698145, 
      "sanName": "kasteelstraat", 
      "numOfAddr": 7, 
      "lonmax": 4.203959271977576, 
      "latmin": 50.796486606129115
    }, 
    {
      "latmax": 50.816940322902255, 
      "name": "Katteklauwstraat", 
      "lonmin": 4.14603634243845, 
      "sanName": "katteklauwstraat", 
      "numOfAddr": 11, 
      "lonmax": 4.151154076738936, 
      "latmin": 50.813510988311904
    }, 
    {
      "latmax": 50.834945506821256, 
      "name": "Kattenbos", 
      "lonmin": 4.1507329829935244, 
      "sanName": "kattenbos", 
      "numOfAddr": 31, 
      "lonmax": 4.153283634681774, 
      "latmin": 50.829256039832806
    }, 
    {
      "latmax": 50.835186414097635, 
      "name": "Kattestraat", 
      "lonmin": 4.1558238309617455, 
      "sanName": "kattestraat", 
      "numOfAddr": 28, 
      "lonmax": 4.159175880702874, 
      "latmin": 50.82708641619163
    }, 
    {
      "latmax": 50.80480355649267, 
      "name": "Keitse", 
      "lonmin": 4.155117934055317, 
      "sanName": "keitse", 
      "numOfAddr": 8, 
      "lonmax": 4.1572509202628485, 
      "latmin": 50.804305518270716
    }, 
    {
      "latmax": 50.812421281168, 
      "name": "Kerkhofstraat", 
      "lonmin": 4.173582998360415, 
      "sanName": "kerkhofstraat", 
      "numOfAddr": 3, 
      "lonmax": 4.1755830473437205, 
      "latmin": 50.81193148017475
    }, 
    {
      "latmax": 50.81313242083287, 
      "name": "Kerkstraat", 
      "lonmin": 4.1674324224806725, 
      "sanName": "kerkstraat", 
      "numOfAddr": 6, 
      "lonmax": 4.168383611139212, 
      "latmin": 50.812568941780306
    }, 
    {
      "latmax": 50.80893213229469, 
      "name": "Kerkveldweg", 
      "lonmin": 4.154823387252887, 
      "sanName": "kerkveldweg", 
      "numOfAddr": 9, 
      "lonmax": 4.155940745872564, 
      "latmin": 50.80830897825328
    }, 
    {
      "latmax": 50.83234956866614, 
      "name": "Kerkweg", 
      "lonmin": 4.139945826308183, 
      "sanName": "kerkweg", 
      "numOfAddr": 2, 
      "lonmax": 4.140586493200083, 
      "latmin": 50.83203665482046
    }, 
    {
      "latmax": 50.80041983925596, 
      "name": "Kersestraat", 
      "lonmin": 4.147353720314049, 
      "sanName": "kersestraat", 
      "numOfAddr": 20, 
      "lonmax": 4.151445604790563, 
      "latmin": 50.79915077666777
    }, 
    {
      "latmax": 50.833074131696016, 
      "name": "Keurebeekveldlos", 
      "lonmin": 4.145899026106482, 
      "sanName": "keurebeekveldlos", 
      "numOfAddr": 9, 
      "lonmax": 4.14631613677265, 
      "latmin": 50.832313369149304
    }, 
    {
      "latmax": 50.836657533834966, 
      "name": "Keurebeekveldweg", 
      "lonmin": 4.1467212032066705, 
      "sanName": "keurebeekveldweg", 
      "numOfAddr": 3, 
      "lonmax": 4.1472998397771095, 
      "latmin": 50.83547988695917
    }, 
    {
      "latmax": 50.838886777237526, 
      "name": "Klapscheutstraat", 
      "lonmin": 4.147637498610834, 
      "sanName": "klapscheutstraat", 
      "numOfAddr": 7, 
      "lonmax": 4.149523428548969, 
      "latmin": 50.837846639549795
    }, 
    {
      "latmax": 50.82640264811641, 
      "name": "Kleine Cottemstraat", 
      "lonmin": 4.2006710467435315, 
      "sanName": "kleinecottemstraat", 
      "numOfAddr": 1, 
      "lonmax": 4.2006710467435315, 
      "latmin": 50.82640264811641
    }, 
    {
      "latmax": 50.800881995646726, 
      "name": "Kleine Vijverselenweg", 
      "lonmin": 4.176157663498174, 
      "sanName": "kleinevijverselenweg", 
      "numOfAddr": 8, 
      "lonmax": 4.178207696211489, 
      "latmin": 50.799709947439695
    }, 
    {
      "latmax": 50.813879631643964, 
      "name": "Koestraat", 
      "lonmin": 4.165911244983981, 
      "sanName": "koestraat", 
      "numOfAddr": 3, 
      "lonmax": 4.166341799375596, 
      "latmin": 50.813637383899035
    }, 
    {
      "latmax": 50.8077613568605, 
      "name": "Korte Trontingenstraat", 
      "lonmin": 4.1796341304951605, 
      "sanName": "kortetrontingenstraat", 
      "numOfAddr": 4, 
      "lonmax": 4.181722982512181, 
      "latmin": 50.805069555271665
    }, 
    {
      "latmax": 50.80447823972617, 
      "name": "Kraaiveldweg", 
      "lonmin": 4.136007441597977, 
      "sanName": "kraaiveldweg", 
      "numOfAddr": 5, 
      "lonmax": 4.1396774722439895, 
      "latmin": 50.80183071364313
    }, 
    {
      "latmax": 50.80821048578772, 
      "name": "Krommestraat", 
      "lonmin": 4.147691507297993, 
      "sanName": "krommestraat", 
      "numOfAddr": 14, 
      "lonmax": 4.1501549964987765, 
      "latmin": 50.806703620609525
    }, 
    {
      "latmax": 50.80657624234071, 
      "name": "Kroonstraat", 
      "lonmin": 4.147311615744229, 
      "sanName": "kroonstraat", 
      "numOfAddr": 64, 
      "lonmax": 4.154432338047714, 
      "latmin": 50.80488268064213
    }, 
    {
      "latmax": 50.81840963361965, 
      "name": "Kruiskouterstraat", 
      "lonmin": 4.173047517222316, 
      "sanName": "kruiskouterstraat", 
      "numOfAddr": 28, 
      "lonmax": 4.182458592512859, 
      "latmin": 50.81344493900968
    }, 
    {
      "latmax": 50.79165255618609, 
      "name": "Kwakenbeekstraat", 
      "lonmin": 4.1371318378153035, 
      "sanName": "kwakenbeekstraat", 
      "numOfAddr": 7, 
      "lonmax": 4.146591293871675, 
      "latmin": 50.78934534455384
    }, 
    {
      "latmax": 50.80145467072755, 
      "name": "Langestraat", 
      "lonmin": 4.146013892816489, 
      "sanName": "langestraat", 
      "numOfAddr": 14, 
      "lonmax": 4.169580994032488, 
      "latmin": 50.788509134112076
    }, 
    {
      "latmax": 50.81188594643962, 
      "name": "Lennikseweg", 
      "lonmin": 4.183647109103156, 
      "sanName": "lennikseweg", 
      "numOfAddr": 1, 
      "lonmax": 4.183647109103156, 
      "latmin": 50.81188594643962
    }, 
    {
      "latmax": 50.80457972262933, 
      "name": "Lindendreef", 
      "lonmin": 4.158494820685207, 
      "sanName": "lindendreef", 
      "numOfAddr": 14, 
      "lonmax": 4.160332031675495, 
      "latmin": 50.80397701852176
    }, 
    {
      "latmax": 50.80988046490844, 
      "name": "Lindeveldweg", 
      "lonmin": 4.159880302495903, 
      "sanName": "lindeveldweg", 
      "numOfAddr": 6, 
      "lonmax": 4.163556859030209, 
      "latmin": 50.80700138605844
    }, 
    {
      "latmax": 50.83784518208324, 
      "name": "Loddershoek", 
      "lonmin": 4.15798713168269, 
      "sanName": "loddershoek", 
      "numOfAddr": 28, 
      "lonmax": 4.1617691574074405, 
      "latmin": 50.83605688961673
    }, 
    {
      "latmax": 50.8165447032331, 
      "name": "Lombeeksesteenweg", 
      "lonmin": 4.125513833446086, 
      "sanName": "lombeeksesteenweg", 
      "numOfAddr": 9, 
      "lonmax": 4.129598405550049, 
      "latmin": 50.81417671103878
    }, 
    {
      "latmax": 50.829151020405035, 
      "name": "Lombeeksestraat", 
      "lonmin": 4.118469125478709, 
      "sanName": "lombeeksestraat", 
      "numOfAddr": 46, 
      "lonmax": 4.123479312497753, 
      "latmin": 50.82447543208662
    }, 
    {
      "latmax": 50.798700768149864, 
      "name": "Looiweide", 
      "lonmin": 4.152090846354229, 
      "sanName": "looiweide", 
      "numOfAddr": 1, 
      "lonmax": 4.152090846354229, 
      "latmin": 50.798700768149864
    }, 
    {
      "latmax": 50.8027492363501, 
      "name": "Losgatstraat", 
      "lonmin": 4.1817149859915554, 
      "sanName": "losgatstraat", 
      "numOfAddr": 7, 
      "lonmax": 4.187512177252966, 
      "latmin": 50.800071672108075
    }, 
    {
      "latmax": 50.83430411816116, 
      "name": "Louis Spaakstraat", 
      "lonmin": 4.138288033645615, 
      "sanName": "louisspaakstraat", 
      "numOfAddr": 10, 
      "lonmax": 4.139237853708662, 
      "latmin": 50.833289106039885
    }, 
    {
      "latmax": 50.84277269390434, 
      "name": "Luitenant Jacopsstraat", 
      "lonmin": 4.135591181364489, 
      "sanName": "luitenantjacopsstraat", 
      "numOfAddr": 73, 
      "lonmax": 4.138894032356814, 
      "latmin": 50.82845333248031
    }, 
    {
      "latmax": 50.8063807761411, 
      "name": "Markt", 
      "lonmin": 4.154269806679038, 
      "sanName": "markt", 
      "numOfAddr": 20, 
      "lonmax": 4.155892071204805, 
      "latmin": 50.80529626425543
    }, 
    {
      "latmax": 50.834706251985956, 
      "name": "Marktstraat", 
      "lonmin": 4.148013916129751, 
      "sanName": "marktstraat", 
      "numOfAddr": 11, 
      "lonmax": 4.148975301344481, 
      "latmin": 50.83144033321474
    }, 
    {
      "latmax": 50.80509093494479, 
      "name": "Meercauterveld", 
      "lonmin": 4.158101843145848, 
      "sanName": "meercauterveld", 
      "numOfAddr": 1, 
      "lonmax": 4.158101843145848, 
      "latmin": 50.80509093494479
    }, 
    {
      "latmax": 50.823152459066506, 
      "name": "Moeillestraat", 
      "lonmin": 4.1249583010148285, 
      "sanName": "moeillestraat", 
      "numOfAddr": 3, 
      "lonmax": 4.125549815691182, 
      "latmin": 50.822022321795835
    }, 
    {
      "latmax": 50.820986438033685, 
      "name": "Moeilleweg", 
      "lonmin": 4.13123522998523, 
      "sanName": "moeilleweg", 
      "numOfAddr": 1, 
      "lonmax": 4.13123522998523, 
      "latmin": 50.820986438033685
    }, 
    {
      "latmax": 50.83060283467395, 
      "name": "Molenstraat", 
      "lonmin": 4.12523855289329, 
      "sanName": "molenstraat", 
      "numOfAddr": 17, 
      "lonmax": 4.138653533826049, 
      "latmin": 50.825137222457016
    }, 
    {
      "latmax": 50.830698430519895, 
      "name": "Molenweg", 
      "lonmin": 4.167566704293206, 
      "sanName": "molenweg", 
      "numOfAddr": 1, 
      "lonmax": 4.167566704293206, 
      "latmin": 50.830698430519895
    }, 
    {
      "latmax": 50.81090015691025, 
      "name": "Negenbunderstraat", 
      "lonmin": 4.138592388256002, 
      "sanName": "negenbunderstraat", 
      "numOfAddr": 46, 
      "lonmax": 4.147248825665894, 
      "latmin": 50.80659059644122
    }, 
    {
      "latmax": 50.82555763390559, 
      "name": "Nellekenstraat", 
      "lonmin": 4.128920888699861, 
      "sanName": "nellekenstraat", 
      "numOfAddr": 52, 
      "lonmax": 4.134017426204827, 
      "latmin": 50.81917288338429
    }, 
    {
      "latmax": 50.836884151080305, 
      "name": "Ninoofsesteenweg", 
      "lonmin": 4.1127951032305985, 
      "sanName": "ninoofsesteenweg", 
      "numOfAddr": 164, 
      "lonmax": 4.172958676248202, 
      "latmin": 50.832791188307894
    }, 
    {
      "latmax": 50.81965246910952, 
      "name": "Olmenlaan", 
      "lonmin": 4.174951627552162, 
      "sanName": "olmenlaan", 
      "numOfAddr": 65, 
      "lonmax": 4.179091427970571, 
      "latmin": 50.81640729519181
    }, 
    {
      "latmax": 50.79953283080894, 
      "name": "Onderstraat", 
      "lonmin": 4.189380192879632, 
      "sanName": "onderstraat", 
      "numOfAddr": 19, 
      "lonmax": 4.1947651865964115, 
      "latmin": 50.79672842423711
    }, 
    {
      "latmax": 50.83305654588535, 
      "name": "Openluchtweg", 
      "lonmin": 4.123037223064527, 
      "sanName": "openluchtweg", 
      "numOfAddr": 5, 
      "lonmax": 4.124008052641349, 
      "latmin": 50.832630101460396
    }, 
    {
      "latmax": 50.82076469267225, 
      "name": "Opperbusingenstraat", 
      "lonmin": 4.139334167152873, 
      "sanName": "opperbusingenstraat", 
      "numOfAddr": 13, 
      "lonmax": 4.144944357799308, 
      "latmin": 50.81603827793861
    }, 
    {
      "latmax": 50.832078138302734, 
      "name": "Oude Brusselsestraat", 
      "lonmin": 4.152022089888998, 
      "sanName": "oudebrusselsestraat", 
      "numOfAddr": 18, 
      "lonmax": 4.180599041920105, 
      "latmin": 50.82208062476883
    }, 
    {
      "latmax": 50.82232230957214, 
      "name": "Oude Geraardsbergsestraat", 
      "lonmin": 4.133308867166587, 
      "sanName": "oudegeraardsbergsestraat", 
      "numOfAddr": 9, 
      "lonmax": 4.150296931176789, 
      "latmin": 50.82014261828726
    }, 
    {
      "latmax": 50.797396780884384, 
      "name": "Oudenaaksestraat", 
      "lonmin": 4.185991141962718, 
      "sanName": "oudenaaksestraat", 
      "numOfAddr": 9, 
      "lonmax": 4.190798081346749, 
      "latmin": 50.78991558078154
    }, 
    {
      "latmax": 50.821257461907706, 
      "name": "Oude Schapenstraat", 
      "lonmin": 4.166708664409564, 
      "sanName": "oudeschapenstraat", 
      "numOfAddr": 2, 
      "lonmax": 4.166829385895334, 
      "latmin": 50.821046897769136
    }, 
    {
      "latmax": 50.819431362136505, 
      "name": "Paardenstraat", 
      "lonmin": 4.200143111551154, 
      "sanName": "paardenstraat", 
      "numOfAddr": 3, 
      "lonmax": 4.20374662521199, 
      "latmin": 50.816033999437195
    }, 
    {
      "latmax": 50.81582702287989, 
      "name": "Palokenstraat", 
      "lonmin": 4.1580495846605645, 
      "sanName": "palokenstraat", 
      "numOfAddr": 17, 
      "lonmax": 4.166781241268232, 
      "latmin": 50.81451018435948
    }, 
    {
      "latmax": 50.83678538835779, 
      "name": "Panoramastraat", 
      "lonmin": 4.133653116492532, 
      "sanName": "panoramastraat", 
      "numOfAddr": 17, 
      "lonmax": 4.135752501783318, 
      "latmin": 50.835981898233506
    }, 
    {
      "latmax": 50.83019613237905, 
      "name": "Poelstraat", 
      "lonmin": 4.186154461699761, 
      "sanName": "poelstraat", 
      "numOfAddr": 25, 
      "lonmax": 4.18897087572747, 
      "latmin": 50.826128674022534
    }, 
    {
      "latmax": 50.809853960631195, 
      "name": "Postberg", 
      "lonmin": 4.168935303692646, 
      "sanName": "postberg", 
      "numOfAddr": 16, 
      "lonmax": 4.171535896758568, 
      "latmin": 50.80788863345211
    }, 
    {
      "latmax": 50.79155303705012, 
      "name": "Postweg", 
      "lonmin": 4.1921004039562835, 
      "sanName": "postweg", 
      "numOfAddr": 4, 
      "lonmax": 4.197264205512014, 
      "latmin": 50.7884828818743
    }, 
    {
      "latmax": 50.81779895776966, 
      "name": "Processiestraat", 
      "lonmin": 4.167426876799115, 
      "sanName": "processiestraat", 
      "numOfAddr": 15, 
      "lonmax": 4.176747271158915, 
      "latmin": 50.813461522192455
    }, 
    {
      "latmax": 50.83145038263047, 
      "name": "Puttekensveldweg", 
      "lonmin": 4.126864498921929, 
      "sanName": "puttekensveldweg", 
      "numOfAddr": 23, 
      "lonmax": 4.136748878932599, 
      "latmin": 50.82824202620163
    }, 
    {
      "latmax": 50.80945228619753, 
      "name": "Rinkelstraat", 
      "lonmin": 4.19025166143684, 
      "sanName": "rinkelstraat", 
      "numOfAddr": 5, 
      "lonmax": 4.192492735504622, 
      "latmin": 50.80879203498475
    }, 
    {
      "latmax": 50.82610359414943, 
      "name": "Rosweg", 
      "lonmin": 4.1775770543744315, 
      "sanName": "rosweg", 
      "numOfAddr": 88, 
      "lonmax": 4.207098299621909, 
      "latmin": 50.81339734100871
    }, 
    {
      "latmax": 50.80791185648425, 
      "name": "Saffelbergstraat", 
      "lonmin": 4.131500824218442, 
      "sanName": "saffelbergstraat", 
      "numOfAddr": 45, 
      "lonmax": 4.144469489546366, 
      "latmin": 50.80291437612452
    }, 
    {
      "latmax": 50.80818246199783, 
      "name": "Saffelgaarde", 
      "lonmin": 4.1412133944161305, 
      "sanName": "saffelgaarde", 
      "numOfAddr": 3, 
      "lonmax": 4.14137626099369, 
      "latmin": 50.80788989441484
    }, 
    {
      "latmax": 50.83622396571724, 
      "name": "Schapenstraat", 
      "lonmin": 4.165434689136081, 
      "sanName": "schapenstraat", 
      "numOfAddr": 152, 
      "lonmax": 4.173886878138034, 
      "latmin": 50.81246866428791
    }, 
    {
      "latmax": 50.812338457921825, 
      "name": "Scheerweidestraat", 
      "lonmin": 4.193430498753304, 
      "sanName": "scheerweidestraat", 
      "numOfAddr": 5, 
      "lonmax": 4.195018117814146, 
      "latmin": 50.81135491526916
    }, 
    {
      "latmax": 50.84188379073142, 
      "name": "Scheestraat", 
      "lonmin": 4.162322842249, 
      "sanName": "scheestraat", 
      "numOfAddr": 63, 
      "lonmax": 4.207608525380486, 
      "latmin": 50.82096357847963
    }, 
    {
      "latmax": 50.806414983502705, 
      "name": "Schoolweg", 
      "lonmin": 4.15146325979868, 
      "sanName": "schoolweg", 
      "numOfAddr": 1, 
      "lonmax": 4.15146325979868, 
      "latmin": 50.806414983502705
    }, 
    {
      "latmax": 50.82084840974011, 
      "name": "Sint-Barbarastraat", 
      "lonmin": 4.144362909024522, 
      "sanName": "sintbarbarastraat", 
      "numOfAddr": 2, 
      "lonmax": 4.1445379946520005, 
      "latmin": 50.82018383290444
    }, 
    {
      "latmax": 50.80051564179392, 
      "name": "Sint-Elooistraat", 
      "lonmin": 4.1386931722105516, 
      "sanName": "sintelooistraat", 
      "numOfAddr": 8, 
      "lonmax": 4.145152493377267, 
      "latmin": 50.79835599211621
    }, 
    {
      "latmax": 50.80571544788501, 
      "name": "Slagvijver", 
      "lonmin": 4.1678780065312395, 
      "sanName": "slagvijver", 
      "numOfAddr": 4, 
      "lonmax": 4.171098196654944, 
      "latmin": 50.80518688340979
    }, 
    {
      "latmax": 50.80013824738587, 
      "name": "Smidstraat", 
      "lonmin": 4.141632482070041, 
      "sanName": "smidstraat", 
      "numOfAddr": 11, 
      "lonmax": 4.143105508803301, 
      "latmin": 50.799206689803555
    }, 
    {
      "latmax": 50.83392237866629, 
      "name": "Spaanshof", 
      "lonmin": 4.141278298716532, 
      "sanName": "spaanshof", 
      "numOfAddr": 6, 
      "lonmax": 4.141969068732296, 
      "latmin": 50.833465200900754
    }, 
    {
      "latmax": 50.809558299973816, 
      "name": "Stationsstraat", 
      "lonmin": 4.154451199422306, 
      "sanName": "stationsstraat", 
      "numOfAddr": 8, 
      "lonmax": 4.156431110583557, 
      "latmin": 50.807672456391664
    }, 
    {
      "latmax": 50.81916000003265, 
      "name": "Steenbergstraat", 
      "lonmin": 2.306689562140502, 
      "sanName": "steenbergstraat", 
      "numOfAddr": 29, 
      "lonmax": 4.200081649031329, 
      "latmin": 49.293335165093566
    }, 
    {
      "latmax": 50.82774828945384, 
      "name": "Steenstraat", 
      "lonmin": 4.194863141523898, 
      "sanName": "steenstraat", 
      "numOfAddr": 16, 
      "lonmax": 4.198095304065958, 
      "latmin": 50.82344424374308
    }, 
    {
      "latmax": 50.83051007832196, 
      "name": "Teilweg", 
      "lonmin": 4.184974357299427, 
      "sanName": "teilweg", 
      "numOfAddr": 1, 
      "lonmax": 4.184974357299427, 
      "latmin": 50.83051007832196
    }, 
    {
      "latmax": 50.800688405143234, 
      "name": "Ten Broek", 
      "lonmin": 4.162241667910776, 
      "sanName": "tenbroek", 
      "numOfAddr": 1, 
      "lonmax": 4.162241667910776, 
      "latmin": 50.800688405143234
    }, 
    {
      "latmax": 50.81304050207385, 
      "name": "Ten Ham", 
      "lonmin": 4.148973453825819, 
      "sanName": "tenham", 
      "numOfAddr": 6, 
      "lonmax": 4.151695498165974, 
      "latmin": 50.810242101165606
    }, 
    {
      "latmax": 50.81893461625472, 
      "name": "Ter Heidestraat", 
      "lonmin": 4.133186041731079, 
      "sanName": "terheidestraat", 
      "numOfAddr": 1, 
      "lonmax": 4.133186041731079, 
      "latmin": 50.81893461625472
    }, 
    {
      "latmax": 50.82486754216645, 
      "name": "Tombergstraat", 
      "lonmin": 4.160355648437735, 
      "sanName": "tombergstraat", 
      "numOfAddr": 21, 
      "lonmax": 4.166152466776721, 
      "latmin": 50.818460675734386
    }, 
    {
      "latmax": 50.80821743718466, 
      "name": "Trontingen", 
      "lonmin": 4.17071969114743, 
      "sanName": "trontingen", 
      "numOfAddr": 15, 
      "lonmax": 4.187510243100813, 
      "latmin": 50.80310540311806
    }, 
    {
      "latmax": 50.80822330597185, 
      "name": "Trontingenstraat", 
      "lonmin": 4.170734847446891, 
      "sanName": "trontingenstraat", 
      "numOfAddr": 7, 
      "lonmax": 4.187469408020603, 
      "latmin": 50.80299185009421
    }, 
    {
      "latmax": 50.80197976952865, 
      "name": "Trontingenweg", 
      "lonmin": 4.179886245297987, 
      "sanName": "trontingenweg", 
      "numOfAddr": 2, 
      "lonmax": 4.18058457014797, 
      "latmin": 50.80145733173474
    }, 
    {
      "latmax": 50.8332080854641, 
      "name": "Tuitenbergstraat", 
      "lonmin": 4.121257522609971, 
      "sanName": "tuitenbergstraat", 
      "numOfAddr": 78, 
      "lonmax": 4.128639417891544, 
      "latmin": 50.82604126717191
    }, 
    {
      "latmax": 50.82423281679782, 
      "name": "Varenbergstraat", 
      "lonmin": 4.199219203824755, 
      "sanName": "varenbergstraat", 
      "numOfAddr": 1, 
      "lonmax": 4.199219203824755, 
      "latmin": 50.82423281679782
    }, 
    {
      "latmax": 50.80470191749615, 
      "name": "Veldstraat", 
      "lonmin": 4.15136701547686, 
      "sanName": "veldstraat", 
      "numOfAddr": 22, 
      "lonmax": 4.153176805344568, 
      "latmin": 50.80066385779706
    }, 
    {
      "latmax": 50.80916700468761, 
      "name": "Vondelstraat", 
      "lonmin": 4.156610592094228, 
      "sanName": "vondelstraat", 
      "numOfAddr": 17, 
      "lonmax": 4.1586453874877085, 
      "latmin": 50.80661342246635
    }, 
    {
      "latmax": 50.81848464400741, 
      "name": "Walbergstraat", 
      "lonmin": 4.155617157084586, 
      "sanName": "walbergstraat", 
      "numOfAddr": 2, 
      "lonmax": 4.156233287610354, 
      "latmin": 50.818193613690525
    }, 
    {
      "latmax": 50.81962511633799, 
      "name": "Waterhoflaan", 
      "lonmin": 4.177891787016112, 
      "sanName": "waterhoflaan", 
      "numOfAddr": 48, 
      "lonmax": 4.181957801904866, 
      "latmin": 50.81730805731288
    }, 
    {
      "latmax": 50.805477291254206, 
      "name": "Winkelstraat", 
      "lonmin": 4.186936370602056, 
      "sanName": "winkelstraat", 
      "numOfAddr": 8, 
      "lonmax": 4.189176308960389, 
      "latmin": 50.80156605440517
    }, 
    {
      "latmax": 50.81629091627136, 
      "name": "Wolvenstraat", 
      "lonmin": 4.166118702048821, 
      "sanName": "wolvenstraat", 
      "numOfAddr": 6, 
      "lonmax": 4.166874318611684, 
      "latmin": 50.81586242200291
    }, 
    {
      "latmax": 50.805278245461444, 
      "name": "Zavelstraat", 
      "lonmin": 4.147362022871423, 
      "sanName": "zavelstraat", 
      "numOfAddr": 19, 
      "lonmax": 4.152635364986093, 
      "latmin": 50.80157377270765
    }, 
    {
      "latmax": 50.803822565232494, 
      "name": "Zeelmakersstraat", 
      "lonmin": 4.157913776377209, 
      "sanName": "zeelmakersstraat", 
      "numOfAddr": 12, 
      "lonmax": 4.159782086992615, 
      "latmin": 50.80336440489262
    }, 
    {
      "latmax": 50.805461473756985, 
      "name": "Zwartenbroekstraat", 
      "lonmin": 4.137170969367982, 
      "sanName": "zwartenbroekstraat", 
      "numOfAddr": 79, 
      "lonmax": 4.154068785274174, 
      "latmin": 50.79919821128507
    }, 
    {
      "latmax": 50.82988281069661, 
      "name": "Zwijnenbergstraat", 
      "lonmin": 4.179092754224419, 
      "sanName": "zwijnenbergstraat", 
      "numOfAddr": 9, 
      "lonmax": 4.181435635120753, 
      "latmin": 50.82199980455837
    }
  ]
}