{
  "streets": [
    {
      "latmax": 50.75872943970509, 
      "name": "Asseveldstraat", 
      "lonmin": 4.099834068832731, 
      "sanName": "asseveldstraat", 
      "numOfAddr": 22, 
      "lonmax": 4.103844909010473, 
      "latmin": 50.75708626370033
    }, 
    {
      "latmax": 50.757161758782715, 
      "name": "Bekeveldstraat", 
      "lonmin": 4.066155339421613, 
      "sanName": "bekeveldstraat", 
      "numOfAddr": 2, 
      "lonmax": 4.06676408368203, 
      "latmin": 50.756602094074026
    }, 
    {
      "latmax": 50.80540935042241, 
      "name": "Bergenbroekstraat", 
      "lonmin": 4.090655769149261, 
      "sanName": "bergenbroekstraat", 
      "numOfAddr": 11, 
      "lonmax": 4.096000534133305, 
      "latmin": 50.80030074191627
    }, 
    {
      "latmax": 50.77277968163259, 
      "name": "Berghomstraat", 
      "lonmin": 4.088353745780825, 
      "sanName": "berghomstraat", 
      "numOfAddr": 39, 
      "lonmax": 4.105014642233794, 
      "latmin": 50.76511547982541
    }, 
    {
      "latmax": 50.77333978008401, 
      "name": "Bergstraat", 
      "lonmin": 4.040569693179527, 
      "sanName": "bergstraat", 
      "numOfAddr": 18, 
      "lonmax": 4.046015763307163, 
      "latmin": 50.76791588337045
    }, 
    {
      "latmax": 50.81290780910072, 
      "name": "Bettestraat", 
      "lonmin": 4.075324238713504, 
      "sanName": "bettestraat", 
      "numOfAddr": 9, 
      "lonmax": 4.080115241105047, 
      "latmin": 50.80622640712749
    }, 
    {
      "latmax": 50.78079635237094, 
      "name": "Blijkheerstraat", 
      "lonmin": 4.046348934246815, 
      "sanName": "blijkheerstraat", 
      "numOfAddr": 66, 
      "lonmax": 4.05465092466489, 
      "latmin": 50.771142171264735
    }, 
    {
      "latmax": 50.79260926906697, 
      "name": "Blokstraat", 
      "lonmin": 4.106925128394653, 
      "sanName": "blokstraat", 
      "numOfAddr": 4, 
      "lonmax": 4.109032563887435, 
      "latmin": 50.791581112864684
    }, 
    {
      "latmax": 50.79507077440654, 
      "name": "Bollekesweg", 
      "lonmin": 4.11285872316181, 
      "sanName": "bollekesweg", 
      "numOfAddr": 1, 
      "lonmax": 4.11285872316181, 
      "latmin": 50.79507077440654
    }, 
    {
      "latmax": 50.763953879167836, 
      "name": "Bontestraat", 
      "lonmin": 4.0490519784023675, 
      "sanName": "bontestraat", 
      "numOfAddr": 19, 
      "lonmax": 4.064502666919249, 
      "latmin": 50.7584425732375
    }, 
    {
      "latmax": 50.78164101512365, 
      "name": "Boomgaardstraat", 
      "lonmin": 4.049691804148904, 
      "sanName": "boomgaardstraat", 
      "numOfAddr": 5, 
      "lonmax": 4.050571242921918, 
      "latmin": 50.780636304356534
    }, 
    {
      "latmax": 50.78486697704172, 
      "name": "Bosstraat", 
      "lonmin": 4.114643753474396, 
      "sanName": "bosstraat", 
      "numOfAddr": 46, 
      "lonmax": 4.120650795370663, 
      "latmin": 50.781576652299506
    }, 
    {
      "latmax": 50.78311845559555, 
      "name": "Breedveldstraat", 
      "lonmin": 4.099446335616824, 
      "sanName": "breedveldstraat", 
      "numOfAddr": 7, 
      "lonmax": 4.101052849796248, 
      "latmin": 50.782294850313676
    }, 
    {
      "latmax": 50.794123330107084, 
      "name": "Bronnenweg", 
      "lonmin": 4.118890701708997, 
      "sanName": "bronnenweg", 
      "numOfAddr": 4, 
      "lonmax": 4.119158238399365, 
      "latmin": 50.79255985277332
    }, 
    {
      "latmax": 50.77048485373276, 
      "name": "Bruneaustraat", 
      "lonmin": 4.1102073960535535, 
      "sanName": "bruneaustraat", 
      "numOfAddr": 105, 
      "lonmax": 4.120111416752524, 
      "latmin": 50.76060525978267
    }, 
    {
      "latmax": 50.77690531683504, 
      "name": "Brusselstraat", 
      "lonmin": 4.119182195717252, 
      "sanName": "brusselstraat", 
      "numOfAddr": 23, 
      "lonmax": 4.121817091792913, 
      "latmin": 50.77540783176557
    }, 
    {
      "latmax": 50.77884075974609, 
      "name": "Burgemeester De Leenerstraat", 
      "lonmin": 4.120570529605774, 
      "sanName": "burgemeesterdeleenerstraat", 
      "numOfAddr": 39, 
      "lonmax": 4.12228611505937, 
      "latmin": 50.77704701740173
    }, 
    {
      "latmax": 50.77804761052624, 
      "name": "Condijstraat", 
      "lonmin": 4.077204371150538, 
      "sanName": "condijstraat", 
      "numOfAddr": 15, 
      "lonmax": 4.084569599214527, 
      "latmin": 50.77482542287083
    }, 
    {
      "latmax": 50.76580429087629, 
      "name": "Cypriaan Verhavertstraat", 
      "lonmin": 4.1140425999437, 
      "sanName": "cypriaanverhavertstraat", 
      "numOfAddr": 27, 
      "lonmax": 4.117991908956507, 
      "latmin": 50.763670486798496
    }, 
    {
      "latmax": 50.77013185648301, 
      "name": "Daalstraat", 
      "lonmin": 4.0864064759803505, 
      "sanName": "daalstraat", 
      "numOfAddr": 11, 
      "lonmax": 4.094109142899046, 
      "latmin": 50.7662628153147
    }, 
    {
      "latmax": 50.76421096012984, 
      "name": "De Ham", 
      "lonmin": 4.115881653052458, 
      "sanName": "deham", 
      "numOfAddr": 14, 
      "lonmax": 4.116727938077943, 
      "latmin": 50.762937753845044
    }, 
    {
      "latmax": 50.79636993542964, 
      "name": "Dorpsstraat", 
      "lonmin": 4.111834874099972, 
      "sanName": "dorpsstraat", 
      "numOfAddr": 86, 
      "lonmax": 4.1187630288343, 
      "latmin": 50.79477445193185
    }, 
    {
      "latmax": 50.80557087406478, 
      "name": "Dreefstraat", 
      "lonmin": 4.120653372609775, 
      "sanName": "dreefstraat", 
      "numOfAddr": 3, 
      "lonmax": 4.122996691448259, 
      "latmin": 50.80401595193697
    }, 
    {
      "latmax": 50.80742992417746, 
      "name": "Drie Egyptenbaan", 
      "lonmin": 4.074992617386178, 
      "sanName": "drieegyptenbaan", 
      "numOfAddr": 22, 
      "lonmax": 4.101132294944265, 
      "latmin": 50.804286488043275
    }, 
    {
      "latmax": 50.80644148252606, 
      "name": "Edingsesteenweg", 
      "lonmin": 4.10628386983266, 
      "sanName": "edingsesteenweg", 
      "numOfAddr": 280, 
      "lonmax": 4.131329299956736, 
      "latmin": 50.75591854102882
    }, 
    {
      "latmax": 50.801192096708256, 
      "name": "Eeckelstraat", 
      "lonmin": 4.110152379584315, 
      "sanName": "eeckelstraat", 
      "numOfAddr": 46, 
      "lonmax": 4.112963061676794, 
      "latmin": 50.7967657544625
    }, 
    {
      "latmax": 50.775952947894545, 
      "name": "Eikenveldstraat", 
      "lonmin": 4.057438501776774, 
      "sanName": "eikenveldstraat", 
      "numOfAddr": 4, 
      "lonmax": 4.058071045460228, 
      "latmin": 50.7734463902183
    }, 
    {
      "latmax": 50.804345328769784, 
      "name": "Ekelendriesstraat", 
      "lonmin": 4.079043977446988, 
      "sanName": "ekelendriesstraat", 
      "numOfAddr": 13, 
      "lonmax": 4.086617776135707, 
      "latmin": 50.80114770033799
    }, 
    {
      "latmax": 50.7707605443286, 
      "name": "Frankrijkstraat", 
      "lonmin": 4.055086631751649, 
      "sanName": "frankrijkstraat", 
      "numOfAddr": 56, 
      "lonmax": 4.081631574323476, 
      "latmin": 50.76754974067529
    }, 
    {
      "latmax": 50.79536783998357, 
      "name": "Gooikeveldstraat", 
      "lonmin": 4.117302526722015, 
      "sanName": "gooikeveldstraat", 
      "numOfAddr": 44, 
      "lonmax": 4.119024085491907, 
      "latmin": 50.78978526085658
    }, 
    {
      "latmax": 50.771060301698604, 
      "name": "Goteringenstraat", 
      "lonmin": 4.084865759133163, 
      "sanName": "goteringenstraat", 
      "numOfAddr": 42, 
      "lonmax": 4.092681719480101, 
      "latmin": 50.75992750460621
    }, 
    {
      "latmax": 50.80177106051531, 
      "name": "Gotestraat", 
      "lonmin": 4.0692472015374745, 
      "sanName": "gotestraat", 
      "numOfAddr": 2, 
      "lonmax": 4.069596774067409, 
      "latmin": 50.80113979615375
    }, 
    {
      "latmax": 50.77223140412055, 
      "name": "Grachtweg", 
      "lonmin": 4.0551822146864165, 
      "sanName": "grachtweg", 
      "numOfAddr": 4, 
      "lonmax": 4.055460127294664, 
      "latmin": 50.77171374022993
    }, 
    {
      "latmax": 50.79828661051703, 
      "name": "Groebbestraat", 
      "lonmin": 4.11030068188427, 
      "sanName": "groebbestraat", 
      "numOfAddr": 5, 
      "lonmax": 4.111520929852593, 
      "latmin": 50.797030493957884
    }, 
    {
      "latmax": 50.78401386124325, 
      "name": "Groeningenveldstraat", 
      "lonmin": 4.122010652610894, 
      "sanName": "groeningenveldstraat", 
      "numOfAddr": 15, 
      "lonmax": 4.123994241680644, 
      "latmin": 50.782858531008024
    }, 
    {
      "latmax": 50.79166033410736, 
      "name": "Groenstraat", 
      "lonmin": 4.0803781250371784, 
      "sanName": "groenstraat", 
      "numOfAddr": 5, 
      "lonmax": 4.081371256502212, 
      "latmin": 50.791079852444774
    }, 
    {
      "latmax": 50.79349791326513, 
      "name": "Hallebaan", 
      "lonmin": 4.136513487573796, 
      "sanName": "hallebaan", 
      "numOfAddr": 3, 
      "lonmax": 4.137108599331048, 
      "latmin": 50.79285687326132
    }, 
    {
      "latmax": 50.77914648219906, 
      "name": "Havilandstraat", 
      "lonmin": 4.120980781176083, 
      "sanName": "havilandstraat", 
      "numOfAddr": 30, 
      "lonmax": 4.123898101699729, 
      "latmin": 50.77780906821679
    }, 
    {
      "latmax": 50.77192225871041, 
      "name": "Hazelaarswijk", 
      "lonmin": 4.056882777451613, 
      "sanName": "hazelaarswijk", 
      "numOfAddr": 41, 
      "lonmax": 4.060558183650725, 
      "latmin": 50.77045752590678
    }, 
    {
      "latmax": 50.78393224489862, 
      "name": "Heerbaan", 
      "lonmin": 4.053651020678906, 
      "sanName": "heerbaan", 
      "numOfAddr": 25, 
      "lonmax": 4.080690028470703, 
      "latmin": 50.778835005637255
    }, 
    {
      "latmax": 50.777548933368166, 
      "name": "Heideblik", 
      "lonmin": 4.116491455174804, 
      "sanName": "heideblik", 
      "numOfAddr": 15, 
      "lonmax": 4.117748188219425, 
      "latmin": 50.776814951400084
    }, 
    {
      "latmax": 50.77622202744926, 
      "name": "Heidestraat", 
      "lonmin": 4.101599276623347, 
      "sanName": "heidestraat", 
      "numOfAddr": 32, 
      "lonmax": 4.115922006658182, 
      "latmin": 50.77292470983582
    }, 
    {
      "latmax": 50.768156183198315, 
      "name": "Hellebosstraat", 
      "lonmin": 4.049355157819204, 
      "sanName": "hellebosstraat", 
      "numOfAddr": 3, 
      "lonmax": 4.049388211642906, 
      "latmin": 50.76786047803293
    }, 
    {
      "latmax": 50.79796284910735, 
      "name": "Heuvelstraat", 
      "lonmin": 4.1257568984968565, 
      "sanName": "heuvelstraat", 
      "numOfAddr": 7, 
      "lonmax": 4.127356719394938, 
      "latmin": 50.797625754872755
    }, 
    {
      "latmax": 50.792922425362185, 
      "name": "Hoevestraat", 
      "lonmin": 4.059005002400536, 
      "sanName": "hoevestraat", 
      "numOfAddr": 47, 
      "lonmax": 4.072800967759629, 
      "latmin": 50.78489194688896
    }, 
    {
      "latmax": 50.792802832988016, 
      "name": "Hoezenbroekstraat", 
      "lonmin": 4.091196502374461, 
      "sanName": "hoezenbroekstraat", 
      "numOfAddr": 29, 
      "lonmax": 4.093740759346836, 
      "latmin": 50.78692076704705
    }, 
    {
      "latmax": 50.76197778902742, 
      "name": "Hollandstraat", 
      "lonmin": 4.064043309798466, 
      "sanName": "hollandstraat", 
      "numOfAddr": 19, 
      "lonmax": 4.085660694272178, 
      "latmin": 50.758067887037235
    }, 
    {
      "latmax": 50.8091359141704, 
      "name": "Holleweg", 
      "lonmin": 4.111628520980249, 
      "sanName": "holleweg", 
      "numOfAddr": 3, 
      "lonmax": 4.1169301692615266, 
      "latmin": 50.80608826465415
    }, 
    {
      "latmax": 50.79166637113443, 
      "name": "Honingenveldstraat", 
      "lonmin": 4.132234544745992, 
      "sanName": "honingenveldstraat", 
      "numOfAddr": 20, 
      "lonmax": 4.134124771817588, 
      "latmin": 50.78843034439146
    }, 
    {
      "latmax": 50.795295333167324, 
      "name": "Houteman", 
      "lonmin": 4.112485886971967, 
      "sanName": "houteman", 
      "numOfAddr": 1, 
      "lonmax": 4.112485886971967, 
      "latmin": 50.795295333167324
    }, 
    {
      "latmax": 50.79504604255959, 
      "name": "Hutselenbergstraat", 
      "lonmin": 4.129198849053496, 
      "sanName": "hutselenbergstraat", 
      "numOfAddr": 19, 
      "lonmax": 4.132930498510175, 
      "latmin": 50.792129012529045
    }, 
    {
      "latmax": 50.78043976980899, 
      "name": "Kapelstraat", 
      "lonmin": 4.06284979506734, 
      "sanName": "kapelstraat", 
      "numOfAddr": 63, 
      "lonmax": 4.0709853911884615, 
      "latmin": 50.77529654766326
    }, 
    {
      "latmax": 50.77408979722454, 
      "name": "Kasteelstraat", 
      "lonmin": 4.067855836970707, 
      "sanName": "kasteelstraat", 
      "numOfAddr": 37, 
      "lonmax": 4.069937155824301, 
      "latmin": 50.7650415472724
    }, 
    {
      "latmax": 50.778214373071926, 
      "name": "Kattestraat", 
      "lonmin": 4.111246665560408, 
      "sanName": "kattestraat", 
      "numOfAddr": 22, 
      "lonmax": 4.117281202507084, 
      "latmin": 50.775914710391675
    }, 
    {
      "latmax": 50.80213449967478, 
      "name": "Kelenbergstraat", 
      "lonmin": 4.079845441887666, 
      "sanName": "kelenbergstraat", 
      "numOfAddr": 2, 
      "lonmax": 4.080229962465438, 
      "latmin": 50.80184651369109
    }, 
    {
      "latmax": 50.79906066809306, 
      "name": "Kerkhofstraat", 
      "lonmin": 4.119034479920902, 
      "sanName": "kerkhofstraat", 
      "numOfAddr": 2, 
      "lonmax": 4.1220637441884245, 
      "latmin": 50.7966576195071
    }, 
    {
      "latmax": 50.77384282350471, 
      "name": "Kerkplein", 
      "lonmin": 4.0626828642893535, 
      "sanName": "kerkplein", 
      "numOfAddr": 15, 
      "lonmax": 4.063962820989076, 
      "latmin": 50.77258846961215
    }, 
    {
      "latmax": 50.775290368591776, 
      "name": "Kerkstraat", 
      "lonmin": 4.0639386587548305, 
      "sanName": "kerkstraat", 
      "numOfAddr": 51, 
      "lonmax": 4.071055183161133, 
      "latmin": 50.77319087469586
    }, 
    {
      "latmax": 50.77981772683779, 
      "name": "Kerkveldstraat", 
      "lonmin": 4.120934960708807, 
      "sanName": "kerkveldstraat", 
      "numOfAddr": 18, 
      "lonmax": 4.124806068192496, 
      "latmin": 50.77837101599005
    }, 
    {
      "latmax": 50.773480595735926, 
      "name": "Kervijnstraat", 
      "lonmin": 4.065921092756542, 
      "sanName": "kervijnstraat", 
      "numOfAddr": 39, 
      "lonmax": 4.068765188151731, 
      "latmin": 50.7721167994789
    }, 
    {
      "latmax": 50.77858709599434, 
      "name": "Kesterheide", 
      "lonmin": 4.102956359402508, 
      "sanName": "kesterheide", 
      "numOfAddr": 10, 
      "lonmax": 4.106356321780332, 
      "latmin": 50.77377955759936
    }, 
    {
      "latmax": 50.77360341880851, 
      "name": "Kesterweg", 
      "lonmin": 4.098013768923513, 
      "sanName": "kesterweg", 
      "numOfAddr": 58, 
      "lonmax": 4.118233630389403, 
      "latmin": 50.767401931652124
    }, 
    {
      "latmax": 50.80514942585222, 
      "name": "Kindekensstraat", 
      "lonmin": 4.08479019866082, 
      "sanName": "kindekensstraat", 
      "numOfAddr": 27, 
      "lonmax": 4.0874189131439165, 
      "latmin": 50.796281692787
    }, 
    {
      "latmax": 50.7909931842023, 
      "name": "Klein Brusselstraat", 
      "lonmin": 4.127150493034281, 
      "sanName": "kleinbrusselstraat", 
      "numOfAddr": 34, 
      "lonmax": 4.134828699113308, 
      "latmin": 50.78914779616314
    }, 
    {
      "latmax": 50.758764841789315, 
      "name": "Kleine Hollandstraat", 
      "lonmin": 4.073110920396249, 
      "sanName": "kleinehollandstraat", 
      "numOfAddr": 1, 
      "lonmax": 4.073110920396249, 
      "latmin": 50.758764841789315
    }, 
    {
      "latmax": 50.77808019697228, 
      "name": "Kleine Kattestraat", 
      "lonmin": 4.113715061703669, 
      "sanName": "kleinekattestraat", 
      "numOfAddr": 3, 
      "lonmax": 4.114237648283457, 
      "latmin": 50.77789514984951
    }, 
    {
      "latmax": 50.79658435770083, 
      "name": "Kleistraat", 
      "lonmin": 4.1192056465051055, 
      "sanName": "kleistraat", 
      "numOfAddr": 12, 
      "lonmax": 4.120440072456266, 
      "latmin": 50.79544747341332
    }, 
    {
      "latmax": 50.77521153531493, 
      "name": "Kloosterstraat", 
      "lonmin": 4.058396265200785, 
      "sanName": "kloosterstraat", 
      "numOfAddr": 27, 
      "lonmax": 4.0643611815773975, 
      "latmin": 50.772456218802
    }, 
    {
      "latmax": 50.79532575544898, 
      "name": "Koekoekstraat", 
      "lonmin": 4.109284604809287, 
      "sanName": "koekoekstraat", 
      "numOfAddr": 68, 
      "lonmax": 4.114279986030402, 
      "latmin": 50.79075759435553
    }, 
    {
      "latmax": 50.790982189369316, 
      "name": "Koning Boudewijnstraat", 
      "lonmin": 4.0815892425091365, 
      "sanName": "koningboudewijnstraat", 
      "numOfAddr": 31, 
      "lonmax": 4.083635331193814, 
      "latmin": 50.78974299057131
    }, 
    {
      "latmax": 50.77802399818086, 
      "name": "Kouterweg", 
      "lonmin": 4.054499902938488, 
      "sanName": "kouterweg", 
      "numOfAddr": 2, 
      "lonmax": 4.060739733236076, 
      "latmin": 50.77527996456457
    }, 
    {
      "latmax": 50.80566746352764, 
      "name": "Kroonstraat", 
      "lonmin": 4.071815844364955, 
      "sanName": "kroonstraat", 
      "numOfAddr": 11, 
      "lonmax": 4.076167023012115, 
      "latmin": 50.80059885439652
    }, 
    {
      "latmax": 50.77793440035899, 
      "name": "Kwadebeekstraat", 
      "lonmin": 4.124997146572431, 
      "sanName": "kwadebeekstraat", 
      "numOfAddr": 6, 
      "lonmax": 4.133202230714945, 
      "latmin": 50.7736580393251
    }, 
    {
      "latmax": 50.79264279253798, 
      "name": "Kwakenbeekstraat", 
      "lonmin": 4.125189370676475, 
      "sanName": "kwakenbeekstraat", 
      "numOfAddr": 46, 
      "lonmax": 4.1366535689831485, 
      "latmin": 50.79093321255614
    }, 
    {
      "latmax": 50.76092050557432, 
      "name": "Langestraat", 
      "lonmin": 4.055467762922857, 
      "sanName": "langestraat", 
      "numOfAddr": 51, 
      "lonmax": 4.109462266884581, 
      "latmin": 50.7554314023713
    }, 
    {
      "latmax": 50.780958484163286, 
      "name": "Lenniksestraat", 
      "lonmin": 4.071181953097967, 
      "sanName": "lenniksestraat", 
      "numOfAddr": 95, 
      "lonmax": 4.089309383754331, 
      "latmin": 50.77529665928701
    }, 
    {
      "latmax": 50.79768011298488, 
      "name": "Letterbeekstraat", 
      "lonmin": 4.084167515632078, 
      "sanName": "letterbeekstraat", 
      "numOfAddr": 58, 
      "lonmax": 4.090098516311396, 
      "latmin": 50.792206975336406
    }, 
    {
      "latmax": 50.79777117338629, 
      "name": "Lindestraat", 
      "lonmin": 4.095692376532575, 
      "sanName": "lindestraat", 
      "numOfAddr": 39, 
      "lonmax": 4.111968983767877, 
      "latmin": 50.7961361392818
    }, 
    {
      "latmax": 50.78556349341692, 
      "name": "Lingerenstraat", 
      "lonmin": 4.076534373519805, 
      "sanName": "lingerenstraat", 
      "numOfAddr": 11, 
      "lonmax": 4.079058408425636, 
      "latmin": 50.78478401164471
    }, 
    {
      "latmax": 50.790414504684776, 
      "name": "Lombergstraat", 
      "lonmin": 4.095821032941564, 
      "sanName": "lombergstraat", 
      "numOfAddr": 17, 
      "lonmax": 4.098254054837763, 
      "latmin": 50.78624221467255
    }, 
    {
      "latmax": 50.79389156763314, 
      "name": "Loveldstraat", 
      "lonmin": 4.100358967320644, 
      "sanName": "loveldstraat", 
      "numOfAddr": 5, 
      "lonmax": 4.103698432023121, 
      "latmin": 50.792409591059304
    }, 
    {
      "latmax": 50.78715312144121, 
      "name": "Meintjesstraat", 
      "lonmin": 4.125095142072521, 
      "sanName": "meintjesstraat", 
      "numOfAddr": 4, 
      "lonmax": 4.12593265768978, 
      "latmin": 50.78668729071304
    }, 
    {
      "latmax": 50.77083935947629, 
      "name": "Melkweg", 
      "lonmin": 4.05886847801998, 
      "sanName": "melkweg", 
      "numOfAddr": 8, 
      "lonmax": 4.059487538977304, 
      "latmin": 50.770284970315984
    }, 
    {
      "latmax": 50.76282019748817, 
      "name": "Mierenberg", 
      "lonmin": 4.119711110659959, 
      "sanName": "mierenberg", 
      "numOfAddr": 14, 
      "lonmax": 4.120566919695431, 
      "latmin": 50.76219804307453
    }, 
    {
      "latmax": 50.76469242087033, 
      "name": "Molenstraat", 
      "lonmin": 4.120494081677025, 
      "sanName": "molenstraat", 
      "numOfAddr": 70, 
      "lonmax": 4.139541346192935, 
      "latmin": 50.76183654278002
    }, 
    {
      "latmax": 50.79285703772531, 
      "name": "Monsebeekstraat", 
      "lonmin": 4.076366129398583, 
      "sanName": "monsebeekstraat", 
      "numOfAddr": 4, 
      "lonmax": 4.077099455164006, 
      "latmin": 50.79101502478844
    }, 
    {
      "latmax": 50.80074912119259, 
      "name": "Monseigneur Abbeloosstraat", 
      "lonmin": 4.11747015068372, 
      "sanName": "monseigneurabbeloosstraat", 
      "numOfAddr": 35, 
      "lonmax": 4.120226473848341, 
      "latmin": 50.7958191251022
    }, 
    {
      "latmax": 50.77276203289044, 
      "name": "Nattebroekstraat", 
      "lonmin": 4.130944584243859, 
      "sanName": "nattebroekstraat", 
      "numOfAddr": 4, 
      "lonmax": 4.131683369949073, 
      "latmin": 50.772117862977474
    }, 
    {
      "latmax": 50.8137991874422, 
      "name": "Neerstraat", 
      "lonmin": 4.073245606323332, 
      "sanName": "neerstraat", 
      "numOfAddr": 2, 
      "lonmax": 4.079043151821829, 
      "latmin": 50.812824650818165
    }, 
    {
      "latmax": 50.79678404273031, 
      "name": "Ninoofse Steenweg", 
      "lonmin": 4.068058443756705, 
      "sanName": "ninoofsesteenweg", 
      "numOfAddr": 180, 
      "lonmax": 4.132695181343032, 
      "latmin": 50.770813116867345
    }, 
    {
      "latmax": 50.78798241013362, 
      "name": "Olmenstraat", 
      "lonmin": 4.081200454705384, 
      "sanName": "olmenstraat", 
      "numOfAddr": 1, 
      "lonmax": 4.081200454705384, 
      "latmin": 50.78798241013362
    }, 
    {
      "latmax": 50.8130727732875, 
      "name": "Oplombeekstraat", 
      "lonmin": 4.113233564538577, 
      "sanName": "oplombeekstraat", 
      "numOfAddr": 15, 
      "lonmax": 4.125410192248551, 
      "latmin": 50.80321545953821
    }, 
    {
      "latmax": 50.78528618617173, 
      "name": "Opperstebosstraat", 
      "lonmin": 4.044603492604737, 
      "sanName": "opperstebosstraat", 
      "numOfAddr": 18, 
      "lonmax": 4.050944476608087, 
      "latmin": 50.77513603031381
    }, 
    {
      "latmax": 50.813601484505924, 
      "name": "Oude Geraardsbergse baan", 
      "lonmin": 4.097110763208181, 
      "sanName": "oudegeraardsbergsebaan", 
      "numOfAddr": 10, 
      "lonmax": 4.116873474154112, 
      "latmin": 50.80559834515184
    }, 
    {
      "latmax": 50.79062927972391, 
      "name": "Paddenbroekstraat", 
      "lonmin": 4.098603150627142, 
      "sanName": "paddenbroekstraat", 
      "numOfAddr": 12, 
      "lonmax": 4.112727588617723, 
      "latmin": 50.785597159562656
    }, 
    {
      "latmax": 50.77275587970566, 
      "name": "Pastoriestraat", 
      "lonmin": 4.06348636840862, 
      "sanName": "pastoriestraat", 
      "numOfAddr": 30, 
      "lonmax": 4.068859039422467, 
      "latmin": 50.77140542324884
    }, 
    {
      "latmax": 50.76333802604728, 
      "name": "Patattestraat", 
      "lonmin": 4.117609237441173, 
      "sanName": "patattestraat", 
      "numOfAddr": 56, 
      "lonmax": 4.121292265644115, 
      "latmin": 50.74878558477545
    }, 
    {
      "latmax": 50.7655020049609, 
      "name": "Peverstraat", 
      "lonmin": 4.068712730108014, 
      "sanName": "peverstraat", 
      "numOfAddr": 10, 
      "lonmax": 4.085631703776417, 
      "latmin": 50.76352824770973
    }, 
    {
      "latmax": 50.74609005546201, 
      "name": "Plutsingenstraat", 
      "lonmin": 4.120351435257808, 
      "sanName": "plutsingenstraat", 
      "numOfAddr": 1, 
      "lonmax": 4.120351435257808, 
      "latmin": 50.74609005546201
    }, 
    {
      "latmax": 50.77540175916522, 
      "name": "Polderstraat", 
      "lonmin": 4.119515525311273, 
      "sanName": "polderstraat", 
      "numOfAddr": 7, 
      "lonmax": 4.120446328752552, 
      "latmin": 50.77509150834294
    }, 
    {
      "latmax": 50.7748971249985, 
      "name": "Polderweg", 
      "lonmin": 4.119498353389657, 
      "sanName": "polderweg", 
      "numOfAddr": 2, 
      "lonmax": 4.120748018064189, 
      "latmin": 50.774512223460995
    }, 
    {
      "latmax": 50.80505131656262, 
      "name": "Populierenstraat", 
      "lonmin": 4.1151736370959435, 
      "sanName": "populierenstraat", 
      "numOfAddr": 6, 
      "lonmax": 4.119618245900954, 
      "latmin": 50.80228423939803
    }, 
    {
      "latmax": 50.79117656767889, 
      "name": "Processiestraat", 
      "lonmin": 4.087343097616267, 
      "sanName": "processiestraat", 
      "numOfAddr": 21, 
      "lonmax": 4.090660975002414, 
      "latmin": 50.78797660960387
    }, 
    {
      "latmax": 50.795656704253894, 
      "name": "Professor Frans Heymansstraat", 
      "lonmin": 4.127687430175334, 
      "sanName": "professorfransheymansstraat", 
      "numOfAddr": 9, 
      "lonmax": 4.138103136388858, 
      "latmin": 50.795119269570655
    }, 
    {
      "latmax": 50.775180047157605, 
      "name": "Putbeekstraat", 
      "lonmin": 4.142523670262078, 
      "sanName": "putbeekstraat", 
      "numOfAddr": 3, 
      "lonmax": 4.143772577392087, 
      "latmin": 50.77136053819766
    }, 
    {
      "latmax": 50.764091082582645, 
      "name": "Raoul Merckxstraat", 
      "lonmin": 4.119310505133709, 
      "sanName": "raoulmerckxstraat", 
      "numOfAddr": 48, 
      "lonmax": 4.1234342645553985, 
      "latmin": 50.76270317699096
    }, 
    {
      "latmax": 50.80350053870163, 
      "name": "Rozenbroekstraat", 
      "lonmin": 4.103789807766538, 
      "sanName": "rozenbroekstraat", 
      "numOfAddr": 9, 
      "lonmax": 4.105918132298826, 
      "latmin": 50.797979478873955
    }, 
    {
      "latmax": 50.80265211081748, 
      "name": "Saffelbergstraat", 
      "lonmin": 4.131082233789636, 
      "sanName": "saffelbergstraat", 
      "numOfAddr": 1, 
      "lonmax": 4.131082233789636, 
      "latmin": 50.80265211081748
    }, 
    {
      "latmax": 50.7707965957788, 
      "name": "Schavolliestraat", 
      "lonmin": 4.046828676736141, 
      "sanName": "schavolliestraat", 
      "numOfAddr": 42, 
      "lonmax": 4.054704968989371, 
      "latmin": 50.75762810021822
    }, 
    {
      "latmax": 50.75531132337653, 
      "name": "Schoonscheenstraat", 
      "lonmin": 4.1200045742789815, 
      "sanName": "schoonscheenstraat", 
      "numOfAddr": 11, 
      "lonmax": 4.126064874324662, 
      "latmin": 50.74988657548198
    }, 
    {
      "latmax": 50.797825948222794, 
      "name": "Senecostraat", 
      "lonmin": 4.134360367451629, 
      "sanName": "senecostraat", 
      "numOfAddr": 5, 
      "lonmax": 4.139238318848075, 
      "latmin": 50.79705273641856
    }, 
    {
      "latmax": 50.77810456006177, 
      "name": "Sint-Annastraat", 
      "lonmin": 4.084674042933467, 
      "sanName": "sintannastraat", 
      "numOfAddr": 14, 
      "lonmax": 4.086895026691311, 
      "latmin": 50.77584416691785
    }, 
    {
      "latmax": 50.802473581322865, 
      "name": "Sint-Kwintenbaan", 
      "lonmin": 4.1304477187131745, 
      "sanName": "sintkwintenbaan", 
      "numOfAddr": 9, 
      "lonmax": 4.131668580761058, 
      "latmin": 50.801481590418746
    }, 
    {
      "latmax": 50.77557455722426, 
      "name": "Sint-Pietersplein", 
      "lonmin": 4.118228814899822, 
      "sanName": "sintpietersplein", 
      "numOfAddr": 7, 
      "lonmax": 4.119536468719461, 
      "latmin": 50.77501322507296
    }, 
    {
      "latmax": 50.77975077226098, 
      "name": "Stationsstraat", 
      "lonmin": 4.121311045539943, 
      "sanName": "stationsstraat", 
      "numOfAddr": 13, 
      "lonmax": 4.1229824200724146, 
      "latmin": 50.77897780450756
    }, 
    {
      "latmax": 50.794795560702404, 
      "name": "Strijlandstraat", 
      "lonmin": 4.072333401397003, 
      "sanName": "strijlandstraat", 
      "numOfAddr": 105, 
      "lonmax": 4.092304518808985, 
      "latmin": 50.79094106913592
    }, 
    {
      "latmax": 50.80390461290426, 
      "name": "Stuivenbergstraat", 
      "lonmin": 4.104830614921032, 
      "sanName": "stuivenbergstraat", 
      "numOfAddr": 48, 
      "lonmax": 4.125770840394877, 
      "latmin": 50.800931471780544
    }, 
    {
      "latmax": 50.79904176179141, 
      "name": "Terhagenstraat", 
      "lonmin": 4.072141123119406, 
      "sanName": "terhagenstraat", 
      "numOfAddr": 6, 
      "lonmax": 4.07959598018644, 
      "latmin": 50.79480140408435
    }, 
    {
      "latmax": 50.79236637598387, 
      "name": "Terlostraat", 
      "lonmin": 4.0936418869627476, 
      "sanName": "terlostraat", 
      "numOfAddr": 108, 
      "lonmax": 4.1094038350110615, 
      "latmin": 50.789720036139805
    }, 
    {
      "latmax": 50.76177353680825, 
      "name": "Ter Mollekenstraat", 
      "lonmin": 4.127462572397679, 
      "sanName": "termollekenstraat", 
      "numOfAddr": 3, 
      "lonmax": 4.13479278971154, 
      "latmin": 50.75587841741901
    }, 
    {
      "latmax": 50.79101492250639, 
      "name": "Thibautstraat", 
      "lonmin": 4.092905923177711, 
      "sanName": "thibautstraat", 
      "numOfAddr": 12, 
      "lonmax": 4.094427574847473, 
      "latmin": 50.78715485071533
    }, 
    {
      "latmax": 50.79478525745743, 
      "name": "Torenstraat", 
      "lonmin": 4.117475805508735, 
      "sanName": "torenstraat", 
      "numOfAddr": 8, 
      "lonmax": 4.118375009632663, 
      "latmin": 50.7944073023165
    }, 
    {
      "latmax": 50.78087996470366, 
      "name": "Treeveldweg", 
      "lonmin": 4.0949551083749585, 
      "sanName": "treeveldweg", 
      "numOfAddr": 1, 
      "lonmax": 4.0949551083749585, 
      "latmin": 50.78087996470366
    }, 
    {
      "latmax": 50.77642515959751, 
      "name": "Turkeyestraat", 
      "lonmin": 4.060198347965969, 
      "sanName": "turkeyestraat", 
      "numOfAddr": 19, 
      "lonmax": 4.062386601052546, 
      "latmin": 50.7743655689127
    }, 
    {
      "latmax": 50.79529970933173, 
      "name": "Uidekrijstraat", 
      "lonmin": 4.121280689628943, 
      "sanName": "uidekrijstraat", 
      "numOfAddr": 7, 
      "lonmax": 4.1220807685938885, 
      "latmin": 50.79459180319081
    }, 
    {
      "latmax": 50.773029489669966, 
      "name": "Utveldstraat", 
      "lonmin": 4.117633704249565, 
      "sanName": "utveldstraat", 
      "numOfAddr": 6, 
      "lonmax": 4.1214758499105795, 
      "latmin": 50.77108363367166
    }, 
    {
      "latmax": 50.77471870652447, 
      "name": "Vierbergenstraat", 
      "lonmin": 4.087036364676364, 
      "sanName": "vierbergenstraat", 
      "numOfAddr": 12, 
      "lonmax": 4.087830733186602, 
      "latmin": 50.772588614345885
    }, 
    {
      "latmax": 50.76499928601813, 
      "name": "Viergatenstraat", 
      "lonmin": 4.054194924182253, 
      "sanName": "viergatenstraat", 
      "numOfAddr": 17, 
      "lonmax": 4.063951574864059, 
      "latmin": 50.7640998153351
    }, 
    {
      "latmax": 50.767320174664675, 
      "name": "Voetbergstraat", 
      "lonmin": 4.10684633207707, 
      "sanName": "voetbergstraat", 
      "numOfAddr": 3, 
      "lonmax": 4.111263245311842, 
      "latmin": 50.76416010854325
    }, 
    {
      "latmax": 50.773194345423015, 
      "name": "Vollezelestraat", 
      "lonmin": 4.041180814427898, 
      "sanName": "vollezelestraat", 
      "numOfAddr": 100, 
      "lonmax": 4.062345001120814, 
      "latmin": 50.76755617250403
    }, 
    {
      "latmax": 50.775262657487716, 
      "name": "Warandestraat", 
      "lonmin": 4.071273162609685, 
      "sanName": "warandestraat", 
      "numOfAddr": 37, 
      "lonmax": 4.0851439352843135, 
      "latmin": 50.77218473984955
    }, 
    {
      "latmax": 50.81447920846095, 
      "name": "Wijngaardbosstraat", 
      "lonmin": 4.082713051915069, 
      "sanName": "wijngaardbosstraat", 
      "numOfAddr": 10, 
      "lonmax": 4.100722000517638, 
      "latmin": 50.80658654888525
    }, 
    {
      "latmax": 50.79714256191105, 
      "name": "Wijngaardstraat", 
      "lonmin": 4.11894289176902, 
      "sanName": "wijngaardstraat", 
      "numOfAddr": 64, 
      "lonmax": 4.12664282572359, 
      "latmin": 50.794975321217294
    }, 
    {
      "latmax": 50.79733582326777, 
      "name": "Windmolenstraat", 
      "lonmin": 4.123914053171593, 
      "sanName": "windmolenstraat", 
      "numOfAddr": 1, 
      "lonmax": 4.123914053171593, 
      "latmin": 50.79733582326777
    }, 
    {
      "latmax": 50.77991999430281, 
      "name": "Winnepenninckxstraat", 
      "lonmin": 4.122478800429124, 
      "sanName": "winnepenninckxstraat", 
      "numOfAddr": 34, 
      "lonmax": 4.131540657898522, 
      "latmin": 50.77696305078188
    }, 
    {
      "latmax": 50.77235082147916, 
      "name": "Witteweg", 
      "lonmin": 4.047558043609909, 
      "sanName": "witteweg", 
      "numOfAddr": 2, 
      "lonmax": 4.048530255605965, 
      "latmin": 50.772023913410926
    }, 
    {
      "latmax": 50.81240011699153, 
      "name": "Woestijnstraat", 
      "lonmin": 4.080548020791866, 
      "sanName": "woestijnstraat", 
      "numOfAddr": 9, 
      "lonmax": 4.082488365641388, 
      "latmin": 50.80958053510762
    }, 
    {
      "latmax": 50.791305937599425, 
      "name": "Wolvenstraat", 
      "lonmin": 4.082820878358018, 
      "sanName": "wolvenstraat", 
      "numOfAddr": 28, 
      "lonmax": 4.088933135520072, 
      "latmin": 50.782729248589185
    }, 
    {
      "latmax": 50.773934673325016, 
      "name": "Zijbosstraat", 
      "lonmin": 4.0506660404057975, 
      "sanName": "zijbosstraat", 
      "numOfAddr": 2, 
      "lonmax": 4.0516695174601365, 
      "latmin": 50.77307127714627
    }, 
    {
      "latmax": 50.79284128905715, 
      "name": "Zijpstraat", 
      "lonmin": 4.111950039892979, 
      "sanName": "zijpstraat", 
      "numOfAddr": 56, 
      "lonmax": 4.124279864607378, 
      "latmin": 50.79012267072379
    }, 
    {
      "latmax": 50.76191671120453, 
      "name": "Zwaantje", 
      "lonmin": 4.13432453287405, 
      "sanName": "zwaantje", 
      "numOfAddr": 16, 
      "lonmax": 4.142502278373863, 
      "latmin": 50.75345499160467
    }, 
    {
      "latmax": 50.78564320114921, 
      "name": "Zwartschaapstraat", 
      "lonmin": 4.088413023509526, 
      "sanName": "zwartschaapstraat", 
      "numOfAddr": 25, 
      "lonmax": 4.098499526038615, 
      "latmin": 50.78222539203665
    }
  ]
}