{
  "streets": [
    {
      "latmax": 50.964659240782126, 
      "name": "Abelenlaan", 
      "lonmin": 4.374582971275097, 
      "sanName": "abelenlaan", 
      "numOfAddr": 16, 
      "lonmax": 4.375714349639773, 
      "latmin": 50.96349815843048
    }, 
    {
      "latmax": 50.968137842909925, 
      "name": "Achterstraat", 
      "lonmin": 4.376547480750718, 
      "sanName": "achterstraat", 
      "numOfAddr": 28, 
      "lonmax": 4.379563291601447, 
      "latmin": 50.9658421836465
    }, 
    {
      "latmax": 50.97943986018116, 
      "name": "Azalealaan", 
      "lonmin": 4.392436184060968, 
      "sanName": "azalealaan", 
      "numOfAddr": 22, 
      "lonmax": 4.395334940322984, 
      "latmin": 50.97809263868891
    }, 
    {
      "latmax": 50.9754462606597, 
      "name": "Baron Rene Lundenlaan", 
      "lonmin": 4.384405859331379, 
      "sanName": "baronrenelundenlaan", 
      "numOfAddr": 21, 
      "lonmax": 4.385983868126047, 
      "latmin": 50.97369258569476
    }, 
    {
      "latmax": 50.96892107756372, 
      "name": "Beekveldweg", 
      "lonmin": 4.373380734832041, 
      "sanName": "beekveldweg", 
      "numOfAddr": 2, 
      "lonmax": 4.37353860678642, 
      "latmin": 50.9688425947165
    }, 
    {
      "latmax": 50.960605350010155, 
      "name": "Beigemsesteenweg", 
      "lonmin": 4.362078990269937, 
      "sanName": "beigemsesteenweg", 
      "numOfAddr": 5, 
      "lonmax": 4.36288693326394, 
      "latmin": 50.96030547626096
    }, 
    {
      "latmax": 50.97489005103359, 
      "name": "Benedestraat", 
      "lonmin": 4.387481410325586, 
      "sanName": "benedestraat", 
      "numOfAddr": 142, 
      "lonmax": 4.395851424550682, 
      "latmin": 50.95900808913823
    }, 
    {
      "latmax": 50.97298813960123, 
      "name": "Bergstraat", 
      "lonmin": 4.395566156174701, 
      "sanName": "bergstraat", 
      "numOfAddr": 3, 
      "lonmax": 4.395792721967802, 
      "latmin": 50.97291007686914
    }, 
    {
      "latmax": 50.974862532760895, 
      "name": "Bintjeshof", 
      "lonmin": 4.390912279265684, 
      "sanName": "bintjeshof", 
      "numOfAddr": 1, 
      "lonmax": 4.390912279265684, 
      "latmin": 50.974862532760895
    }, 
    {
      "latmax": 50.96208766123776, 
      "name": "Bloemkerslaan", 
      "lonmin": 4.374651011451889, 
      "sanName": "bloemkerslaan", 
      "numOfAddr": 16, 
      "lonmax": 4.3768030861340135, 
      "latmin": 50.961046724863664
    }, 
    {
      "latmax": 50.97007520462545, 
      "name": "Bosstraat", 
      "lonmin": 4.3551856465918135, 
      "sanName": "bosstraat", 
      "numOfAddr": 2, 
      "lonmax": 4.355659163282564, 
      "latmin": 50.969571489738335
    }, 
    {
      "latmax": 50.97160862944035, 
      "name": "Brassershof", 
      "lonmin": 4.3862905903253875, 
      "sanName": "brassershof", 
      "numOfAddr": 1, 
      "lonmax": 4.3862905903253875, 
      "latmin": 50.97160862944035
    }, 
    {
      "latmax": 50.96138524123833, 
      "name": "Cederlaan", 
      "lonmin": 4.372264890940221, 
      "sanName": "cederlaan", 
      "numOfAddr": 13, 
      "lonmax": 4.374170253934215, 
      "latmin": 50.96067460184771
    }, 
    {
      "latmax": 50.96702025017274, 
      "name": "Crenaertstraat", 
      "lonmin": 4.367115070833238, 
      "sanName": "crenaertstraat", 
      "numOfAddr": 8, 
      "lonmax": 4.368403973915847, 
      "latmin": 50.96636341318518
    }, 
    {
      "latmax": 50.97496009579139, 
      "name": "Dijkstraat", 
      "lonmin": 4.390130744980583, 
      "sanName": "dijkstraat", 
      "numOfAddr": 17, 
      "lonmax": 4.392455662410891, 
      "latmin": 50.97334590295513
    }, 
    {
      "latmax": 50.96733108094834, 
      "name": "Dokter Carlierstraat", 
      "lonmin": 4.380405837644793, 
      "sanName": "doktercarlierstraat", 
      "numOfAddr": 40, 
      "lonmax": 4.382268826556325, 
      "latmin": 50.965803907500536
    }, 
    {
      "latmax": 50.96775873214843, 
      "name": "Dorpsstraat", 
      "lonmin": 4.376946658942822, 
      "sanName": "dorpsstraat", 
      "numOfAddr": 53, 
      "lonmax": 4.380920129451438, 
      "latmin": 50.965457946729394
    }, 
    {
      "latmax": 50.97582203936676, 
      "name": "Driesbosweg", 
      "lonmin": 4.373993059098395, 
      "sanName": "driesbosweg", 
      "numOfAddr": 1, 
      "lonmax": 4.373993059098395, 
      "latmin": 50.97582203936676
    }, 
    {
      "latmax": 50.97565342224664, 
      "name": "Driesstraat", 
      "lonmin": 4.3657515337758594, 
      "sanName": "driesstraat", 
      "numOfAddr": 70, 
      "lonmax": 4.377366004765126, 
      "latmin": 50.972954904675376
    }, 
    {
      "latmax": 50.96850533063736, 
      "name": "Driesveldweg", 
      "lonmin": 4.3733143468641185, 
      "sanName": "driesveldweg", 
      "numOfAddr": 2, 
      "lonmax": 4.375308682732452, 
      "latmin": 50.96747605236047
    }, 
    {
      "latmax": 50.962540277226104, 
      "name": "Egelantierlaan", 
      "lonmin": 4.372218868787995, 
      "sanName": "egelantierlaan", 
      "numOfAddr": 25, 
      "lonmax": 4.375353552743372, 
      "latmin": 50.96140784338871
    }, 
    {
      "latmax": 50.95856574480264, 
      "name": "Groenstraat", 
      "lonmin": 4.371939717794615, 
      "sanName": "groenstraat", 
      "numOfAddr": 2, 
      "lonmax": 4.372204893801464, 
      "latmin": 50.958428218843125
    }, 
    {
      "latmax": 50.97264817697159, 
      "name": "Heuvelstraat", 
      "lonmin": 4.367253661927599, 
      "sanName": "heuvelstraat", 
      "numOfAddr": 5, 
      "lonmax": 4.370504474483428, 
      "latmin": 50.970609456007516
    }, 
    {
      "latmax": 50.97443906375642, 
      "name": "Hof ter Wilderlaan", 
      "lonmin": 4.371255173703848, 
      "sanName": "hofterwilderlaan", 
      "numOfAddr": 29, 
      "lonmax": 4.377116676017911, 
      "latmin": 50.96643457318136
    }, 
    {
      "latmax": 50.96639421804508, 
      "name": "Holbroek", 
      "lonmin": 4.379618480606364, 
      "sanName": "holbroek", 
      "numOfAddr": 8, 
      "lonmax": 4.391081916543888, 
      "latmin": 50.95990915961513
    }, 
    {
      "latmax": 50.972933476481586, 
      "name": "Kadol", 
      "lonmin": 4.360834475180122, 
      "sanName": "kadol", 
      "numOfAddr": 13, 
      "lonmax": 4.361626829846475, 
      "latmin": 50.97232233864423
    }, 
    {
      "latmax": 50.97963147015525, 
      "name": "Kanaalstraat", 
      "lonmin": 4.390666942063303, 
      "sanName": "kanaalstraat", 
      "numOfAddr": 5, 
      "lonmax": 4.391162128616594, 
      "latmin": 50.97909248132559
    }, 
    {
      "latmax": 50.964388541502075, 
      "name": "Kerkhofstraat", 
      "lonmin": 4.37821951711925, 
      "sanName": "kerkhofstraat", 
      "numOfAddr": 4, 
      "lonmax": 4.379279876055337, 
      "latmin": 50.963669894682305
    }, 
    {
      "latmax": 50.97816956259445, 
      "name": "Kerkstraat", 
      "lonmin": 4.379996131847726, 
      "sanName": "kerkstraat", 
      "numOfAddr": 167, 
      "lonmax": 4.389899826372667, 
      "latmin": 50.96778449805133
    }, 
    {
      "latmax": 50.97010415721009, 
      "name": "Kerkveldweg", 
      "lonmin": 4.3815680328338935, 
      "sanName": "kerkveldweg", 
      "numOfAddr": 42, 
      "lonmax": 4.385384550631261, 
      "latmin": 50.96734488707101
    }, 
    {
      "latmax": 50.98181837785063, 
      "name": "Klein Mechelstraat", 
      "lonmin": 4.3891709564025945, 
      "sanName": "kleinmechelstraat", 
      "numOfAddr": 12, 
      "lonmax": 4.39058461310287, 
      "latmin": 50.98100553556007
    }, 
    {
      "latmax": 50.973889342096825, 
      "name": "Klein Warandestraat", 
      "lonmin": 4.377201031308326, 
      "sanName": "kleinwarandestraat", 
      "numOfAddr": 2, 
      "lonmax": 4.377700064946744, 
      "latmin": 50.97387321163893
    }, 
    {
      "latmax": 50.96581990005295, 
      "name": "Kruisstraat", 
      "lonmin": 4.36169929393402, 
      "sanName": "kruisstraat", 
      "numOfAddr": 71, 
      "lonmax": 4.376413236815562, 
      "latmin": 50.96077326340981
    }, 
    {
      "latmax": 50.97767701109102, 
      "name": "Langstraatje", 
      "lonmin": 4.383017511783256, 
      "sanName": "langstraatje", 
      "numOfAddr": 4, 
      "lonmax": 4.384006022847648, 
      "latmin": 50.976546184841176
    }, 
    {
      "latmax": 50.963063397103205, 
      "name": "Lijsterbeslaan", 
      "lonmin": 4.375209332143185, 
      "sanName": "lijsterbeslaan", 
      "numOfAddr": 15, 
      "lonmax": 4.37632288793612, 
      "latmin": 50.96193363817655
    }, 
    {
      "latmax": 50.97413821394127, 
      "name": "Lusweg", 
      "lonmin": 4.386762098588028, 
      "sanName": "lusweg", 
      "numOfAddr": 17, 
      "lonmax": 4.388637660663616, 
      "latmin": 50.97275284928119
    }, 
    {
      "latmax": 50.982374444917845, 
      "name": "Mechelstraat", 
      "lonmin": 4.389902435272055, 
      "sanName": "mechelstraat", 
      "numOfAddr": 44, 
      "lonmax": 4.392228007079249, 
      "latmin": 50.97939446435864
    }, 
    {
      "latmax": 50.96091633323505, 
      "name": "Meerstraat", 
      "lonmin": 4.360145230759425, 
      "sanName": "meerstraat", 
      "numOfAddr": 7, 
      "lonmax": 4.3618588921563015, 
      "latmin": 50.957779534117705
    }, 
    {
      "latmax": 50.96410927742828, 
      "name": "Meidoornlaan", 
      "lonmin": 4.3714548067129035, 
      "sanName": "meidoornlaan", 
      "numOfAddr": 32, 
      "lonmax": 4.3773728417621545, 
      "latmin": 50.9622361482308
    }, 
    {
      "latmax": 50.97401724362528, 
      "name": "Meiskensbeekstraat", 
      "lonmin": 4.378749060761379, 
      "sanName": "meiskensbeekstraat", 
      "numOfAddr": 83, 
      "lonmax": 4.385936148971321, 
      "latmin": 50.96869519677023
    }, 
    {
      "latmax": 50.97298518136316, 
      "name": "Molenstraat", 
      "lonmin": 4.365213821362574, 
      "sanName": "molenstraat", 
      "numOfAddr": 101, 
      "lonmax": 4.372062243226193, 
      "latmin": 50.95885171742891
    }, 
    {
      "latmax": 50.970839835577685, 
      "name": "Nachtegaallaan", 
      "lonmin": 4.387104928716196, 
      "sanName": "nachtegaallaan", 
      "numOfAddr": 3, 
      "lonmax": 4.390096759443563, 
      "latmin": 50.968590129121296
    }, 
    {
      "latmax": 50.974363535814646, 
      "name": "Nieuwenroodsesteenweg", 
      "lonmin": 4.360388605216496, 
      "sanName": "nieuwenroodsesteenweg", 
      "numOfAddr": 38, 
      "lonmax": 4.365248258842311, 
      "latmin": 50.97292806909172
    }, 
    {
      "latmax": 50.9801298166881, 
      "name": "Oostvaartdijk", 
      "lonmin": 4.389511234414702, 
      "sanName": "oostvaartdijk", 
      "numOfAddr": 78, 
      "lonmax": 4.411679099011332, 
      "latmin": 50.95516753167388
    }, 
    {
      "latmax": 50.96000302821, 
      "name": "Oudemolenweg", 
      "lonmin": 4.371389760440883, 
      "sanName": "oudemolenweg", 
      "numOfAddr": 6, 
      "lonmax": 4.374288399055271, 
      "latmin": 50.958259865324
    }, 
    {
      "latmax": 50.978606664735324, 
      "name": "Saslaan", 
      "lonmin": 4.391603283591671, 
      "sanName": "saslaan", 
      "numOfAddr": 32, 
      "lonmax": 4.394466446948685, 
      "latmin": 50.97728022606167
    }, 
    {
      "latmax": 50.98059007484908, 
      "name": "Seringenlaan", 
      "lonmin": 4.391351934577834, 
      "sanName": "seringenlaan", 
      "numOfAddr": 22, 
      "lonmax": 4.393812263265878, 
      "latmin": 50.97875000212656
    }, 
    {
      "latmax": 50.97306948310864, 
      "name": "Sint-Rumoldusstraat", 
      "lonmin": 4.383058284131251, 
      "sanName": "sintrumoldusstraat", 
      "numOfAddr": 60, 
      "lonmax": 4.3900148197283055, 
      "latmin": 50.969251043681695
    }, 
    {
      "latmax": 50.96601117586235, 
      "name": "Slikkestraat", 
      "lonmin": 4.386692236439226, 
      "sanName": "slikkestraat", 
      "numOfAddr": 6, 
      "lonmax": 4.391518402311404, 
      "latmin": 50.964815607246145
    }, 
    {
      "latmax": 50.9724180069323, 
      "name": "Spekveld", 
      "lonmin": 4.360722753676613, 
      "sanName": "spekveld", 
      "numOfAddr": 27, 
      "lonmax": 4.365610816314466, 
      "latmin": 50.971489928663175
    }, 
    {
      "latmax": 50.96546023796351, 
      "name": "Steeneikstraat", 
      "lonmin": 4.376474384541965, 
      "sanName": "steeneikstraat", 
      "numOfAddr": 30, 
      "lonmax": 4.378063487411883, 
      "latmin": 50.962200359544205
    }, 
    {
      "latmax": 50.97982927201521, 
      "name": "Steenstraat", 
      "lonmin": 4.393064709937189, 
      "sanName": "steenstraat", 
      "numOfAddr": 40, 
      "lonmax": 4.397598212082352, 
      "latmin": 50.975905646712306
    }, 
    {
      "latmax": 50.96430500711892, 
      "name": "Ter Eikenlaan", 
      "lonmin": 4.373410528369037, 
      "sanName": "tereikenlaan", 
      "numOfAddr": 21, 
      "lonmax": 4.374654692821656, 
      "latmin": 50.96317110299453
    }, 
    {
      "latmax": 50.962688438254446, 
      "name": "Vlierbesgaarde", 
      "lonmin": 4.37669820630203, 
      "sanName": "vlierbesgaarde", 
      "numOfAddr": 16, 
      "lonmax": 4.377783101537789, 
      "latmin": 50.962016122160755
    }, 
    {
      "latmax": 50.983231667442205, 
      "name": "Voordestraat", 
      "lonmin": 4.364363970984947, 
      "sanName": "voordestraat", 
      "numOfAddr": 31, 
      "lonmax": 4.3666211022412105, 
      "latmin": 50.97335219794331
    }, 
    {
      "latmax": 50.97680238049878, 
      "name": "Warandestraat", 
      "lonmin": 4.376777355125875, 
      "sanName": "warandestraat", 
      "numOfAddr": 42, 
      "lonmax": 4.3883181392071915, 
      "latmin": 50.97488375637505
    }, 
    {
      "latmax": 50.97954971253284, 
      "name": "Westvaartdijk", 
      "lonmin": 4.38869589547226, 
      "sanName": "westvaartdijk", 
      "numOfAddr": 36, 
      "lonmax": 4.391994865678681, 
      "latmin": 50.975257930796985
    }, 
    {
      "latmax": 50.97327987309409, 
      "name": "Zijpstraat", 
      "lonmin": 4.359388714433278, 
      "sanName": "zijpstraat", 
      "numOfAddr": 71, 
      "lonmax": 4.3625225167213735, 
      "latmin": 50.9610929652883
    }
  ]
}