{
  "streets": [
    {
      "latmax": 50.862107760642516, 
      "name": "Acacialaan", 
      "lonmin": 4.445704731302015, 
      "sanName": "acacialaan", 
      "numOfAddr": 42, 
      "lonmax": 4.448246134131796, 
      "latmin": 50.86105668175668
    }, 
    {
      "latmax": 50.86672986079024, 
      "name": "Availles-Limousinelaan", 
      "lonmin": 4.4325704691214005, 
      "sanName": "availleslimousinelaan", 
      "numOfAddr": 22, 
      "lonmax": 4.433674009914451, 
      "latmin": 50.865026091360036
    }, 
    {
      "latmax": 50.86555721129476, 
      "name": "Bareelstraat", 
      "lonmin": 4.440926043132262, 
      "sanName": "bareelstraat", 
      "numOfAddr": 17, 
      "lonmax": 4.44153298326698, 
      "latmin": 50.8646479721315
    }, 
    {
      "latmax": 50.86746378726382, 
      "name": "Batticelaan", 
      "lonmin": 4.433856603533666, 
      "sanName": "batticelaan", 
      "numOfAddr": 28, 
      "lonmax": 4.434743179766553, 
      "latmin": 50.86552104028864
    }, 
    {
      "latmax": 50.86198022748842, 
      "name": "Berreveldlaan", 
      "lonmin": 4.442670901334714, 
      "sanName": "berreveldlaan", 
      "numOfAddr": 60, 
      "lonmax": 4.447680355369675, 
      "latmin": 50.860414891392494
    }, 
    {
      "latmax": 50.865246577882225, 
      "name": "Bevrijdingslaan", 
      "lonmin": 4.432394994675053, 
      "sanName": "bevrijdingslaan", 
      "numOfAddr": 72, 
      "lonmax": 4.447047052939601, 
      "latmin": 50.86319111800197
    }, 
    {
      "latmax": 50.86771081237211, 
      "name": "Blankenheimlaan", 
      "lonmin": 4.4303730760779105, 
      "sanName": "blankenheimlaan", 
      "numOfAddr": 42, 
      "lonmax": 4.432893225223048, 
      "latmin": 50.86484570484669
    }, 
    {
      "latmax": 50.87121757694598, 
      "name": "Borrestraat", 
      "lonmin": 4.452458882583222, 
      "sanName": "borrestraat", 
      "numOfAddr": 10, 
      "lonmax": 4.453877460183929, 
      "latmin": 50.87051275351757
    }, 
    {
      "latmax": 50.878161293389006, 
      "name": "Bourgetlaan", 
      "lonmin": 4.430892156400013, 
      "sanName": "bourgetlaan", 
      "numOfAddr": 5, 
      "lonmax": 4.433284183626835, 
      "latmin": 50.87514529421745
    }, 
    {
      "latmax": 50.87046884483525, 
      "name": "Broekstraat", 
      "lonmin": 4.451408993253377, 
      "sanName": "broekstraat", 
      "numOfAddr": 18, 
      "lonmax": 4.452690376139306, 
      "latmin": 50.86950472375416
    }, 
    {
      "latmax": 50.87014050504443, 
      "name": "Burg. W. Servranckxplein", 
      "lonmin": 4.447843366869827, 
      "sanName": "burgwservranckxplein", 
      "numOfAddr": 28, 
      "lonmax": 4.450117442927271, 
      "latmin": 50.869400229323574
    }, 
    {
      "latmax": 50.86281265046603, 
      "name": "Countrylaan", 
      "lonmin": 4.431548687117831, 
      "sanName": "countrylaan", 
      "numOfAddr": 33, 
      "lonmax": 4.436458795314526, 
      "latmin": 50.86173995714737
    }, 
    {
      "latmax": 50.87225391035573, 
      "name": "Dorsershof", 
      "lonmin": 4.449289435245624, 
      "sanName": "dorsershof", 
      "numOfAddr": 21, 
      "lonmax": 4.451279890180683, 
      "latmin": 50.87121057743504
    }, 
    {
      "latmax": 50.86861700540406, 
      "name": "Eenenboomlaan", 
      "lonmin": 4.434493407144066, 
      "sanName": "eenenboomlaan", 
      "numOfAddr": 47, 
      "lonmax": 4.436246732591098, 
      "latmin": 50.86591431563982
    }, 
    {
      "latmax": 50.8771618741963, 
      "name": "Eksterberg", 
      "lonmin": 4.452603699799705, 
      "sanName": "eksterberg", 
      "numOfAddr": 76, 
      "lonmax": 4.455016930503545, 
      "latmin": 50.87587658798346
    }, 
    {
      "latmax": 50.87012416248342, 
      "name": "Elie Aubinaustraat", 
      "lonmin": 4.445304595114161, 
      "sanName": "elieaubinaustraat", 
      "numOfAddr": 41, 
      "lonmax": 4.448877320870691, 
      "latmin": 50.86803179659823
    }, 
    {
      "latmax": 50.86586975779327, 
      "name": "Esstraat", 
      "lonmin": 4.443602024737914, 
      "sanName": "esstraat", 
      "numOfAddr": 16, 
      "lonmax": 4.445007933824952, 
      "latmin": 50.86539564445052
    }, 
    {
      "latmax": 50.86576791947712, 
      "name": "Europalaan", 
      "lonmin": 4.428620413906798, 
      "sanName": "europalaan", 
      "numOfAddr": 46, 
      "lonmax": 4.436607885242719, 
      "latmin": 50.864244495317806
    }, 
    {
      "latmax": 50.869161187392734, 
      "name": "Eversestraat", 
      "lonmin": 4.433561515015197, 
      "sanName": "eversestraat", 
      "numOfAddr": 123, 
      "lonmax": 4.445724944122834, 
      "latmin": 50.86676766056167
    }, 
    {
      "latmax": 50.87397546301146, 
      "name": "Frans Smoldersstraat", 
      "lonmin": 4.4555615408612645, 
      "sanName": "franssmoldersstraat", 
      "numOfAddr": 39, 
      "lonmax": 4.458864885878785, 
      "latmin": 50.8693886957072
    }, 
    {
      "latmax": 50.86324658974634, 
      "name": "Graaf A. Ryckmansstraat", 
      "lonmin": 4.43315801239746, 
      "sanName": "graafaryckmansstraat", 
      "numOfAddr": 21, 
      "lonmax": 4.4344224277296975, 
      "latmin": 50.86239045133215
    }, 
    {
      "latmax": 50.87398419356138, 
      "name": "Grote Kloosterstraat", 
      "lonmin": 4.458916129895242, 
      "sanName": "grotekloosterstraat", 
      "numOfAddr": 1, 
      "lonmax": 4.458916129895242, 
      "latmin": 50.87398419356138
    }, 
    {
      "latmax": 50.87322921157427, 
      "name": "Haverveld", 
      "lonmin": 4.4506848245856885, 
      "sanName": "haverveld", 
      "numOfAddr": 12, 
      "lonmax": 4.451670223349594, 
      "latmin": 50.87283597047997
    }, 
    {
      "latmax": 50.854720989724626, 
      "name": "Hebronlaan", 
      "lonmin": 4.45706504339285, 
      "sanName": "hebronlaan", 
      "numOfAddr": 9, 
      "lonmax": 4.4578995712703975, 
      "latmin": 50.85387779926687
    }, 
    {
      "latmax": 50.869428228741384, 
      "name": "Hendrik Thumasplein", 
      "lonmin": 4.449305822402806, 
      "sanName": "hendrikthumasplein", 
      "numOfAddr": 20, 
      "lonmax": 4.450149136590198, 
      "latmin": 50.86873460188981
    }, 
    {
      "latmax": 50.855260361712006, 
      "name": "Hippokrateslaan", 
      "lonmin": 4.446748788601707, 
      "sanName": "hippokrateslaan", 
      "numOfAddr": 3, 
      "lonmax": 4.447408041798997, 
      "latmin": 50.85509190397137
    }, 
    {
      "latmax": 50.863397419577375, 
      "name": "Hockeylaan", 
      "lonmin": 4.434492879332899, 
      "sanName": "hockeylaan", 
      "numOfAddr": 25, 
      "lonmax": 4.436032277694392, 
      "latmin": 50.861666999684125
    }, 
    {
      "latmax": 50.85960643091919, 
      "name": "Hof-ten-Berglaan", 
      "lonmin": 4.434999900505048, 
      "sanName": "hoftenberglaan", 
      "numOfAddr": 5, 
      "lonmax": 4.435920063394234, 
      "latmin": 50.85926627960205
    }, 
    {
      "latmax": 50.86489603454175, 
      "name": "Hortensia", 
      "lonmin": 4.42791387947274, 
      "sanName": "hortensia", 
      "numOfAddr": 78, 
      "lonmax": 4.430742640814872, 
      "latmin": 50.86341447603139
    }, 
    {
      "latmax": 50.86817150331102, 
      "name": "Jean Monnetwijk", 
      "lonmin": 4.427613774930071, 
      "sanName": "jeanmonnetwijk", 
      "numOfAddr": 58, 
      "lonmax": 4.431048004704216, 
      "latmin": 50.86699536586784
    }, 
    {
      "latmax": 50.87535998637619, 
      "name": "Jozef Van Damstraat", 
      "lonmin": 4.45403084473057, 
      "sanName": "jozefvandamstraat", 
      "numOfAddr": 21, 
      "lonmax": 4.457684967155177, 
      "latmin": 50.87103106323824
    }, 
    {
      "latmax": 50.86707459527457, 
      "name": "Jozef Van Hovestraat", 
      "lonmin": 4.4500480545245855, 
      "sanName": "jozefvanhovestraat", 
      "numOfAddr": 6, 
      "lonmax": 4.451457093978653, 
      "latmin": 50.866431934126986
    }, 
    {
      "latmax": 50.8683202013857, 
      "name": "Julien Trekkerstraat", 
      "lonmin": 4.453880629797603, 
      "sanName": "julientrekkerstraat", 
      "numOfAddr": 50, 
      "lonmax": 4.4546756857808205, 
      "latmin": 50.86624192471666
    }, 
    {
      "latmax": 50.85616975915858, 
      "name": "Kapellelaan", 
      "lonmin": 4.455842562638072, 
      "sanName": "kapellelaan", 
      "numOfAddr": 1, 
      "lonmax": 4.455842562638072, 
      "latmin": 50.85616975915858
    }, 
    {
      "latmax": 50.876177090719146, 
      "name": "Karenberg", 
      "lonmin": 4.454075558312512, 
      "sanName": "karenberg", 
      "numOfAddr": 25, 
      "lonmax": 4.457849920898373, 
      "latmin": 50.875401935555445
    }, 
    {
      "latmax": 50.86851312495331, 
      "name": "Kasteelgaarde", 
      "lonmin": 4.45025413563666, 
      "sanName": "kasteelgaarde", 
      "numOfAddr": 14, 
      "lonmax": 4.451440565489703, 
      "latmin": 50.86814463484766
    }, 
    {
      "latmax": 50.871223126727834, 
      "name": "Kleine Bosstraat", 
      "lonmin": 4.4462783202041205, 
      "sanName": "kleinebosstraat", 
      "numOfAddr": 32, 
      "lonmax": 4.448315173260433, 
      "latmin": 50.870022705612556
    }, 
    {
      "latmax": 50.86978053342155, 
      "name": "Kleine Kerkstraat", 
      "lonmin": 4.45104267247352, 
      "sanName": "kleinekerkstraat", 
      "numOfAddr": 13, 
      "lonmax": 4.452337784300418, 
      "latmin": 50.86871712033492
    }, 
    {
      "latmax": 50.87335735616735, 
      "name": "Kleine Kloosterstraat", 
      "lonmin": 4.458714815983906, 
      "sanName": "kleinekloosterstraat", 
      "numOfAddr": 11, 
      "lonmax": 4.462365241340247, 
      "latmin": 50.87124260669119
    }, 
    {
      "latmax": 50.86960019479843, 
      "name": "Kleine Lozenberg", 
      "lonmin": 4.461009327765197, 
      "sanName": "kleinelozenberg", 
      "numOfAddr": 1, 
      "lonmax": 4.461009327765197, 
      "latmin": 50.86960019479843
    }, 
    {
      "latmax": 50.86742136248635, 
      "name": "Kleinenbergstraat", 
      "lonmin": 4.444568190186075, 
      "sanName": "kleinenbergstraat", 
      "numOfAddr": 79, 
      "lonmax": 4.4499588396993905, 
      "latmin": 50.85842141368014
    }, 
    {
      "latmax": 50.86911381050268, 
      "name": "Konrad Adenauerwijk", 
      "lonmin": 4.431375460185477, 
      "sanName": "konradadenauerwijk", 
      "numOfAddr": 64, 
      "lonmax": 4.434140507634202, 
      "latmin": 50.86770711702488
    }, 
    {
      "latmax": 50.873989042437785, 
      "name": "Korenveld", 
      "lonmin": 4.449741086178519, 
      "sanName": "korenveld", 
      "numOfAddr": 69, 
      "lonmax": 4.45245348703722, 
      "latmin": 50.87216172909282
    }, 
    {
      "latmax": 50.87009139508167, 
      "name": "Lange Wagenstraat", 
      "lonmin": 4.4409788430891615, 
      "sanName": "langewagenstraat", 
      "numOfAddr": 64, 
      "lonmax": 4.441997984707731, 
      "latmin": 50.86600263176286
    }, 
    {
      "latmax": 50.85928175354558, 
      "name": "Lenneke Marelaan", 
      "lonmin": 4.448514486043313, 
      "sanName": "lennekemarelaan", 
      "numOfAddr": 19, 
      "lonmax": 4.452519015875399, 
      "latmin": 50.85474595368609
    }, 
    {
      "latmax": 50.872139722582816, 
      "name": "Leuvensesteenweg", 
      "lonmin": 4.428924331208737, 
      "sanName": "leuvensesteenweg", 
      "numOfAddr": 286, 
      "lonmax": 4.465468923946287, 
      "latmin": 50.86278282189201
    }, 
    {
      "latmax": 50.87550698015308, 
      "name": "Loofstraat", 
      "lonmin": 4.454209736885596, 
      "sanName": "loofstraat", 
      "numOfAddr": 41, 
      "lonmax": 4.456131595085757, 
      "latmin": 50.87390708037057
    }, 
    {
      "latmax": 50.87023962632685, 
      "name": "Lozenberg", 
      "lonmin": 4.458360812151248, 
      "sanName": "lozenberg", 
      "numOfAddr": 20, 
      "lonmax": 4.4653822483594885, 
      "latmin": 50.86773065657574
    }, 
    {
      "latmax": 50.87686689995675, 
      "name": "Moeshof", 
      "lonmin": 4.454936667250788, 
      "sanName": "moeshof", 
      "numOfAddr": 48, 
      "lonmax": 4.457324273825342, 
      "latmin": 50.87599439023864
    }, 
    {
      "latmax": 50.866012774025926, 
      "name": "Molenstraat", 
      "lonmin": 4.455895130319114, 
      "sanName": "molenstraat", 
      "numOfAddr": 16, 
      "lonmax": 4.462406879188883, 
      "latmin": 50.865149751344106
    }, 
    {
      "latmax": 50.8738484822828, 
      "name": "Rijmelgem", 
      "lonmin": 4.454620890774503, 
      "sanName": "rijmelgem", 
      "numOfAddr": 14, 
      "lonmax": 4.455905198398995, 
      "latmin": 50.87307786638409
    }, 
    {
      "latmax": 50.87369595310074, 
      "name": "Roggeveld", 
      "lonmin": 4.45088361972424, 
      "sanName": "roggeveld", 
      "numOfAddr": 8, 
      "lonmax": 4.451232665763374, 
      "latmin": 50.87341146694552
    }, 
    {
      "latmax": 50.873057584782586, 
      "name": "Romboutsstraat", 
      "lonmin": 4.463022988677962, 
      "sanName": "romboutsstraat", 
      "numOfAddr": 7, 
      "lonmax": 4.464518270246171, 
      "latmin": 50.871382674584986
    }, 
    {
      "latmax": 50.86728127449234, 
      "name": "R. Schumanlaan", 
      "lonmin": 4.4283776610831005, 
      "sanName": "rschumanlaan", 
      "numOfAddr": 31, 
      "lonmax": 4.431743335921342, 
      "latmin": 50.865702662183494
    }, 
    {
      "latmax": 50.87321254239272, 
      "name": "Sint-Stefaansstraat", 
      "lonmin": 4.448603575267587, 
      "sanName": "sintstefaansstraat", 
      "numOfAddr": 118, 
      "lonmax": 4.455380068148319, 
      "latmin": 50.867850092940415
    }, 
    {
      "latmax": 50.868130594754334, 
      "name": "Smidstraat", 
      "lonmin": 4.44793709142551, 
      "sanName": "smidstraat", 
      "numOfAddr": 5, 
      "lonmax": 4.448347755788187, 
      "latmin": 50.867739092468426
    }, 
    {
      "latmax": 50.875652370100696, 
      "name": "Spechtenberg", 
      "lonmin": 4.4510792631173945, 
      "sanName": "spechtenberg", 
      "numOfAddr": 52, 
      "lonmax": 4.452780748313624, 
      "latmin": 50.87419321925315
    }, 
    {
      "latmax": 50.86296195093493, 
      "name": "Tennislaan", 
      "lonmin": 4.435603574064617, 
      "sanName": "tennislaan", 
      "numOfAddr": 33, 
      "lonmax": 4.438038453130807, 
      "latmin": 50.86213906441151
    }, 
    {
      "latmax": 50.853811375022964, 
      "name": "Ter Eyckenstraat", 
      "lonmin": 4.456887031975938, 
      "sanName": "tereyckenstraat", 
      "numOfAddr": 8, 
      "lonmax": 4.458109288826793, 
      "latmin": 50.853375978711746
    }, 
    {
      "latmax": 50.87201941780147, 
      "name": "Ter Wilgen", 
      "lonmin": 4.451338296369637, 
      "sanName": "terwilgen", 
      "numOfAddr": 10, 
      "lonmax": 4.452482176340313, 
      "latmin": 50.87134783112666
    }, 
    {
      "latmax": 50.870925407664814, 
      "name": "Tiendeschuurveld", 
      "lonmin": 4.437590616949982, 
      "sanName": "tiendeschuurveld", 
      "numOfAddr": 25, 
      "lonmax": 4.44596197610898, 
      "latmin": 50.8695840570353
    }, 
    {
      "latmax": 50.86210578842301, 
      "name": "Tollaan", 
      "lonmin": 4.430460829376772, 
      "sanName": "tollaan", 
      "numOfAddr": 27, 
      "lonmax": 4.4336485881529875, 
      "latmin": 50.86062640017626
    }, 
    {
      "latmax": 50.866601141815146, 
      "name": "Tramstraat", 
      "lonmin": 4.445447638178457, 
      "sanName": "tramstraat", 
      "numOfAddr": 33, 
      "lonmax": 4.446505839932933, 
      "latmin": 50.8651295085742
    }, 
    {
      "latmax": 50.870330861577244, 
      "name": "Veste", 
      "lonmin": 4.452260119078516, 
      "sanName": "veste", 
      "numOfAddr": 22, 
      "lonmax": 4.45366125775415, 
      "latmin": 50.86896827747577
    }, 
    {
      "latmax": 50.87561418869284, 
      "name": "Vinkenberg", 
      "lonmin": 4.452305224796563, 
      "sanName": "vinkenberg", 
      "numOfAddr": 43, 
      "lonmax": 4.453847617414033, 
      "latmin": 50.874144954363
    }, 
    {
      "latmax": 50.86783296031232, 
      "name": "Voordestraat", 
      "lonmin": 4.45142126088308, 
      "sanName": "voordestraat", 
      "numOfAddr": 7, 
      "lonmax": 4.451985262939257, 
      "latmin": 50.86709915779166
    }, 
    {
      "latmax": 50.86259771207646, 
      "name": "Waaienberg", 
      "lonmin": 4.442587505107723, 
      "sanName": "waaienberg", 
      "numOfAddr": 59, 
      "lonmax": 4.44693490854662, 
      "latmin": 50.86172290913684
    }, 
    {
      "latmax": 50.869945375399105, 
      "name": "Weidestraat", 
      "lonmin": 4.45159587542473, 
      "sanName": "weidestraat", 
      "numOfAddr": 8, 
      "lonmax": 4.452093122435725, 
      "latmin": 50.86971281392208
    }, 
    {
      "latmax": 50.874000279908586, 
      "name": "Wijngaardstraat", 
      "lonmin": 4.4536969802010775, 
      "sanName": "wijngaardstraat", 
      "numOfAddr": 14, 
      "lonmax": 4.4544531157800415, 
      "latmin": 50.87317534362865
    }, 
    {
      "latmax": 50.86690519607696, 
      "name": "Woluwedal", 
      "lonmin": 4.447758073325452, 
      "sanName": "woluwedal", 
      "numOfAddr": 15, 
      "lonmax": 4.451664290095078, 
      "latmin": 50.85531676366354
    }, 
    {
      "latmax": 50.87527895065517, 
      "name": "Woluweveld", 
      "lonmin": 4.452418924625255, 
      "sanName": "woluweveld", 
      "numOfAddr": 79, 
      "lonmax": 4.455192901261637, 
      "latmin": 50.87236717406096
    }
  ]
}