{
  "streets": [
    {
      "latmax": 51.19028464051749, 
      "name": "Abdijstraat", 
      "lonmin": 4.37830275355675, 
      "sanName": "abdijstraat", 
      "numOfAddr": 243, 
      "lonmax": 4.388157351569111, 
      "latmin": 51.185782075620956
    }, 
    {
      "latmax": 51.185246054340745, 
      "name": "Acacialaan", 
      "lonmin": 4.396701145780794, 
      "sanName": "acacialaan", 
      "numOfAddr": 34, 
      "lonmax": 4.404790319406689, 
      "latmin": 51.18225063734502
    }, 
    {
      "latmax": 51.177748245466695, 
      "name": "Ahornenlaan", 
      "lonmin": 4.405164548933448, 
      "sanName": "ahornenlaan", 
      "numOfAddr": 6, 
      "lonmax": 4.406895542526684, 
      "latmin": 51.17689406034249
    }, 
    {
      "latmax": 51.19004242470954, 
      "name": "Alfons De Cockstraat", 
      "lonmin": 4.37280232402773, 
      "sanName": "alfonsdecockstraat", 
      "numOfAddr": 46, 
      "lonmax": 4.37658221790892, 
      "latmin": 51.18886619913607
    }, 
    {
      "latmax": 51.18927327872379, 
      "name": "Alfred Coolsstraat", 
      "lonmin": 4.390365065361697, 
      "sanName": "alfredcoolsstraat", 
      "numOfAddr": 29, 
      "lonmax": 4.3935463717058525, 
      "latmin": 51.18805554326181
    }, 
    {
      "latmax": 51.19324162111803, 
      "name": "Alo\u008bs De Laetstraat", 
      "lonmin": 4.374434130546471, 
      "sanName": "alosdelaetstraat", 
      "numOfAddr": 18, 
      "lonmax": 4.37846234305827, 
      "latmin": 51.19229504451466
    }, 
    {
      "latmax": 51.181583000869445, 
      "name": "Athenestraat", 
      "lonmin": 4.384445817178776, 
      "sanName": "athenestraat", 
      "numOfAddr": 21, 
      "lonmax": 4.385539095506269, 
      "latmin": 51.18079743909408
    }, 
    {
      "latmax": 51.18588780770952, 
      "name": "Atletenstraat", 
      "lonmin": 4.382334700968458, 
      "sanName": "atletenstraat", 
      "numOfAddr": 69, 
      "lonmax": 4.384794110877303, 
      "latmin": 51.182605788203325
    }, 
    {
      "latmax": 51.19265486701873, 
      "name": "Auguste Oleffestraat", 
      "lonmin": 4.37852857208621, 
      "sanName": "augusteoleffestraat", 
      "numOfAddr": 38, 
      "lonmax": 4.379387077811197, 
      "latmin": 51.191832103670926
    }, 
    {
      "latmax": 51.19460642536482, 
      "name": "August Leyweg", 
      "lonmin": 4.3761476060355, 
      "sanName": "augustleyweg", 
      "numOfAddr": 2, 
      "lonmax": 4.378537177548341, 
      "latmin": 51.19444095543012
    }, 
    {
      "latmax": 51.186138412395884, 
      "name": "Beerschotstraat", 
      "lonmin": 4.386538282272031, 
      "sanName": "beerschotstraat", 
      "numOfAddr": 43, 
      "lonmax": 4.387648549178679, 
      "latmin": 51.18524919292804
    }, 
    {
      "latmax": 51.197539626817004, 
      "name": "Benzineweg", 
      "lonmin": 4.346862062865232, 
      "sanName": "benzineweg", 
      "numOfAddr": 2, 
      "lonmax": 4.350662661862356, 
      "latmin": 51.19541700780922
    }, 
    {
      "latmax": 51.18826577209692, 
      "name": "Berendrechtstraat", 
      "lonmin": 4.38481069960155, 
      "sanName": "berendrechtstraat", 
      "numOfAddr": 87, 
      "lonmax": 4.387262908333121, 
      "latmin": 51.186066503400944
    }, 
    {
      "latmax": 51.192271605451076, 
      "name": "Beschavingstraat", 
      "lonmin": 4.395103865348129, 
      "sanName": "beschavingstraat", 
      "numOfAddr": 28, 
      "lonmax": 4.396514507086664, 
      "latmin": 51.19048828159294
    }, 
    {
      "latmax": 51.18613117613833, 
      "name": "Beukenlaan", 
      "lonmin": 4.404325050046121, 
      "sanName": "beukenlaan", 
      "numOfAddr": 27, 
      "lonmax": 4.411407448823478, 
      "latmin": 51.17616961520028
    }, 
    {
      "latmax": 51.19089631665685, 
      "name": "Boomsesteenweg_AN", 
      "lonmin": 4.376010091533907, 
      "sanName": "boomsesteenwegan", 
      "numOfAddr": 115, 
      "lonmax": 4.389676881029096, 
      "latmin": 51.147186671665835
    }, 
    {
      "latmax": 51.19189847111612, 
      "name": "Camille Huysmanslaan", 
      "lonmin": 4.389422540783483, 
      "sanName": "camillehuysmanslaan", 
      "numOfAddr": 86, 
      "lonmax": 4.397535852252642, 
      "latmin": 51.19042353240547
    }, 
    {
      "latmax": 51.190335677031776, 
      "name": "Constant Permekestraat", 
      "lonmin": 4.381666484829301, 
      "sanName": "constantpermekestraat", 
      "numOfAddr": 10, 
      "lonmax": 4.382879392665534, 
      "latmin": 51.18973658282
    }, 
    {
      "latmax": 51.18275318442401, 
      "name": "Cyriel Buyssestraat", 
      "lonmin": 4.385615747003876, 
      "sanName": "cyrielbuyssestraat", 
      "numOfAddr": 109, 
      "lonmax": 4.3895607226810665, 
      "latmin": 51.18008370220687
    }, 
    {
      "latmax": 51.1893462880053, 
      "name": "De Bosschaertstraat", 
      "lonmin": 4.377894833068923, 
      "sanName": "debosschaertstraat", 
      "numOfAddr": 288, 
      "lonmax": 4.3887841228763245, 
      "latmin": 51.1841444017432
    }, 
    {
      "latmax": 51.18358486106085, 
      "name": "Della Faillelaan", 
      "lonmin": 4.3978245889920675, 
      "sanName": "dellafaillelaan", 
      "numOfAddr": 60, 
      "lonmax": 4.408774055676716, 
      "latmin": 51.178119810878435
    }, 
    {
      "latmax": 51.18112258479477, 
      "name": "Dennenlaan_ANWI", 
      "lonmin": 4.406236288767001, 
      "sanName": "dennenlaananwi", 
      "numOfAddr": 20, 
      "lonmax": 4.408353576957997, 
      "latmin": 51.176931935949874
    }, 
    {
      "latmax": 51.19321346236282, 
      "name": "Desguinlei", 
      "lonmin": 4.4035726734320875, 
      "sanName": "desguinlei", 
      "numOfAddr": 2, 
      "lonmax": 4.406482827401394, 
      "latmin": 51.19233033208275
    }, 
    {
      "latmax": 51.198933208444416, 
      "name": "D'Herbouvillekaai", 
      "lonmin": 4.355214551584657, 
      "sanName": "dherbouvillekaai", 
      "numOfAddr": 5, 
      "lonmax": 4.361325378847384, 
      "latmin": 51.19613347486165
    }, 
    {
      "latmax": 51.18977237688501, 
      "name": "Edgard Casteleinstraat", 
      "lonmin": 4.389978791088755, 
      "sanName": "edgardcasteleinstraat", 
      "numOfAddr": 39, 
      "lonmax": 4.390940512969868, 
      "latmin": 51.188223429200065
    }, 
    {
      "latmax": 51.18110775285178, 
      "name": "Edward Keurvelsstraat", 
      "lonmin": 4.3866123779646, 
      "sanName": "edwardkeurvelsstraat", 
      "numOfAddr": 29, 
      "lonmax": 4.38830078048292, 
      "latmin": 51.17998455415628
    }, 
    {
      "latmax": 51.1859737035405, 
      "name": "Eglantierlaan", 
      "lonmin": 4.396279510661016, 
      "sanName": "eglantierlaan", 
      "numOfAddr": 25, 
      "lonmax": 4.404082485121664, 
      "latmin": 51.183146823264714
    }, 
    {
      "latmax": 51.193761567125684, 
      "name": "Emiel Vloorsstraat", 
      "lonmin": 4.369606303850357, 
      "sanName": "emielvloorsstraat", 
      "numOfAddr": 28, 
      "lonmax": 4.379822287948875, 
      "latmin": 51.19027721508711
    }, 
    {
      "latmax": 51.194458582338974, 
      "name": "Eric Sasselaan", 
      "lonmin": 4.392436761059024, 
      "sanName": "ericsasselaan", 
      "numOfAddr": 39, 
      "lonmax": 4.396560700740961, 
      "latmin": 51.1918987393778
    }, 
    {
      "latmax": 51.191800142342885, 
      "name": "Eugeen Laermansstraat", 
      "lonmin": 4.376915502878062, 
      "sanName": "eugeenlaermansstraat", 
      "numOfAddr": 21, 
      "lonmax": 4.377661814798069, 
      "latmin": 51.19120133659111
    }, 
    {
      "latmax": 51.19297290070213, 
      "name": "Evert Larockstraat", 
      "lonmin": 4.374617449419973, 
      "sanName": "evertlarockstraat", 
      "numOfAddr": 6, 
      "lonmax": 4.3756363872018955, 
      "latmin": 51.19270813584579
    }, 
    {
      "latmax": 51.18709895797331, 
      "name": "Florali\u0089nlaan", 
      "lonmin": 4.412621660234424, 
      "sanName": "floralinlaan", 
      "numOfAddr": 2, 
      "lonmax": 4.416676497391949, 
      "latmin": 51.18564217148213
    }, 
    {
      "latmax": 51.19436586379429, 
      "name": "Floris Primsstraat", 
      "lonmin": 4.390960074582898, 
      "sanName": "florisprimsstraat", 
      "numOfAddr": 10, 
      "lonmax": 4.392229574183549, 
      "latmin": 51.19421038498464
    }, 
    {
      "latmax": 51.19234583969857, 
      "name": "Frans Hensstraat", 
      "lonmin": 4.374115147827669, 
      "sanName": "franshensstraat", 
      "numOfAddr": 21, 
      "lonmax": 4.376006486346094, 
      "latmin": 51.1906929585042
    }, 
    {
      "latmax": 51.18938686779612, 
      "name": "Gabri\u0089llastraat", 
      "lonmin": 4.378581864701337, 
      "sanName": "gabrillastraat", 
      "numOfAddr": 21, 
      "lonmax": 4.379158184355196, 
      "latmin": 51.18899919600235
    }, 
    {
      "latmax": 51.19515601538683, 
      "name": "Generaal Armstrongweg", 
      "lonmin": 4.381719390122801, 
      "sanName": "generaalarmstrongweg", 
      "numOfAddr": 1, 
      "lonmax": 4.381719390122801, 
      "latmin": 51.19515601538683
    }, 
    {
      "latmax": 51.19237435748933, 
      "name": "Generaal Cabrastraat", 
      "lonmin": 4.392727469707591, 
      "sanName": "generaalcabrastraat", 
      "numOfAddr": 20, 
      "lonmax": 4.393652992249042, 
      "latmin": 51.191438849983285
    }, 
    {
      "latmax": 51.190172223679554, 
      "name": "Gerard Le Grellelaan", 
      "lonmin": 4.404111616558321, 
      "sanName": "gerardlegrellelaan", 
      "numOfAddr": 4, 
      "lonmax": 4.407782662126955, 
      "latmin": 51.187606268295035
    }, 
    {
      "latmax": 51.178211628395765, 
      "name": "Groenenborgerlaan", 
      "lonmin": 4.412525060892815, 
      "sanName": "groenenborgerlaan", 
      "numOfAddr": 13, 
      "lonmax": 4.41975589560336, 
      "latmin": 51.17595934914357
    }, 
    {
      "latmax": 51.182414750575084, 
      "name": "Hagedoornlaan", 
      "lonmin": 4.397204276125106, 
      "sanName": "hagedoornlaan", 
      "numOfAddr": 6, 
      "lonmax": 4.3991626039461345, 
      "latmin": 51.18137038643404
    }, 
    {
      "latmax": 51.18566383950286, 
      "name": "Hazelarenstraat", 
      "lonmin": 4.392650827129958, 
      "sanName": "hazelarenstraat", 
      "numOfAddr": 24, 
      "lonmax": 4.394315675799929, 
      "latmin": 51.18511874787221
    }, 
    {
      "latmax": 51.18919090702681, 
      "name": "Hendriklei", 
      "lonmin": 4.371558688017449, 
      "sanName": "hendriklei", 
      "numOfAddr": 23, 
      "lonmax": 4.374898654416762, 
      "latmin": 51.18685357890445
    }, 
    {
      "latmax": 51.19202426657418, 
      "name": "Henri Evenepoelstraat", 
      "lonmin": 4.376371552901944, 
      "sanName": "henrievenepoelstraat", 
      "numOfAddr": 20, 
      "lonmax": 4.377113281316211, 
      "latmin": 51.19149206434784
    }, 
    {
      "latmax": 51.18401481193366, 
      "name": "Hockeystraat", 
      "lonmin": 4.3827819623747, 
      "sanName": "hockeystraat", 
      "numOfAddr": 44, 
      "lonmax": 4.384620072429679, 
      "latmin": 51.183406653658544
    }, 
    {
      "latmax": 51.18283674969856, 
      "name": "Hof Van Tichelen", 
      "lonmin": 4.3836617520588375, 
      "sanName": "hofvantichelen", 
      "numOfAddr": 70, 
      "lonmax": 4.3870111737176485, 
      "latmin": 51.18051356316539
    }, 
    {
      "latmax": 51.18522525285017, 
      "name": "Hortensiastraat", 
      "lonmin": 4.392696617614377, 
      "sanName": "hortensiastraat", 
      "numOfAddr": 18, 
      "lonmax": 4.393658277524542, 
      "latmin": 51.18457702545959
    }, 
    {
      "latmax": 51.1884688124128, 
      "name": "Jaak Gorusstraat", 
      "lonmin": 4.3770892170160165, 
      "sanName": "jaakgorusstraat", 
      "numOfAddr": 25, 
      "lonmax": 4.377919730261584, 
      "latmin": 51.18790380625466
    }, 
    {
      "latmax": 51.19093562340478, 
      "name": "Jacob le Mairestraat", 
      "lonmin": 4.38026710797189, 
      "sanName": "jacoblemairestraat", 
      "numOfAddr": 3, 
      "lonmax": 4.380384836045224, 
      "latmin": 51.1907832770283
    }, 
    {
      "latmax": 51.19225764810595, 
      "name": "James Ensorstraat", 
      "lonmin": 4.3758061426821, 
      "sanName": "jamesensorstraat", 
      "numOfAddr": 20, 
      "lonmax": 4.376551018505818, 
      "latmin": 51.19172508592927
    }, 
    {
      "latmax": 51.192473388212626, 
      "name": "Jan Baptist Verlooystraat", 
      "lonmin": 4.396790740954318, 
      "sanName": "janbaptistverlooystraat", 
      "numOfAddr": 4, 
      "lonmax": 4.39688342234804, 
      "latmin": 51.19198062501022
    }, 
    {
      "latmax": 51.18891999695393, 
      "name": "Jan Davidlei", 
      "lonmin": 4.373360075361287, 
      "sanName": "jandavidlei", 
      "numOfAddr": 64, 
      "lonmax": 4.37603771301752, 
      "latmin": 51.18765640494274
    }, 
    {
      "latmax": 51.195497605733095, 
      "name": "Jan Denuc\u0082straat", 
      "lonmin": 4.3888617153902105, 
      "sanName": "jandenucstraat", 
      "numOfAddr": 8, 
      "lonmax": 4.391192470373212, 
      "latmin": 51.1949305604466
    }, 
    {
      "latmax": 51.192651605975676, 
      "name": "Jan De Voslei", 
      "lonmin": 4.3871216366399315, 
      "sanName": "jandevoslei", 
      "numOfAddr": 39, 
      "lonmax": 4.390991177959473, 
      "latmin": 51.185343189972315
    }, 
    {
      "latmax": 51.19035246137458, 
      "name": "Jan Frans Van de Gaerstraat", 
      "lonmin": 4.383734762156765, 
      "sanName": "janfransvandegaerstraat", 
      "numOfAddr": 25, 
      "lonmax": 4.3846673068417505, 
      "latmin": 51.189040241731384
    }, 
    {
      "latmax": 51.18768339361294, 
      "name": "Jan Ligthartplein", 
      "lonmin": 4.388277744345614, 
      "sanName": "janligthartplein", 
      "numOfAddr": 5, 
      "lonmax": 4.388596225563572, 
      "latmin": 51.187228525757874
    }, 
    {
      "latmax": 51.19233784230377, 
      "name": "Jan Van Rijswijcklaan", 
      "lonmin": 4.389972563754355, 
      "sanName": "janvanrijswijcklaan", 
      "numOfAddr": 83, 
      "lonmax": 4.399436397193896, 
      "latmin": 51.184126788158814
    }, 
    {
      "latmax": 51.18684901478121, 
      "name": "Jasmijnstraat", 
      "lonmin": 4.393684249067486, 
      "sanName": "jasmijnstraat", 
      "numOfAddr": 5, 
      "lonmax": 4.394121664504254, 
      "latmin": 51.18631697539402
    }, 
    {
      "latmax": 51.186966799788586, 
      "name": "Jef Lambeauxstraat", 
      "lonmin": 4.376630091428043, 
      "sanName": "jeflambeauxstraat", 
      "numOfAddr": 60, 
      "lonmax": 4.378271409189205, 
      "latmin": 51.1855707830656
    }, 
    {
      "latmax": 51.19285368213591, 
      "name": "Jules De Bruyckerstraat", 
      "lonmin": 4.376923203814597, 
      "sanName": "julesdebruyckerstraat", 
      "numOfAddr": 23, 
      "lonmax": 4.377568928534466, 
      "latmin": 51.19214689897172
    }, 
    {
      "latmax": 51.18646973486063, 
      "name": "Julius De Geyterstraat", 
      "lonmin": 4.375476571023611, 
      "sanName": "juliusdegeyterstraat", 
      "numOfAddr": 104, 
      "lonmax": 4.385567929232254, 
      "latmin": 51.18018902281242
    }, 
    {
      "latmax": 51.18472632370353, 
      "name": "Kampioenstraat", 
      "lonmin": 4.3856996175383225, 
      "sanName": "kampioenstraat", 
      "numOfAddr": 44, 
      "lonmax": 4.387271569536962, 
      "latmin": 51.183442038806284
    }, 
    {
      "latmax": 51.18914176100253, 
      "name": "Kanunnikenstraat", 
      "lonmin": 4.382431850696761, 
      "sanName": "kanunnikenstraat", 
      "numOfAddr": 18, 
      "lonmax": 4.383224332994674, 
      "latmin": 51.188575066667966
    }, 
    {
      "latmax": 51.19003267035077, 
      "name": "Karel Mertensstraat", 
      "lonmin": 4.3828142915141886, 
      "sanName": "karelmertensstraat", 
      "numOfAddr": 18, 
      "lonmax": 4.38384035325773, 
      "latmin": 51.18938132664104
    }, 
    {
      "latmax": 51.180061011279996, 
      "name": "Karel Mestdaghplein", 
      "lonmin": 4.386133326456922, 
      "sanName": "karelmestdaghplein", 
      "numOfAddr": 6, 
      "lonmax": 4.386585887750381, 
      "latmin": 51.17989925717809
    }, 
    {
      "latmax": 51.1908266237338, 
      "name": "Karel Mirystraat", 
      "lonmin": 4.371595713170325, 
      "sanName": "karelmirystraat", 
      "numOfAddr": 6, 
      "lonmax": 4.372101649859954, 
      "latmin": 51.190796438629874
    }, 
    {
      "latmax": 51.192226655023596, 
      "name": "Karel Weylerstraat", 
      "lonmin": 4.390405636064237, 
      "sanName": "karelweylerstraat", 
      "numOfAddr": 5, 
      "lonmax": 4.390697619257554, 
      "latmin": 51.191936973713695
    }, 
    {
      "latmax": 51.18112224628437, 
      "name": "Kastanjelaan", 
      "lonmin": 4.398045714626843, 
      "sanName": "kastanjelaan", 
      "numOfAddr": 7, 
      "lonmax": 4.400418050234769, 
      "latmin": 51.18041315330275
    }, 
    {
      "latmax": 51.19279245727913, 
      "name": "Kielpark", 
      "lonmin": 4.385329475086163, 
      "sanName": "kielpark", 
      "numOfAddr": 9, 
      "lonmax": 4.385458957026782, 
      "latmin": 51.19088753016907
    }, 
    {
      "latmax": 51.19984852437382, 
      "name": "Kielsbroek", 
      "lonmin": 4.369366434923605, 
      "sanName": "kielsbroek", 
      "numOfAddr": 12, 
      "lonmax": 4.376054864801077, 
      "latmin": 51.19276027093241
    }, 
    {
      "latmax": 51.198416206414876, 
      "name": "Kielsevest", 
      "lonmin": 4.3915499736114105, 
      "sanName": "kielsevest", 
      "numOfAddr": 5, 
      "lonmax": 4.392355657287657, 
      "latmin": 51.19804212334271
    }, 
    {
      "latmax": 51.18757580309741, 
      "name": "Kruishofstraat", 
      "lonmin": 4.391627109409116, 
      "sanName": "kruishofstraat", 
      "numOfAddr": 35, 
      "lonmax": 4.397165092299824, 
      "latmin": 51.182039785248506
    }, 
    {
      "latmax": 51.196614937674404, 
      "name": "Lakweg", 
      "lonmin": 4.355212491561845, 
      "sanName": "lakweg", 
      "numOfAddr": 4, 
      "lonmax": 4.358529069932489, 
      "latmin": 51.1923982154155
    }, 
    {
      "latmax": 51.18904289386062, 
      "name": "Landbouwstraat", 
      "lonmin": 4.384027908597222, 
      "sanName": "landbouwstraat", 
      "numOfAddr": 106, 
      "lonmax": 4.386926819171242, 
      "latmin": 51.18636774507592
    }, 
    {
      "latmax": 51.18967243018096, 
      "name": "Limburgstraat", 
      "lonmin": 4.382153698433393, 
      "sanName": "limburgstraat", 
      "numOfAddr": 124, 
      "lonmax": 4.386749091187561, 
      "latmin": 51.18766920623123
    }, 
    {
      "latmax": 51.18332407471324, 
      "name": "Lindendreef", 
      "lonmin": 4.421614108106729, 
      "sanName": "lindendreef", 
      "numOfAddr": 1, 
      "lonmax": 4.421614108106729, 
      "latmin": 51.18332407471324
    }, 
    {
      "latmax": 51.192004412994045, 
      "name": "Lodewijk De Raetstraat", 
      "lonmin": 4.369745462737571, 
      "sanName": "lodewijkderaetstraat", 
      "numOfAddr": 49, 
      "lonmax": 4.371669983906528, 
      "latmin": 51.189913700525764
    }, 
    {
      "latmax": 51.18159542791016, 
      "name": "Lodewijk Ontropstraat", 
      "lonmin": 4.388165326843651, 
      "sanName": "lodewijkontropstraat", 
      "numOfAddr": 14, 
      "lonmax": 4.389122069782127, 
      "latmin": 51.18118952728111
    }, 
    {
      "latmax": 51.187785628133966, 
      "name": "Louis Straussstraat", 
      "lonmin": 4.390654496963457, 
      "sanName": "louisstraussstraat", 
      "numOfAddr": 4, 
      "lonmax": 4.392168948033187, 
      "latmin": 51.18711931297037
    }, 
    {
      "latmax": 51.18889896971484, 
      "name": "Luxemburgstraat", 
      "lonmin": 4.3829265706491745, 
      "sanName": "luxemburgstraat", 
      "numOfAddr": 51, 
      "lonmax": 4.38449735778832, 
      "latmin": 51.18800307836882
    }, 
    {
      "latmax": 51.18020215044963, 
      "name": "Magnoliadreef", 
      "lonmin": 4.408071528510012, 
      "sanName": "magnoliadreef", 
      "numOfAddr": 1, 
      "lonmax": 4.408071528510012, 
      "latmin": 51.18020215044963
    }, 
    {
      "latmax": 51.18630048354587, 
      "name": "Marathonstraat", 
      "lonmin": 4.382986956106145, 
      "sanName": "marathonstraat", 
      "numOfAddr": 33, 
      "lonmax": 4.3839794014735, 
      "latmin": 51.18556851491068
    }, 
    {
      "latmax": 51.19151699915931, 
      "name": "Maurits Sabbelaan", 
      "lonmin": 4.371994261418799, 
      "sanName": "mauritssabbelaan", 
      "numOfAddr": 54, 
      "lonmax": 4.373329208239063, 
      "latmin": 51.1880369198494
    }, 
    {
      "latmax": 51.19058692239333, 
      "name": "Max Elskampstraat", 
      "lonmin": 4.3733649024905885, 
      "sanName": "maxelskampstraat", 
      "numOfAddr": 35, 
      "lonmax": 4.374060690053434, 
      "latmin": 51.18890572628983
    }, 
    {
      "latmax": 51.18851100297967, 
      "name": "Max Roosesstraat", 
      "lonmin": 4.373898659924818, 
      "sanName": "maxroosesstraat", 
      "numOfAddr": 31, 
      "lonmax": 4.375313522106762, 
      "latmin": 51.187158633169545
    }, 
    {
      "latmax": 51.18445194273004, 
      "name": "Middelheimlaan", 
      "lonmin": 4.4095800384113915, 
      "sanName": "middelheimlaan", 
      "numOfAddr": 7, 
      "lonmax": 4.419899097904836, 
      "latmin": 51.18027129098173
    }, 
    {
      "latmax": 51.1939503096141, 
      "name": "Naftaweg", 
      "lonmin": 4.357067352855805, 
      "sanName": "naftaweg", 
      "numOfAddr": 1, 
      "lonmax": 4.357067352855805, 
      "latmin": 51.1939503096141
    }, 
    {
      "latmax": 51.179191961682605, 
      "name": "Olmenlaan", 
      "lonmin": 4.4006191609535374, 
      "sanName": "olmenlaan", 
      "numOfAddr": 5, 
      "lonmax": 4.402244785762321, 
      "latmin": 51.17821272875316
    }, 
    {
      "latmax": 51.19410910669193, 
      "name": "Onafhankelijkheidslaan", 
      "lonmin": 4.3910472567716985, 
      "sanName": "onafhankelijkheidslaan", 
      "numOfAddr": 20, 
      "lonmax": 4.392570181153427, 
      "latmin": 51.19347995451653
    }, 
    {
      "latmax": 51.17592176823821, 
      "name": "Oosterveldlaan", 
      "lonmin": 4.414241016693056, 
      "sanName": "oosterveldlaan", 
      "numOfAddr": 12, 
      "lonmax": 4.418432065016395, 
      "latmin": 51.1756797547816
    }, 
    {
      "latmax": 51.17882015213737, 
      "name": "Palmenlaan", 
      "lonmin": 4.40759205538433, 
      "sanName": "palmenlaan", 
      "numOfAddr": 11, 
      "lonmax": 4.4100052725619046, 
      "latmin": 51.17752383925208
    }, 
    {
      "latmax": 51.186623962812746, 
      "name": "Pestalozzistraat", 
      "lonmin": 4.391032356832387, 
      "sanName": "pestalozzistraat", 
      "numOfAddr": 3, 
      "lonmax": 4.391897744623759, 
      "latmin": 51.186190438806264
    }, 
    {
      "latmax": 51.19867536872347, 
      "name": "Petroleumkaai", 
      "lonmin": 4.349821716421577, 
      "sanName": "petroleumkaai", 
      "numOfAddr": 2, 
      "lonmax": 4.352983747806599, 
      "latmin": 51.19725582396697
    }, 
    {
      "latmax": 51.18963598337396, 
      "name": "Pierenbergstraat", 
      "lonmin": 4.379554883207871, 
      "sanName": "pierenbergstraat", 
      "numOfAddr": 69, 
      "lonmax": 4.3820964720175795, 
      "latmin": 51.187244256121296
    }, 
    {
      "latmax": 51.17615085358306, 
      "name": "Pieter Coeckelaan", 
      "lonmin": 4.416657902778962, 
      "sanName": "pietercoeckelaan", 
      "numOfAddr": 5, 
      "lonmax": 4.417312838564556, 
      "latmin": 51.175773341111835
    }, 
    {
      "latmax": 51.185721774366144, 
      "name": "Pieter G\u0082nardstraat", 
      "lonmin": 4.387255379541527, 
      "sanName": "pietergnardstraat", 
      "numOfAddr": 40, 
      "lonmax": 4.388272232024742, 
      "latmin": 51.18484603525874
    }, 
    {
      "latmax": 51.19300199859281, 
      "name": "Piet Verhaertstraat", 
      "lonmin": 4.37809856095144, 
      "sanName": "pietverhaertstraat", 
      "numOfAddr": 26, 
      "lonmax": 4.379010819661938, 
      "latmin": 51.191860122425915
    }, 
    {
      "latmax": 51.18878559972182, 
      "name": "Pol de Montstraat", 
      "lonmin": 4.390925586488581, 
      "sanName": "poldemontstraat", 
      "numOfAddr": 5, 
      "lonmax": 4.3914881975280275, 
      "latmin": 51.18866894934478
    }, 
    {
      "latmax": 51.18428734726212, 
      "name": "Populierenlaan", 
      "lonmin": 4.392156133204219, 
      "sanName": "populierenlaan", 
      "numOfAddr": 4, 
      "lonmax": 4.393375283452381, 
      "latmin": 51.18355348699958
    }, 
    {
      "latmax": 51.190225525057485, 
      "name": "Richard Baseleerstraat", 
      "lonmin": 4.380421300800844, 
      "sanName": "richardbaseleerstraat", 
      "numOfAddr": 21, 
      "lonmax": 4.381988139228355, 
      "latmin": 51.18972118611293
    }, 
    {
      "latmax": 51.19273320107422, 
      "name": "Rik Schaefelsstraat", 
      "lonmin": 4.376056274148652, 
      "sanName": "rikschaefelsstraat", 
      "numOfAddr": 12, 
      "lonmax": 4.37737647382454, 
      "latmin": 51.191847777456566
    }, 
    {
      "latmax": 51.19296157620318, 
      "name": "Rik Woutersstraat", 
      "lonmin": 4.377635455068087, 
      "sanName": "rikwoutersstraat", 
      "numOfAddr": 24, 
      "lonmax": 4.378199542772011, 
      "latmin": 51.192185614825945
    }, 
    {
      "latmax": 51.19092240755939, 
      "name": "Ryckmansstraat", 
      "lonmin": 4.393599518976882, 
      "sanName": "ryckmansstraat", 
      "numOfAddr": 28, 
      "lonmax": 4.394605578695221, 
      "latmin": 51.18959501811904
    }, 
    {
      "latmax": 51.19063419328251, 
      "name": "Scheibeekstraat", 
      "lonmin": 4.37075843658836, 
      "sanName": "scheibeekstraat", 
      "numOfAddr": 36, 
      "lonmax": 4.371825775575406, 
      "latmin": 51.18922578474439
    }, 
    {
      "latmax": 51.19079862169236, 
      "name": "Schijfstraat", 
      "lonmin": 4.373067583396662, 
      "sanName": "schijfstraat", 
      "numOfAddr": 93, 
      "lonmax": 4.377561305917547, 
      "latmin": 51.18952979718486
    }, 
    {
      "latmax": 51.18515157012923, 
      "name": "Schijfwerpersstraat", 
      "lonmin": 4.382946204992277, 
      "sanName": "schijfwerpersstraat", 
      "numOfAddr": 133, 
      "lonmax": 4.386605641129421, 
      "latmin": 51.181513626951684
    }, 
    {
      "latmax": 51.19048035472894, 
      "name": "Serigiersstraat", 
      "lonmin": 4.391886397640867, 
      "sanName": "serigiersstraat", 
      "numOfAddr": 23, 
      "lonmax": 4.393520161913128, 
      "latmin": 51.19006814703261
    }, 
    {
      "latmax": 51.184613259238, 
      "name": "Seringenlaan", 
      "lonmin": 4.39962716875157, 
      "sanName": "seringenlaan", 
      "numOfAddr": 5, 
      "lonmax": 4.4012925037558555, 
      "latmin": 51.183654800399964
    }, 
    {
      "latmax": 51.19375802400402, 
      "name": "Sint-Bernardsesteenweg", 
      "lonmin": 4.375008353945489, 
      "sanName": "sintbernardsesteenweg", 
      "numOfAddr": 120, 
      "lonmax": 4.381411900567317, 
      "latmin": 51.18650487428167
    }, 
    {
      "latmax": 51.19314251334586, 
      "name": "Sint-Catharinaplein", 
      "lonmin": 4.379992072472513, 
      "sanName": "sintcatharinaplein", 
      "numOfAddr": 1, 
      "lonmax": 4.379992072472513, 
      "latmin": 51.19314251334586
    }, 
    {
      "latmax": 51.18003003578853, 
      "name": "Sorbenlaan", 
      "lonmin": 4.398701245639146, 
      "sanName": "sorbenlaan", 
      "numOfAddr": 16, 
      "lonmax": 4.404903014829545, 
      "latmin": 51.177086586832836
    }, 
    {
      "latmax": 51.18501064206479, 
      "name": "Sparrenstraat", 
      "lonmin": 4.392361183565448, 
      "sanName": "sparrenstraat", 
      "numOfAddr": 11, 
      "lonmax": 4.39431586378035, 
      "latmin": 51.1843486694207
    }, 
    {
      "latmax": 51.18546798612965, 
      "name": "Speerstraat", 
      "lonmin": 4.38387145598242, 
      "sanName": "speerstraat", 
      "numOfAddr": 51, 
      "lonmax": 4.3858335929838335, 
      "latmin": 51.183883570372366
    }, 
    {
      "latmax": 51.18584978189259, 
      "name": "Stadionstraat", 
      "lonmin": 4.382460254310417, 
      "sanName": "stadionstraat", 
      "numOfAddr": 61, 
      "lonmax": 4.385661621165215, 
      "latmin": 51.18421913890236
    }, 
    {
      "latmax": 51.182592453804766, 
      "name": "Stijgbeugelstraat", 
      "lonmin": 4.381986932009812, 
      "sanName": "stijgbeugelstraat", 
      "numOfAddr": 37, 
      "lonmax": 4.383556220069405, 
      "latmin": 51.18210070277483
    }, 
    {
      "latmax": 51.19125956689822, 
      "name": "Sus Van den Eyndestraat", 
      "lonmin": 4.374785438949937, 
      "sanName": "susvandeneyndestraat", 
      "numOfAddr": 18, 
      "lonmax": 4.3761257943164935, 
      "latmin": 51.19073895951813
    }, 
    {
      "latmax": 51.19299979879124, 
      "name": "Tentoonstellingslaan", 
      "lonmin": 4.3889538850276795, 
      "sanName": "tentoonstellingslaan", 
      "numOfAddr": 65, 
      "lonmax": 4.393072129813067, 
      "latmin": 51.19087210009699
    }, 
    {
      "latmax": 51.190569079970125, 
      "name": "Tirstraat", 
      "lonmin": 4.375877836040482, 
      "sanName": "tirstraat", 
      "numOfAddr": 3, 
      "lonmax": 4.376082566940894, 
      "latmin": 51.19026653266383
    }, 
    {
      "latmax": 51.186707140641694, 
      "name": "Turnersstraat", 
      "lonmin": 4.3816226401014085, 
      "sanName": "turnersstraat", 
      "numOfAddr": 39, 
      "lonmax": 4.383145872238201, 
      "latmin": 51.18587577355687
    }, 
    {
      "latmax": 51.19190255779147, 
      "name": "Valerius De Saedeleerstraat", 
      "lonmin": 4.375543234878392, 
      "sanName": "valeriusdesaedeleerstraat", 
      "numOfAddr": 7, 
      "lonmax": 4.376865715178613, 
      "latmin": 51.19123477792806
    }, 
    {
      "latmax": 51.18700542134503, 
      "name": "Van Halmalestraat", 
      "lonmin": 4.375811731165605, 
      "sanName": "vanhalmalestraat", 
      "numOfAddr": 44, 
      "lonmax": 4.3771909961483875, 
      "latmin": 51.18612871375595
    }, 
    {
      "latmax": 51.19006342222482, 
      "name": "Van Peenestraat", 
      "lonmin": 4.373087271569811, 
      "sanName": "vanpeenestraat", 
      "numOfAddr": 46, 
      "lonmax": 4.375835019009651, 
      "latmin": 51.18823230179243
    }, 
    {
      "latmax": 51.19149904884917, 
      "name": "Van Varickstraat", 
      "lonmin": 4.392416991439173, 
      "sanName": "vanvarickstraat", 
      "numOfAddr": 4, 
      "lonmax": 4.392834822898112, 
      "latmin": 51.19126000965746
    }, 
    {
      "latmax": 51.18360376311385, 
      "name": "Varenlaan", 
      "lonmin": 4.396252113584703, 
      "sanName": "varenlaan", 
      "numOfAddr": 2, 
      "lonmax": 4.396327626915025, 
      "latmin": 51.18360311587362
    }, 
    {
      "latmax": 51.18495488719025, 
      "name": "VIIde-Olympiadelaan", 
      "lonmin": 4.380972395085055, 
      "sanName": "viideolympiadelaan", 
      "numOfAddr": 117, 
      "lonmax": 4.389654580461659, 
      "latmin": 51.18262565673738
    }, 
    {
      "latmax": 51.18218499280948, 
      "name": "Vijfkampstraat", 
      "lonmin": 4.384850757894511, 
      "sanName": "vijfkampstraat", 
      "numOfAddr": 31, 
      "lonmax": 4.386211558620342, 
      "latmin": 51.181246223146864
    }, 
    {
      "latmax": 51.17880339267797, 
      "name": "Vijverlaan", 
      "lonmin": 4.402777183455606, 
      "sanName": "vijverlaan", 
      "numOfAddr": 5, 
      "lonmax": 4.403911874297052, 
      "latmin": 51.17780741299851
    }, 
    {
      "latmax": 51.190371082923164, 
      "name": "Vlaamsekunstlaan", 
      "lonmin": 4.389268477519382, 
      "sanName": "vlaamsekunstlaan", 
      "numOfAddr": 66, 
      "lonmax": 4.394587697427178, 
      "latmin": 51.189075287029716
    }, 
    {
      "latmax": 51.187777515630216, 
      "name": "Vogelzanglaan", 
      "lonmin": 4.397965574644851, 
      "sanName": "vogelzanglaan", 
      "numOfAddr": 2, 
      "lonmax": 4.4105206722755, 
      "latmin": 51.185533914606545
    }, 
    {
      "latmax": 51.194143649031204, 
      "name": "Volhardingstraat", 
      "lonmin": 4.389994993422495, 
      "sanName": "volhardingstraat", 
      "numOfAddr": 101, 
      "lonmax": 4.392662733343066, 
      "latmin": 51.18758332881485
    }, 
    {
      "latmax": 51.17686056031425, 
      "name": "Vuurkruisenplein", 
      "lonmin": 4.417188765647876, 
      "sanName": "vuurkruisenplein", 
      "numOfAddr": 17, 
      "lonmax": 4.418938872728677, 
      "latmin": 51.17594639640589
    }, 
    {
      "latmax": 51.18783976349661, 
      "name": "Waarlooshofstraat", 
      "lonmin": 4.376549204970179, 
      "sanName": "waarlooshofstraat", 
      "numOfAddr": 34, 
      "lonmax": 4.379307100208256, 
      "latmin": 51.185772733095405
    }, 
    {
      "latmax": 51.191755511485596, 
      "name": "Waelrantstraat", 
      "lonmin": 4.391368388058256, 
      "sanName": "waelrantstraat", 
      "numOfAddr": 2, 
      "lonmax": 4.391615695909175, 
      "latmin": 51.19172741835921
    }, 
    {
      "latmax": 51.18742471556652, 
      "name": "Werbrouckstraat", 
      "lonmin": 4.376169520852797, 
      "sanName": "werbrouckstraat", 
      "numOfAddr": 49, 
      "lonmax": 4.377727446600744, 
      "latmin": 51.18661070597679
    }, 
    {
      "latmax": 51.19362505552648, 
      "name": "Willem Eekelersstraat", 
      "lonmin": 4.389248032208765, 
      "sanName": "willemeekelersstraat", 
      "numOfAddr": 37, 
      "lonmax": 4.392691688711952, 
      "latmin": 51.191703597724796
    }, 
    {
      "latmax": 51.18994882330849, 
      "name": "Wittestraat", 
      "lonmin": 4.38314868815143, 
      "sanName": "wittestraat", 
      "numOfAddr": 112, 
      "lonmax": 4.386679693674055, 
      "latmin": 51.18681987562746
    }, 
    {
      "latmax": 51.191672290940026, 
      "name": "Zaanstraat", 
      "lonmin": 4.377764514810767, 
      "sanName": "zaanstraat", 
      "numOfAddr": 21, 
      "lonmax": 4.378803039611801, 
      "latmin": 51.19106328892121
    }, 
    {
      "latmax": 51.185688507546296, 
      "name": "Zamenhofstraat", 
      "lonmin": 4.389118664945875, 
      "sanName": "zamenhofstraat", 
      "numOfAddr": 4, 
      "lonmax": 4.3896719438852125, 
      "latmin": 51.18555773476779
    }, 
    {
      "latmax": 51.18733182382037, 
      "name": "Zandvlietstraat", 
      "lonmin": 4.385819158202421, 
      "sanName": "zandvlietstraat", 
      "numOfAddr": 68, 
      "lonmax": 4.3877741730783075, 
      "latmin": 51.185582328579756
    }
  ]
}