{
  "streets": [
    {
      "latmax": 51.205825325461525, 
      "name": "Adolf Mortelmansstraat", 
      "lonmin": 4.517084286004704, 
      "sanName": "adolfmortelmansstraat", 
      "numOfAddr": 61, 
      "lonmax": 4.5231558623615955, 
      "latmin": 51.204725101590704
    }, 
    {
      "latmax": 51.20162078719699, 
      "name": "Aesakstraat", 
      "lonmin": 4.489181987924919, 
      "sanName": "aesakstraat", 
      "numOfAddr": 7, 
      "lonmax": 4.490257145687086, 
      "latmin": 51.2012456276517
    }, 
    {
      "latmax": 51.20313456535122, 
      "name": "Antverpiastraat", 
      "lonmin": 4.486966014088822, 
      "sanName": "antverpiastraat", 
      "numOfAddr": 21, 
      "lonmax": 4.487988819317484, 
      "latmin": 51.20247137765672
    }, 
    {
      "latmax": 51.215500852106835, 
      "name": "Autolei", 
      "lonmin": 4.485427159865503, 
      "sanName": "autolei", 
      "numOfAddr": 219, 
      "lonmax": 4.495410952137022, 
      "latmin": 51.20243634153674
    }, 
    {
      "latmax": 51.19752169946955, 
      "name": "Beeldekensweg", 
      "lonmin": 4.523001702360919, 
      "sanName": "beeldekensweg", 
      "numOfAddr": 33, 
      "lonmax": 4.524468665352126, 
      "latmin": 51.1949772116255
    }, 
    {
      "latmax": 51.21754635293963, 
      "name": "Beemdkant", 
      "lonmin": 4.5179196553445164, 
      "sanName": "beemdkant", 
      "numOfAddr": 5, 
      "lonmax": 4.521809499018956, 
      "latmin": 51.215669648934515
    }, 
    {
      "latmax": 51.20797928267045, 
      "name": "Begoniastraat", 
      "lonmin": 4.49301178056675, 
      "sanName": "begoniastraat", 
      "numOfAddr": 9, 
      "lonmax": 4.493891202696699, 
      "latmin": 51.20755948060412
    }, 
    {
      "latmax": 51.205733598714914, 
      "name": "Beukenlaan", 
      "lonmin": 4.5257156096822975, 
      "sanName": "beukenlaan", 
      "numOfAddr": 27, 
      "lonmax": 4.528025791643171, 
      "latmin": 51.2042630808922
    }, 
    {
      "latmax": 51.20243021001143, 
      "name": "Brieleke", 
      "lonmin": 4.512701221505317, 
      "sanName": "brieleke", 
      "numOfAddr": 8, 
      "lonmax": 4.516431718255557, 
      "latmin": 51.20103110178624
    }, 
    {
      "latmax": 51.19751381774322, 
      "name": "Corluystraat", 
      "lonmin": 4.5211584370532, 
      "sanName": "corluystraat", 
      "numOfAddr": 35, 
      "lonmax": 4.522564345235047, 
      "latmin": 51.194941900176936
    }, 
    {
      "latmax": 51.216199163136686, 
      "name": "Cruyenveldebaan", 
      "lonmin": 4.549520572335438, 
      "sanName": "cruyenveldebaan", 
      "numOfAddr": 3, 
      "lonmax": 4.5517068454582565, 
      "latmin": 51.210491094031994
    }, 
    {
      "latmax": 51.20750743502447, 
      "name": "Dahliastraat", 
      "lonmin": 4.49041049295561, 
      "sanName": "dahliastraat", 
      "numOfAddr": 32, 
      "lonmax": 4.493786083369949, 
      "latmin": 51.20672243652273
    }, 
    {
      "latmax": 51.20543256723945, 
      "name": "Dasstraat", 
      "lonmin": 4.516599242181607, 
      "sanName": "dasstraat", 
      "numOfAddr": 96, 
      "lonmax": 4.522286673035568, 
      "latmin": 51.203679012016536
    }, 
    {
      "latmax": 51.20505366338287, 
      "name": "De Biekens", 
      "lonmin": 4.528252622884694, 
      "sanName": "debiekens", 
      "numOfAddr": 12, 
      "lonmax": 4.529239364108892, 
      "latmin": 51.20443813940437
    }, 
    {
      "latmax": 51.22068576280633, 
      "name": "De Hoge Keer", 
      "lonmin": 4.550575576190418, 
      "sanName": "dehogekeer", 
      "numOfAddr": 8, 
      "lonmax": 4.555512869473366, 
      "latmin": 51.21801014525391
    }, 
    {
      "latmax": 51.21578607062552, 
      "name": "De Keer", 
      "lonmin": 4.540148861870207, 
      "sanName": "dekeer", 
      "numOfAddr": 20, 
      "lonmax": 4.5462004989776, 
      "latmin": 51.21142406935817
    }, 
    {
      "latmax": 51.20928388335258, 
      "name": "Deniesstraat", 
      "lonmin": 4.5012135851732085, 
      "sanName": "deniesstraat", 
      "numOfAddr": 13, 
      "lonmax": 4.502303505540786, 
      "latmin": 51.207969543254436
    }, 
    {
      "latmax": 51.20431562795138, 
      "name": "Dennenlaan", 
      "lonmin": 4.529375541590291, 
      "sanName": "dennenlaan", 
      "numOfAddr": 10, 
      "lonmax": 4.530964928440544, 
      "latmin": 51.203924582655276
    }, 
    {
      "latmax": 51.19875377316185, 
      "name": "De Notelaar", 
      "lonmin": 2.306689562140502, 
      "sanName": "denotelaar", 
      "numOfAddr": 24, 
      "lonmax": 4.5198024404496, 
      "latmin": 49.293335165093566
    }, 
    {
      "latmax": 51.19757260180121, 
      "name": "De Reet", 
      "lonmin": 4.536689959950591, 
      "sanName": "dereet", 
      "numOfAddr": 4, 
      "lonmax": 4.537282245895426, 
      "latmin": 51.19711126094924
    }, 
    {
      "latmax": 51.20328255728615, 
      "name": "Diepenbeekstraat", 
      "lonmin": 4.534943163801533, 
      "sanName": "diepenbeekstraat", 
      "numOfAddr": 3, 
      "lonmax": 4.535447795289638, 
      "latmin": 51.20322855618556
    }, 
    {
      "latmax": 51.216414667019855, 
      "name": "Doornaardstraat", 
      "lonmin": 4.511251433882759, 
      "sanName": "doornaardstraat", 
      "numOfAddr": 69, 
      "lonmax": 4.514774865864068, 
      "latmin": 51.20725222326714
    }, 
    {
      "latmax": 51.214717732345626, 
      "name": "Draaiboomstraat", 
      "lonmin": 4.495641352562267, 
      "sanName": "draaiboomstraat", 
      "numOfAddr": 31, 
      "lonmax": 4.497143410094788, 
      "latmin": 51.21281444889476
    }, 
    {
      "latmax": 51.19451055189177, 
      "name": "Driemastenbaan", 
      "lonmin": 4.52783404392389, 
      "sanName": "driemastenbaan", 
      "numOfAddr": 43, 
      "lonmax": 4.532967420188868, 
      "latmin": 51.19341217144674
    }, 
    {
      "latmax": 51.20452422572259, 
      "name": "Echelveldstraat", 
      "lonmin": 4.517940150762241, 
      "sanName": "echelveldstraat", 
      "numOfAddr": 12, 
      "lonmax": 4.518802100982746, 
      "latmin": 51.203532703028685
    }, 
    {
      "latmax": 51.21925056486687, 
      "name": "Eenhoornstraat", 
      "lonmin": 4.545058666924512, 
      "sanName": "eenhoornstraat", 
      "numOfAddr": 14, 
      "lonmax": 4.545964262176487, 
      "latmin": 51.218006218394656
    }, 
    {
      "latmax": 51.20389126935062, 
      "name": "Eikenlaan", 
      "lonmin": 4.528070579279544, 
      "sanName": "eikenlaan", 
      "numOfAddr": 52, 
      "lonmax": 4.53034832929773, 
      "latmin": 51.1997986634633
    }, 
    {
      "latmax": 51.20816660948361, 
      "name": "Eksterveldstraat", 
      "lonmin": 4.533099349716173, 
      "sanName": "eksterveldstraat", 
      "numOfAddr": 4, 
      "lonmax": 4.534069356300946, 
      "latmin": 51.20757404267635
    }, 
    {
      "latmax": 51.21406366854119, 
      "name": "Ernest Claeslaan", 
      "lonmin": 4.492625056783335, 
      "sanName": "ernestclaeslaan", 
      "numOfAddr": 22, 
      "lonmax": 4.494112657044964, 
      "latmin": 51.21351979332719
    }, 
    {
      "latmax": 51.208542406875864, 
      "name": "Esdonk", 
      "lonmin": 4.494324589764526, 
      "sanName": "esdonk", 
      "numOfAddr": 12, 
      "lonmax": 4.495592584515592, 
      "latmin": 51.20818575233939
    }, 
    {
      "latmax": 51.20526352952409, 
      "name": "Fortbaan", 
      "lonmin": 4.489904606988209, 
      "sanName": "fortbaan", 
      "numOfAddr": 55, 
      "lonmax": 4.498934223257747, 
      "latmin": 51.19880922981994
    }, 
    {
      "latmax": 51.204788135680666, 
      "name": "Fort II straat", 
      "lonmin": 4.487980399197115, 
      "sanName": "fortiistraat", 
      "numOfAddr": 71, 
      "lonmax": 4.491261110358655, 
      "latmin": 51.19975882540131
    }, 
    {
      "latmax": 51.20440053781549, 
      "name": "Gardeniaweg", 
      "lonmin": 4.5141396643135066, 
      "sanName": "gardeniaweg", 
      "numOfAddr": 16, 
      "lonmax": 4.514855207030999, 
      "latmin": 51.203787723241646
    }, 
    {
      "latmax": 51.20423688341413, 
      "name": "Godshuisweg", 
      "lonmin": 4.524254198078118, 
      "sanName": "godshuisweg", 
      "numOfAddr": 3, 
      "lonmax": 4.524489181728684, 
      "latmin": 51.203934606792856
    }, 
    {
      "latmax": 51.216509142240014, 
      "name": "Guddegemstraat", 
      "lonmin": 4.5044500265788825, 
      "sanName": "guddegemstraat", 
      "numOfAddr": 21, 
      "lonmax": 4.514038691765834, 
      "latmin": 51.209124385231696
    }, 
    {
      "latmax": 51.195120481235136, 
      "name": "Gulkenrodestraat", 
      "lonmin": 4.504491341340314, 
      "sanName": "gulkenrodestraat", 
      "numOfAddr": 14, 
      "lonmax": 4.509476045914712, 
      "latmin": 51.19145654712227
    }, 
    {
      "latmax": 51.20386338941302, 
      "name": "Handboogstraat", 
      "lonmin": 4.519868001462329, 
      "sanName": "handboogstraat", 
      "numOfAddr": 22, 
      "lonmax": 4.522213535345593, 
      "latmin": 51.20303602636408
    }, 
    {
      "latmax": 51.203589721688495, 
      "name": "Herentalsebaan", 
      "lonmin": 4.482616974392581, 
      "sanName": "herentalsebaan", 
      "numOfAddr": 391, 
      "lonmax": 4.538647927757616, 
      "latmin": 51.193742687955876
    }, 
    {
      "latmax": 51.20306670506672, 
      "name": "Heyaardstraat", 
      "lonmin": 4.539249032337022, 
      "sanName": "heyaardstraat", 
      "numOfAddr": 6, 
      "lonmax": 4.542457571679682, 
      "latmin": 51.20140959939677
    }, 
    {
      "latmax": 51.20722811485226, 
      "name": "Hoevenstraat", 
      "lonmin": 4.506738612695709, 
      "sanName": "hoevenstraat", 
      "numOfAddr": 127, 
      "lonmax": 4.51968998619946, 
      "latmin": 51.20388584979747
    }, 
    {
      "latmax": 51.199145750359996, 
      "name": "Hofstraat", 
      "lonmin": 4.49560962099581, 
      "sanName": "hofstraat", 
      "numOfAddr": 27, 
      "lonmax": 4.49675537719636, 
      "latmin": 51.197042890870705
    }, 
    {
      "latmax": 51.20781413616503, 
      "name": "Hogedries", 
      "lonmin": 4.494498188006077, 
      "sanName": "hogedries", 
      "numOfAddr": 12, 
      "lonmax": 4.495635270752804, 
      "latmin": 51.20745467685591
    }, 
    {
      "latmax": 51.21076859409425, 
      "name": "Hogenaardweg", 
      "lonmin": 4.546523128948603, 
      "sanName": "hogenaardweg", 
      "numOfAddr": 5, 
      "lonmax": 4.55135253688833, 
      "latmin": 51.21015037154734
    }, 
    {
      "latmax": 51.19596661529319, 
      "name": "Hooiland", 
      "lonmin": 4.52860276030884, 
      "sanName": "hooiland", 
      "numOfAddr": 19, 
      "lonmax": 4.530139845047529, 
      "latmin": 51.194123104876205
    }, 
    {
      "latmax": 51.19192586196842, 
      "name": "Hulgenrodestraat", 
      "lonmin": 4.500149718384229, 
      "sanName": "hulgenrodestraat", 
      "numOfAddr": 4, 
      "lonmax": 4.50219657857574, 
      "latmin": 51.191890568354026
    }, 
    {
      "latmax": 51.21085880556381, 
      "name": "Immerseelstraat", 
      "lonmin": 4.494750511937926, 
      "sanName": "immerseelstraat", 
      "numOfAddr": 40, 
      "lonmax": 4.498978941304612, 
      "latmin": 51.210089633176324
    }, 
    {
      "latmax": 51.214194338641214, 
      "name": "Jacobsveldweg", 
      "lonmin": 4.5289771631289355, 
      "sanName": "jacobsveldweg", 
      "numOfAddr": 9, 
      "lonmax": 4.535907897015757, 
      "latmin": 51.21247981554483
    }, 
    {
      "latmax": 51.20747194896079, 
      "name": "Jan Moonsstraat", 
      "lonmin": 4.5229863455120345, 
      "sanName": "janmoonsstraat", 
      "numOfAddr": 37, 
      "lonmax": 4.526160196183445, 
      "latmin": 51.205209761758375
    }, 
    {
      "latmax": 51.19622688298042, 
      "name": "Jos Cremersstraat", 
      "lonmin": 4.519428919375534, 
      "sanName": "joscremersstraat", 
      "numOfAddr": 8, 
      "lonmax": 4.52014980666115, 
      "latmin": 51.19587038902971
    }, 
    {
      "latmax": 51.20638528634657, 
      "name": "Joseph Wateletlaan", 
      "lonmin": 4.528187694585539, 
      "sanName": "josephwateletlaan", 
      "numOfAddr": 15, 
      "lonmax": 4.529521696581224, 
      "latmin": 51.20529928674486
    }, 
    {
      "latmax": 51.20758154799245, 
      "name": "Jos Swinkelsstraat", 
      "lonmin": 4.5263394330031055, 
      "sanName": "josswinkelsstraat", 
      "numOfAddr": 8, 
      "lonmax": 4.527576103051352, 
      "latmin": 51.20694857499859
    }, 
    {
      "latmax": 51.20355948079722, 
      "name": "Kaakstraat", 
      "lonmin": 4.522653288257913, 
      "sanName": "kaakstraat", 
      "numOfAddr": 7, 
      "lonmax": 4.523616364343241, 
      "latmin": 51.203237734075756
    }, 
    {
      "latmax": 51.203507317378254, 
      "name": "Kallement", 
      "lonmin": 4.524125389054985, 
      "sanName": "kallement", 
      "numOfAddr": 14, 
      "lonmax": 4.526033882611018, 
      "latmin": 51.20258418857915
    }, 
    {
      "latmax": 51.20854579424115, 
      "name": "Kandonklaan", 
      "lonmin": 4.493646064547939, 
      "sanName": "kandonklaan", 
      "numOfAddr": 15, 
      "lonmax": 4.494355023265422, 
      "latmin": 51.20616659730033
    }, 
    {
      "latmax": 51.199076672185456, 
      "name": "Kapelaan Staslaan", 
      "lonmin": 4.501374495500246, 
      "sanName": "kapelaanstaslaan", 
      "numOfAddr": 30, 
      "lonmax": 4.502981519157236, 
      "latmin": 51.19631309255905
    }, 
    {
      "latmax": 51.207656209540254, 
      "name": "Kapelleveld", 
      "lonmin": 4.517952035535084, 
      "sanName": "kapelleveld", 
      "numOfAddr": 4, 
      "lonmax": 4.518608699054253, 
      "latmin": 51.207305364712475
    }, 
    {
      "latmax": 51.21019039110974, 
      "name": "Kapelstraat", 
      "lonmin": 4.520800424459608, 
      "sanName": "kapelstraat", 
      "numOfAddr": 26, 
      "lonmax": 4.525078812886321, 
      "latmin": 51.20644996528026
    }, 
    {
      "latmax": 51.21706293238974, 
      "name": "Kapittelstraat", 
      "lonmin": 4.54366879775409, 
      "sanName": "kapittelstraat", 
      "numOfAddr": 2, 
      "lonmax": 4.544243897658507, 
      "latmin": 51.216862806818035
    }, 
    {
      "latmax": 51.205458012180024, 
      "name": "Kastanjelaan", 
      "lonmin": 4.529871016332163, 
      "sanName": "kastanjelaan", 
      "numOfAddr": 17, 
      "lonmax": 4.5323434023617075, 
      "latmin": 51.20471349267788
    }, 
    {
      "latmax": 51.1997707961356, 
      "name": "Kasteelstraat", 
      "lonmin": 4.526255479387021, 
      "sanName": "kasteelstraat", 
      "numOfAddr": 26, 
      "lonmax": 4.530535370611784, 
      "latmin": 51.19891420605421
    }, 
    {
      "latmax": 51.21042628203145, 
      "name": "Keerbaan", 
      "lonmin": 4.530373739914758, 
      "sanName": "keerbaan", 
      "numOfAddr": 92, 
      "lonmax": 4.541174330080945, 
      "latmin": 51.207548929047256
    }, 
    {
      "latmax": 51.19812943259148, 
      "name": "Kempenlaan", 
      "lonmin": 4.527307275170372, 
      "sanName": "kempenlaan", 
      "numOfAddr": 65, 
      "lonmax": 4.53933441717251, 
      "latmin": 51.194405403634015
    }, 
    {
      "latmax": 51.20435131049633, 
      "name": "Kerkeveld", 
      "lonmin": 4.527643914220592, 
      "sanName": "kerkeveld", 
      "numOfAddr": 12, 
      "lonmax": 4.528546051520167, 
      "latmin": 51.203779423528786
    }, 
    {
      "latmax": 51.20474280846016, 
      "name": "Kerkplaats", 
      "lonmin": 4.522170117261556, 
      "sanName": "kerkplaats", 
      "numOfAddr": 27, 
      "lonmax": 4.524087747285975, 
      "latmin": 51.203521679802016
    }, 
    {
      "latmax": 51.21145018904129, 
      "name": "Koralenhoeve", 
      "lonmin": 4.517960437377774, 
      "sanName": "koralenhoeve", 
      "numOfAddr": 16, 
      "lonmax": 4.527052877376835, 
      "latmin": 51.20955502462497
    }, 
    {
      "latmax": 51.21006270298645, 
      "name": "Krijtersveld", 
      "lonmin": 4.5183012864130125, 
      "sanName": "krijtersveld", 
      "numOfAddr": 6, 
      "lonmax": 4.51966324464858, 
      "latmin": 51.208409343385064
    }, 
    {
      "latmax": 51.204106907181476, 
      "name": "Kruizemunt", 
      "lonmin": 4.525819689925024, 
      "sanName": "kruizemunt", 
      "numOfAddr": 18, 
      "lonmax": 4.52801295425516, 
      "latmin": 51.203154915493926
    }, 
    {
      "latmax": 51.20390517679128, 
      "name": "Laarstraat", 
      "lonmin": 4.487800103607322, 
      "sanName": "laarstraat", 
      "numOfAddr": 38, 
      "lonmax": 4.489005285282966, 
      "latmin": 51.20147403375411
    }, 
    {
      "latmax": 51.20231591546557, 
      "name": "Langeweg", 
      "lonmin": 4.510895533626598, 
      "sanName": "langeweg", 
      "numOfAddr": 1, 
      "lonmax": 4.510895533626598, 
      "latmin": 51.20231591546557
    }, 
    {
      "latmax": 51.20709452861313, 
      "name": "Lapperbos", 
      "lonmin": 4.494358048705554, 
      "sanName": "lapperbos", 
      "numOfAddr": 9, 
      "lonmax": 4.495418508702505, 
      "latmin": 51.20676398985453
    }, 
    {
      "latmax": 51.1932832152517, 
      "name": "Leliebaan", 
      "lonmin": 4.512195399210909, 
      "sanName": "leliebaan", 
      "numOfAddr": 7, 
      "lonmax": 4.513323448089885, 
      "latmin": 51.19079262384583
    }, 
    {
      "latmax": 51.20452080059321, 
      "name": "Lievevrouwestraat", 
      "lonmin": 4.527207539270046, 
      "sanName": "lievevrouwestraat", 
      "numOfAddr": 34, 
      "lonmax": 4.529987246586423, 
      "latmin": 51.20237138859957
    }, 
    {
      "latmax": 51.20973725612971, 
      "name": "Lindekensweg", 
      "lonmin": 4.500273708918662, 
      "sanName": "lindekensweg", 
      "numOfAddr": 7, 
      "lonmax": 4.500989608413085, 
      "latmin": 51.20907860347689
    }, 
    {
      "latmax": 51.208095481142436, 
      "name": "Lindenlaan", 
      "lonmin": 4.530610936287865, 
      "sanName": "lindenlaan", 
      "numOfAddr": 26, 
      "lonmax": 4.532253776285975, 
      "latmin": 51.205640893820885
    }, 
    {
      "latmax": 51.215398164517104, 
      "name": "Lode Zielenslaan", 
      "lonmin": 4.492527145865982, 
      "sanName": "lodezielenslaan", 
      "numOfAddr": 6, 
      "lonmax": 4.492683715954208, 
      "latmin": 51.213594048946426
    }, 
    {
      "latmax": 51.20342053564516, 
      "name": "Luit. Karel Caluwaertsstraat", 
      "lonmin": 4.517839643609514, 
      "sanName": "luitkarelcaluwaertsstraat", 
      "numOfAddr": 44, 
      "lonmax": 4.521725564774994, 
      "latmin": 51.20223878250828
    }, 
    {
      "latmax": 51.201427434604376, 
      "name": "Maalveld", 
      "lonmin": 4.522637249031599, 
      "sanName": "maalveld", 
      "numOfAddr": 28, 
      "lonmax": 4.524021755952714, 
      "latmin": 51.199290524708374
    }, 
    {
      "latmax": 51.205872223674916, 
      "name": "Maria Clarastraat", 
      "lonmin": 4.48754876508782, 
      "sanName": "mariaclarastraat", 
      "numOfAddr": 39, 
      "lonmax": 4.48983388155064, 
      "latmin": 51.203566796738336
    }, 
    {
      "latmax": 51.20532252162771, 
      "name": "Mariastraat", 
      "lonmin": 4.484648959133734, 
      "sanName": "mariastraat", 
      "numOfAddr": 3, 
      "lonmax": 4.485728767344361, 
      "latmin": 51.203796455283644
    }, 
    {
      "latmax": 51.19617580945665, 
      "name": "Meershoek", 
      "lonmin": 4.524321143818894, 
      "sanName": "meershoek", 
      "numOfAddr": 5, 
      "lonmax": 4.525022228636518, 
      "latmin": 51.1958014236384
    }, 
    {
      "latmax": 51.20046143806168, 
      "name": "Melkerijstraat", 
      "lonmin": 4.5236892855065, 
      "sanName": "melkerijstraat", 
      "numOfAddr": 38, 
      "lonmax": 4.525094265221891, 
      "latmin": 51.198210680482816
    }, 
    {
      "latmax": 51.20428551706116, 
      "name": "Moffenhoeven", 
      "lonmin": 4.505945592437496, 
      "sanName": "moffenhoeven", 
      "numOfAddr": 5, 
      "lonmax": 4.506932039048156, 
      "latmin": 51.20204584796351
    }, 
    {
      "latmax": 51.19951271190172, 
      "name": "Molenbaan", 
      "lonmin": 4.519038700052338, 
      "sanName": "molenbaan", 
      "numOfAddr": 31, 
      "lonmax": 4.5212775043362265, 
      "latmin": 51.19900152134831
    }, 
    {
      "latmax": 51.20245287999801, 
      "name": "Molenbeekstraat", 
      "lonmin": 4.524620864533847, 
      "sanName": "molenbeekstraat", 
      "numOfAddr": 37, 
      "lonmax": 4.52828159278027, 
      "latmin": 51.201846043624414
    }, 
    {
      "latmax": 51.19531480037485, 
      "name": "Netelaarstraat", 
      "lonmin": 4.50921877085456, 
      "sanName": "netelaarstraat", 
      "numOfAddr": 6, 
      "lonmax": 4.511313007417528, 
      "latmin": 51.19151790444826
    }, 
    {
      "latmax": 51.21138238310704, 
      "name": "Nijverheidsstraat", 
      "lonmin": 4.50144371819632, 
      "sanName": "nijverheidsstraat", 
      "numOfAddr": 67, 
      "lonmax": 4.517524281890098, 
      "latmin": 51.2082901376629
    }, 
    {
      "latmax": 51.21879294087187, 
      "name": "Oelegemsteenweg", 
      "lonmin": 4.532557849887358, 
      "sanName": "oelegemsteenweg", 
      "numOfAddr": 59, 
      "lonmax": 4.55931156186712, 
      "latmin": 51.215995945241055
    }, 
    {
      "latmax": 51.2068552316728, 
      "name": "Olmenlaan", 
      "lonmin": 4.5316464420760925, 
      "sanName": "olmenlaan", 
      "numOfAddr": 3, 
      "lonmax": 4.532175613981724, 
      "latmin": 51.206766530055816
    }, 
    {
      "latmax": 51.2101500900442, 
      "name": "Oude Baan", 
      "lonmin": 4.491062179664119, 
      "sanName": "oudebaan", 
      "numOfAddr": 52, 
      "lonmax": 4.493479524659771, 
      "latmin": 51.2077359667219
    }, 
    {
      "latmax": 51.19683219372009, 
      "name": "Pietingbaan", 
      "lonmin": 4.511989209249173, 
      "sanName": "pietingbaan", 
      "numOfAddr": 60, 
      "lonmax": 4.519781746672, 
      "latmin": 51.187381589847014
    }, 
    {
      "latmax": 51.19288540713217, 
      "name": "Populierenlaan", 
      "lonmin": 4.518180677819534, 
      "sanName": "populierenlaan", 
      "numOfAddr": 2, 
      "lonmax": 4.518407249121997, 
      "latmin": 51.19208994297745
    }, 
    {
      "latmax": 51.215278439208916, 
      "name": "Raf Verhulstlaan", 
      "lonmin": 4.492553942350166, 
      "sanName": "rafverhulstlaan", 
      "numOfAddr": 39, 
      "lonmax": 4.493894534783931, 
      "latmin": 51.213943708961395
    }, 
    {
      "latmax": 51.19564645632132, 
      "name": "Recognitiestraat", 
      "lonmin": 4.5338270766908035, 
      "sanName": "recognitiestraat", 
      "numOfAddr": 15, 
      "lonmax": 4.535680031555839, 
      "latmin": 51.194943416806744
    }, 
    {
      "latmax": 51.19442426589305, 
      "name": "Rodeland", 
      "lonmin": 4.5002695731372215, 
      "sanName": "rodeland", 
      "numOfAddr": 28, 
      "lonmax": 4.501653953826754, 
      "latmin": 51.1918865716259
    }, 
    {
      "latmax": 51.206094269930304, 
      "name": "Rollebeekstraat", 
      "lonmin": 4.504335697596856, 
      "sanName": "rollebeekstraat", 
      "numOfAddr": 35, 
      "lonmax": 4.512404230039045, 
      "latmin": 51.20375338091503
    }, 
    {
      "latmax": 51.195414933925164, 
      "name": "Rooibos", 
      "lonmin": 4.5000971250508, 
      "sanName": "rooibos", 
      "numOfAddr": 14, 
      "lonmax": 4.5009445388020115, 
      "latmin": 51.192343087813946
    }, 
    {
      "latmax": 51.20531251094055, 
      "name": "Roosekapellaan", 
      "lonmin": 4.49073031942621, 
      "sanName": "roosekapellaan", 
      "numOfAddr": 18, 
      "lonmax": 4.491995862245221, 
      "latmin": 51.204192686053936
    }, 
    {
      "latmax": 51.20285313569845, 
      "name": "Rooseweg", 
      "lonmin": 4.502618362011408, 
      "sanName": "rooseweg", 
      "numOfAddr": 8, 
      "lonmax": 4.5050004192151505, 
      "latmin": 51.2018820029208
    }, 
    {
      "latmax": 51.20688904802819, 
      "name": "Salicatilaan", 
      "lonmin": 4.529376147286756, 
      "sanName": "salicatilaan", 
      "numOfAddr": 19, 
      "lonmax": 4.5301735693138125, 
      "latmin": 51.20506085414729
    }, 
    {
      "latmax": 51.20189277260613, 
      "name": "Schaarbosstraat", 
      "lonmin": 4.517591979813193, 
      "sanName": "schaarbosstraat", 
      "numOfAddr": 23, 
      "lonmax": 4.518908635043285, 
      "latmin": 51.20112828286933
    }, 
    {
      "latmax": 51.197109293974414, 
      "name": "Schapendries", 
      "lonmin": 4.522578045201165, 
      "sanName": "schapendries", 
      "numOfAddr": 8, 
      "lonmax": 4.523170240072384, 
      "latmin": 51.196640882447575
    }, 
    {
      "latmax": 51.19488876496794, 
      "name": "Schawijck", 
      "lonmin": 4.535778748078892, 
      "sanName": "schawijck", 
      "numOfAddr": 16, 
      "lonmax": 4.537326354534349, 
      "latmin": 51.19425437550557
    }, 
    {
      "latmax": 51.20309816883627, 
      "name": "Scheersel", 
      "lonmin": 4.516489124007669, 
      "sanName": "scheersel", 
      "numOfAddr": 47, 
      "lonmax": 4.518842863863035, 
      "latmin": 51.20073108364752
    }, 
    {
      "latmax": 51.22070513661052, 
      "name": "Schijnaard", 
      "lonmin": 4.529142913025639, 
      "sanName": "schijnaard", 
      "numOfAddr": 2, 
      "lonmax": 4.530426473250082, 
      "latmin": 51.22001595324008
    }, 
    {
      "latmax": 51.20300719203691, 
      "name": "Schranshoevebaan", 
      "lonmin": 4.508868811156534, 
      "sanName": "schranshoevebaan", 
      "numOfAddr": 13, 
      "lonmax": 4.511476824339457, 
      "latmin": 51.19719992168187
    }, 
    {
      "latmax": 51.20072169823251, 
      "name": "Schransweg", 
      "lonmin": 4.514141901740545, 
      "sanName": "schransweg", 
      "numOfAddr": 16, 
      "lonmax": 4.517253113851019, 
      "latmin": 51.199621659420266
    }, 
    {
      "latmax": 51.20789356318594, 
      "name": "Selsaetenstraat", 
      "lonmin": 4.529155838542124, 
      "sanName": "selsaetenstraat", 
      "numOfAddr": 30, 
      "lonmax": 4.538100179803464, 
      "latmin": 51.19806271549449
    }, 
    {
      "latmax": 51.200860482146716, 
      "name": "Selsaetentuinwijk", 
      "lonmin": 4.537198658222169, 
      "sanName": "selsaetentuinwijk", 
      "numOfAddr": 17, 
      "lonmax": 4.540819580553423, 
      "latmin": 51.199025274100784
    }, 
    {
      "latmax": 51.205039775490356, 
      "name": "Silsstraat", 
      "lonmin": 4.489000325834891, 
      "sanName": "silsstraat", 
      "numOfAddr": 15, 
      "lonmax": 4.490359054920034, 
      "latmin": 51.204108814615765
    }, 
    {
      "latmax": 51.20295046929085, 
      "name": "Sint-Damiaanstraat", 
      "lonmin": 4.515094144008026, 
      "sanName": "sintdamiaanstraat", 
      "numOfAddr": 163, 
      "lonmax": 4.522941306001464, 
      "latmin": 51.19713106440175
    }, 
    {
      "latmax": 51.209582231398805, 
      "name": "Sint-Jansveld", 
      "lonmin": 4.520623203558163, 
      "sanName": "sintjansveld", 
      "numOfAddr": 9, 
      "lonmax": 4.522987986310993, 
      "latmin": 51.207177200156664
    }, 
    {
      "latmax": 51.20519781127113, 
      "name": "Sint-Johannastraat", 
      "lonmin": 4.524267581248695, 
      "sanName": "sintjohannastraat", 
      "numOfAddr": 15, 
      "lonmax": 4.525498783380093, 
      "latmin": 51.20442566527397
    }, 
    {
      "latmax": 51.20193693104921, 
      "name": "Sint-Michielsstraat", 
      "lonmin": 4.526795922935428, 
      "sanName": "sintmichielsstraat", 
      "numOfAddr": 42, 
      "lonmax": 4.527567679042807, 
      "latmin": 51.19987009077653
    }, 
    {
      "latmax": 51.20385179025306, 
      "name": "Smisstraat", 
      "lonmin": 4.519212575113604, 
      "sanName": "smisstraat", 
      "numOfAddr": 12, 
      "lonmax": 4.519753323814751, 
      "latmin": 51.203397535201105
    }, 
    {
      "latmax": 51.207745323467236, 
      "name": "Sportstraat", 
      "lonmin": 4.518497321847311, 
      "sanName": "sportstraat", 
      "numOfAddr": 40, 
      "lonmax": 4.519977053538419, 
      "latmin": 51.2056378956276
    }, 
    {
      "latmax": 51.193954598456365, 
      "name": "Stenenkruis", 
      "lonmin": 4.534111340429658, 
      "sanName": "stenenkruis", 
      "numOfAddr": 36, 
      "lonmax": 4.537455081093652, 
      "latmin": 51.19252811383897
    }, 
    {
      "latmax": 51.19536225181487, 
      "name": "Stommehoevenstraat", 
      "lonmin": 4.515297228795751, 
      "sanName": "stommehoevenstraat", 
      "numOfAddr": 83, 
      "lonmax": 4.52672114086214, 
      "latmin": 51.193934281051355
    }, 
    {
      "latmax": 51.21469012066399, 
      "name": "Sumbekestraat", 
      "lonmin": 4.537449033870829, 
      "sanName": "sumbekestraat", 
      "numOfAddr": 3, 
      "lonmax": 4.5376110100692015, 
      "latmin": 51.21415099202609
    }, 
    {
      "latmax": 51.20293510980078, 
      "name": "Terhagelaan", 
      "lonmin": 4.528456329998829, 
      "sanName": "terhagelaan", 
      "numOfAddr": 48, 
      "lonmax": 4.530452232474491, 
      "latmin": 51.199341401321036
    }, 
    {
      "latmax": 51.213405879709015, 
      "name": "Ternesselei", 
      "lonmin": 4.494268146917112, 
      "sanName": "ternesselei", 
      "numOfAddr": 188, 
      "lonmax": 4.516908828913482, 
      "latmin": 51.20528982648162
    }, 
    {
      "latmax": 51.207815300111, 
      "name": "Terstraetenweg", 
      "lonmin": 4.516360893483434, 
      "sanName": "terstraetenweg", 
      "numOfAddr": 30, 
      "lonmax": 4.517798423478966, 
      "latmin": 51.20599083793433
    }, 
    {
      "latmax": 51.20871445713807, 
      "name": "Torenstraat", 
      "lonmin": 4.523554792777838, 
      "sanName": "torenstraat", 
      "numOfAddr": 88, 
      "lonmax": 4.530240438784876, 
      "latmin": 51.204686286597976
    }, 
    {
      "latmax": 51.19521598528321, 
      "name": "'t Serclaesdreef", 
      "lonmin": 4.502288060649789, 
      "sanName": "tserclaesdreef", 
      "numOfAddr": 15, 
      "lonmax": 4.505730346548395, 
      "latmin": 51.19043890532297
    }, 
    {
      "latmax": 51.20811314962516, 
      "name": "'t Sween", 
      "lonmin": 4.514681520263518, 
      "sanName": "tsween", 
      "numOfAddr": 23, 
      "lonmax": 4.516024527344674, 
      "latmin": 51.20701928424555
    }, 
    {
      "latmax": 51.19836030863135, 
      "name": "Tuinbouwstraat", 
      "lonmin": 4.5066556547854, 
      "sanName": "tuinbouwstraat", 
      "numOfAddr": 6, 
      "lonmax": 4.507854520336005, 
      "latmin": 51.19699145238484
    }, 
    {
      "latmax": 51.21361454260869, 
      "name": "Uilenbaan", 
      "lonmin": 4.500077760657429, 
      "sanName": "uilenbaan", 
      "numOfAddr": 49, 
      "lonmax": 4.525716719520705, 
      "latmin": 51.21210798081938
    }, 
    {
      "latmax": 51.20160344149415, 
      "name": "Van Asschestraat", 
      "lonmin": 4.497389065306961, 
      "sanName": "vanasschestraat", 
      "numOfAddr": 86, 
      "lonmax": 4.506345556767782, 
      "latmin": 51.199818813584
    }, 
    {
      "latmax": 51.20424325753324, 
      "name": "Van Strydoncklaan", 
      "lonmin": 4.483997800182825, 
      "sanName": "vanstrydoncklaan", 
      "numOfAddr": 4, 
      "lonmax": 4.484397996793948, 
      "latmin": 51.20369018081208
    }, 
    {
      "latmax": 51.21037868340587, 
      "name": "Van Tichelenlei", 
      "lonmin": 4.491453541813396, 
      "sanName": "vantichelenlei", 
      "numOfAddr": 33, 
      "lonmax": 4.499393890550624, 
      "latmin": 51.208558647639734
    }, 
    {
      "latmax": 51.20709576964153, 
      "name": "Veldstraat", 
      "lonmin": 4.485547447798061, 
      "sanName": "veldstraat", 
      "numOfAddr": 20, 
      "lonmax": 4.487279531478432, 
      "latmin": 51.20572238536642
    }, 
    {
      "latmax": 51.1988243842925, 
      "name": "Verbrandelei", 
      "lonmin": 4.532626554490079, 
      "sanName": "verbrandelei", 
      "numOfAddr": 34, 
      "lonmax": 4.5397474473999795, 
      "latmin": 51.196623862926636
    }, 
    {
      "latmax": 51.206379813493506, 
      "name": "Vierbunder", 
      "lonmin": 4.494294338838037, 
      "sanName": "vierbunder", 
      "numOfAddr": 7, 
      "lonmax": 4.494959146504956, 
      "latmin": 51.20604954020263
    }, 
    {
      "latmax": 51.198830617032634, 
      "name": "Vlasakker", 
      "lonmin": 4.531943899309636, 
      "sanName": "vlasakker", 
      "numOfAddr": 36, 
      "lonmax": 4.5377315023960865, 
      "latmin": 51.19661338314713
    }, 
    {
      "latmax": 51.20668164468781, 
      "name": "Volkaertslei", 
      "lonmin": 4.489208776310229, 
      "sanName": "volkaertslei", 
      "numOfAddr": 52, 
      "lonmax": 4.493689469300728, 
      "latmin": 51.20548189095923
    }, 
    {
      "latmax": 51.196545006910654, 
      "name": "Vremdesteenweg", 
      "lonmin": 4.525860671599401, 
      "sanName": "vremdesteenweg", 
      "numOfAddr": 47, 
      "lonmax": 4.528590231586842, 
      "latmin": 51.19103848128042
    }, 
    {
      "latmax": 51.20261138011206, 
      "name": "Vrijgezellenstraat", 
      "lonmin": 4.519068376845438, 
      "sanName": "vrijgezellenstraat", 
      "numOfAddr": 42, 
      "lonmax": 4.520595625586624, 
      "latmin": 51.20047555286192
    }, 
    {
      "latmax": 51.21795160459275, 
      "name": "Waterhoek", 
      "lonmin": 4.530114607475667, 
      "sanName": "waterhoek", 
      "numOfAddr": 1, 
      "lonmax": 4.530114607475667, 
      "latmin": 51.21795160459275
    }, 
    {
      "latmax": 51.20315742593664, 
      "name": "Welkomstraat", 
      "lonmin": 4.522747267013658, 
      "sanName": "welkomstraat", 
      "numOfAddr": 106, 
      "lonmax": 4.5268181571862, 
      "latmin": 51.19806238605522
    }, 
    {
      "latmax": 51.19700391884021, 
      "name": "Westermoer", 
      "lonmin": 4.524220297101273, 
      "sanName": "westermoer", 
      "numOfAddr": 33, 
      "lonmax": 4.526064612597012, 
      "latmin": 51.19449688876795
    }, 
    {
      "latmax": 51.200938238069696, 
      "name": "Wiekenstraat", 
      "lonmin": 4.521363035380908, 
      "sanName": "wiekenstraat", 
      "numOfAddr": 28, 
      "lonmax": 4.522685138190914, 
      "latmin": 51.19853422772744
    }, 
    {
      "latmax": 51.221345810256715, 
      "name": "Wijnegemsteenweg", 
      "lonmin": 4.527001205493533, 
      "sanName": "wijnegemsteenweg", 
      "numOfAddr": 26, 
      "lonmax": 4.530341263277622, 
      "latmin": 51.208424024338925
    }, 
    {
      "latmax": 51.20628993916088, 
      "name": "Wilgenlaan", 
      "lonmin": 4.531501745806784, 
      "sanName": "wilgenlaan", 
      "numOfAddr": 7, 
      "lonmax": 4.532351376385477, 
      "latmin": 51.20592902889372
    }
  ]
}