{
  "streets": [
    {
      "latmax": 51.21097920109551, 
      "name": "Beeldekensstraat", 
      "lonmin": 4.764903344313581, 
      "sanName": "beeldekensstraat", 
      "numOfAddr": 54, 
      "lonmax": 4.768473394731389, 
      "latmin": 51.20601862200568
    }, 
    {
      "latmax": 51.20743809406228, 
      "name": "Bergstraat", 
      "lonmin": 4.783371893340727, 
      "sanName": "bergstraat", 
      "numOfAddr": 38, 
      "lonmax": 4.787249444500597, 
      "latmin": 51.20443664061526
    }, 
    {
      "latmax": 51.23200038603427, 
      "name": "Berkelheide", 
      "lonmin": 4.784670887982378, 
      "sanName": "berkelheide", 
      "numOfAddr": 32, 
      "lonmax": 4.798743010865727, 
      "latmin": 51.22044261281811
    }, 
    {
      "latmax": 51.20337303844558, 
      "name": "Berkenlaan", 
      "lonmin": 4.761071199138501, 
      "sanName": "berkenlaan", 
      "numOfAddr": 7, 
      "lonmax": 4.761829725565715, 
      "latmin": 51.20283344653123
    }, 
    {
      "latmax": 51.20475631695613, 
      "name": "Beukenlaan", 
      "lonmin": 4.759709251181032, 
      "sanName": "beukenlaan", 
      "numOfAddr": 10, 
      "lonmax": 4.760925428255054, 
      "latmin": 51.204145887353846
    }, 
    {
      "latmax": 51.218522636150986, 
      "name": "Bosweg", 
      "lonmin": 4.75576423425395, 
      "sanName": "bosweg", 
      "numOfAddr": 8, 
      "lonmax": 4.7580346701374, 
      "latmin": 51.21786040673038
    }, 
    {
      "latmax": 51.2043435867043, 
      "name": "Boulevard", 
      "lonmin": 4.762361436219303, 
      "sanName": "boulevard", 
      "numOfAddr": 49, 
      "lonmax": 4.768763243074573, 
      "latmin": 51.2015408162936
    }, 
    {
      "latmax": 51.20661359545129, 
      "name": "Bremlaan", 
      "lonmin": 4.7605362647493, 
      "sanName": "bremlaan", 
      "numOfAddr": 11, 
      "lonmax": 4.761548828273965, 
      "latmin": 51.206180705750604
    }, 
    {
      "latmax": 51.21200411896719, 
      "name": "Bunder", 
      "lonmin": 4.751540167300872, 
      "sanName": "bunder", 
      "numOfAddr": 3, 
      "lonmax": 4.755847191637652, 
      "latmin": 51.20954046641674
    }, 
    {
      "latmax": 51.20443131128745, 
      "name": "Cardijnlaan", 
      "lonmin": 4.770401722161713, 
      "sanName": "cardijnlaan", 
      "numOfAddr": 6, 
      "lonmax": 4.771235890175568, 
      "latmin": 51.20255705734907
    }, 
    {
      "latmax": 51.21777307801917, 
      "name": "Dageraad", 
      "lonmin": 4.752699495644644, 
      "sanName": "dageraad", 
      "numOfAddr": 4, 
      "lonmax": 4.753222035188834, 
      "latmin": 51.21737523952498
    }, 
    {
      "latmax": 51.21107433122009, 
      "name": "De Borrekenslaan", 
      "lonmin": 4.768916809623317, 
      "sanName": "deborrekenslaan", 
      "numOfAddr": 17, 
      "lonmax": 4.770495379717804, 
      "latmin": 51.20982214440724
    }, 
    {
      "latmax": 51.2095988988037, 
      "name": "Della Faillelaan", 
      "lonmin": 4.7693028056209705, 
      "sanName": "dellafaillelaan", 
      "numOfAddr": 19, 
      "lonmax": 4.771171240267137, 
      "latmin": 51.20842444134153
    }, 
    {
      "latmax": 51.20775178225013, 
      "name": "Dennenlaan", 
      "lonmin": 4.780810859922643, 
      "sanName": "dennenlaan", 
      "numOfAddr": 15, 
      "lonmax": 4.78339776057851, 
      "latmin": 51.207129332791084
    }, 
    {
      "latmax": 51.21138827967889, 
      "name": "De Pretlaan", 
      "lonmin": 4.769448542714803, 
      "sanName": "depretlaan", 
      "numOfAddr": 4, 
      "lonmax": 4.770193036246886, 
      "latmin": 51.211043300676494
    }, 
    {
      "latmax": 51.22351768881848, 
      "name": "De Veertien Kapellekens", 
      "lonmin": 4.76573006452743, 
      "sanName": "deveertienkapellekens", 
      "numOfAddr": 39, 
      "lonmax": 4.772324293414967, 
      "latmin": 51.2191873455438
    }, 
    {
      "latmax": 51.20368829629697, 
      "name": "Diamantstraat", 
      "lonmin": 4.775637430352087, 
      "sanName": "diamantstraat", 
      "numOfAddr": 20, 
      "lonmax": 4.777113812769672, 
      "latmin": 51.20250304092383
    }, 
    {
      "latmax": 51.19950954571466, 
      "name": "Dijkbaan", 
      "lonmin": 4.771581953209574, 
      "sanName": "dijkbaan", 
      "numOfAddr": 43, 
      "lonmax": 4.778028374957771, 
      "latmin": 51.19413698920677
    }, 
    {
      "latmax": 51.20596255526102, 
      "name": "Doornlaan", 
      "lonmin": 4.757212777974131, 
      "sanName": "doornlaan", 
      "numOfAddr": 15, 
      "lonmax": 4.7600130937416525, 
      "latmin": 51.20327928297115
    }, 
    {
      "latmax": 51.20062677274003, 
      "name": "Fazantenlaan", 
      "lonmin": 4.773923459211866, 
      "sanName": "fazantenlaan", 
      "numOfAddr": 58, 
      "lonmax": 4.78304746110982, 
      "latmin": 51.19775048615594
    }, 
    {
      "latmax": 51.20689601849601, 
      "name": "Goorbergenlaan", 
      "lonmin": 4.761608827986794, 
      "sanName": "goorbergenlaan", 
      "numOfAddr": 65, 
      "lonmax": 4.769342096922806, 
      "latmin": 51.19874129831935
    }, 
    {
      "latmax": 51.20313389526619, 
      "name": "Grensstraat", 
      "lonmin": 4.752315018076074, 
      "sanName": "grensstraat", 
      "numOfAddr": 19, 
      "lonmax": 4.754345125136968, 
      "latmin": 51.20005734960872
    }, 
    {
      "latmax": 51.21864086999136, 
      "name": "Groenstraat", 
      "lonmin": 4.75428335321776, 
      "sanName": "groenstraat", 
      "numOfAddr": 30, 
      "lonmax": 4.7568433951735525, 
      "latmin": 51.21401010596686
    }, 
    {
      "latmax": 51.20688183149252, 
      "name": "Guldenpad", 
      "lonmin": 4.762724262976388, 
      "sanName": "guldenpad", 
      "numOfAddr": 45, 
      "lonmax": 4.926047317175587, 
      "latmin": 50.98162263682406
    }, 
    {
      "latmax": 51.20461274133038, 
      "name": "Heidelaan", 
      "lonmin": 4.759253703842155, 
      "sanName": "heidelaan", 
      "numOfAddr": 13, 
      "lonmax": 4.760772981232118, 
      "latmin": 51.20248873718083
    }, 
    {
      "latmax": 51.203251249275624, 
      "name": "Heikant", 
      "lonmin": 4.748847768361688, 
      "sanName": "heikant", 
      "numOfAddr": 107, 
      "lonmax": 4.767503103214744, 
      "latmin": 51.20105155835582
    }, 
    {
      "latmax": 51.194003893942856, 
      "name": "Heiken", 
      "lonmin": 4.779359726079807, 
      "sanName": "heiken", 
      "numOfAddr": 34, 
      "lonmax": 4.7963176552603874, 
      "latmin": 51.18683429278951
    }, 
    {
      "latmax": 51.24344048129517, 
      "name": "Heirbaan", 
      "lonmin": 4.733969376630111, 
      "sanName": "heirbaan", 
      "numOfAddr": 33, 
      "lonmax": 4.773564112057, 
      "latmin": 51.223329437392245
    }, 
    {
      "latmax": 51.20956449477635, 
      "name": "Herderstraat", 
      "lonmin": 4.80712834124277, 
      "sanName": "herderstraat", 
      "numOfAddr": 7, 
      "lonmax": 4.8076858243094955, 
      "latmin": 51.20815925070315
    }, 
    {
      "latmax": 51.20691732449155, 
      "name": "Heuvelstraat", 
      "lonmin": 4.782290713653414, 
      "sanName": "heuvelstraat", 
      "numOfAddr": 33, 
      "lonmax": 4.78525236495968, 
      "latmin": 51.20350000145198
    }, 
    {
      "latmax": 51.20089779479903, 
      "name": "Hildering", 
      "lonmin": 4.7625471812723195, 
      "sanName": "hildering", 
      "numOfAddr": 77, 
      "lonmax": 4.766776182169233, 
      "latmin": 51.198945533235424
    }, 
    {
      "latmax": 51.21220688365146, 
      "name": "Ijzerestraat", 
      "lonmin": 4.7691676688433775, 
      "sanName": "ijzerestraat", 
      "numOfAddr": 8, 
      "lonmax": 4.772769858617043, 
      "latmin": 51.20784595908542
    }, 
    {
      "latmax": 51.21169563632227, 
      "name": "Jantjesblok", 
      "lonmin": 4.761006819795806, 
      "sanName": "jantjesblok", 
      "numOfAddr": 20, 
      "lonmax": 4.762334748586431, 
      "latmin": 51.21083615133506
    }, 
    {
      "latmax": 51.20302248830102, 
      "name": "Kabienstraat", 
      "lonmin": 4.774064850108288, 
      "sanName": "kabienstraat", 
      "numOfAddr": 17, 
      "lonmax": 4.775403399917105, 
      "latmin": 51.202297742120194
    }, 
    {
      "latmax": 51.20644493059436, 
      "name": "Kardinaalswijk", 
      "lonmin": 4.780833982683935, 
      "sanName": "kardinaalswijk", 
      "numOfAddr": 33, 
      "lonmax": 4.783432772745733, 
      "latmin": 51.20535892178341
    }, 
    {
      "latmax": 51.19945542805656, 
      "name": "Keizershofstraat", 
      "lonmin": 4.766583828318416, 
      "sanName": "keizershofstraat", 
      "numOfAddr": 9, 
      "lonmax": 4.767378552121038, 
      "latmin": 51.19886906557744
    }, 
    {
      "latmax": 51.20266065496749, 
      "name": "Kempenlaan", 
      "lonmin": 4.7541020376436895, 
      "sanName": "kempenlaan", 
      "numOfAddr": 122, 
      "lonmax": 4.768739702341235, 
      "latmin": 51.199344747179886
    }, 
    {
      "latmax": 51.2031070763932, 
      "name": "Kerkstraat", 
      "lonmin": 4.7684235934398345, 
      "sanName": "kerkstraat", 
      "numOfAddr": 32, 
      "lonmax": 4.772129533990448, 
      "latmin": 51.20217934843147
    }, 
    {
      "latmax": 51.201548999116326, 
      "name": "Kievitlaan", 
      "lonmin": 4.776332754738106, 
      "sanName": "kievitlaan", 
      "numOfAddr": 20, 
      "lonmax": 4.778559171624077, 
      "latmin": 51.2003190284086
    }, 
    {
      "latmax": 51.22017001056218, 
      "name": "Klissenhoek", 
      "lonmin": 4.757403984381746, 
      "sanName": "klissenhoek", 
      "numOfAddr": 67, 
      "lonmax": 4.764542421700937, 
      "latmin": 51.211650957827594
    }, 
    {
      "latmax": 51.20248541661185, 
      "name": "Kouwenberg", 
      "lonmin": 4.7845090896315146, 
      "sanName": "kouwenberg", 
      "numOfAddr": 21, 
      "lonmax": 4.785699545772975, 
      "latmin": 51.201700145757776
    }, 
    {
      "latmax": 51.20477955020402, 
      "name": "Krokuslaan", 
      "lonmin": 4.7827890713955465, 
      "sanName": "krokuslaan", 
      "numOfAddr": 10, 
      "lonmax": 4.78350762526455, 
      "latmin": 51.20417568496931
    }, 
    {
      "latmax": 51.20776474710311, 
      "name": "Kuiperstraat", 
      "lonmin": 4.768871647402632, 
      "sanName": "kuiperstraat", 
      "numOfAddr": 58, 
      "lonmax": 4.7709517891254585, 
      "latmin": 51.203129905073745
    }, 
    {
      "latmax": 51.21014562294482, 
      "name": "Kweek", 
      "lonmin": 4.810497123442839, 
      "sanName": "kweek", 
      "numOfAddr": 16, 
      "lonmax": 4.812902524515839, 
      "latmin": 51.20833173485355
    }, 
    {
      "latmax": 51.20237726772674, 
      "name": "Leeuweriklaan", 
      "lonmin": 4.783209068799792, 
      "sanName": "leeuweriklaan", 
      "numOfAddr": 19, 
      "lonmax": 4.784293531970663, 
      "latmin": 51.2007776506106
    }, 
    {
      "latmax": 51.201006710597625, 
      "name": "Lepelstraat", 
      "lonmin": 4.765847428564984, 
      "sanName": "lepelstraat", 
      "numOfAddr": 86, 
      "lonmax": 4.773179741139559, 
      "latmin": 51.197139338780474
    }, 
    {
      "latmax": 51.202196251835126, 
      "name": "Lijsterplein", 
      "lonmin": 4.782375344463737, 
      "sanName": "lijsterplein", 
      "numOfAddr": 14, 
      "lonmax": 4.782981974297189, 
      "latmin": 51.201547807005404
    }, 
    {
      "latmax": 51.22066916809075, 
      "name": "Lovenhoek", 
      "lonmin": 4.739086003463106, 
      "sanName": "lovenhoek", 
      "numOfAddr": 1, 
      "lonmax": 4.739086003463106, 
      "latmin": 51.22066916809075
    }, 
    {
      "latmax": 51.20846091369774, 
      "name": "Maalderstraat", 
      "lonmin": 4.756930293334728, 
      "sanName": "maalderstraat", 
      "numOfAddr": 59, 
      "lonmax": 4.763504344295777, 
      "latmin": 51.20441253314594
    }, 
    {
      "latmax": 51.21845311177547, 
      "name": "Maashoek", 
      "lonmin": 4.759465381449603, 
      "sanName": "maashoek", 
      "numOfAddr": 6, 
      "lonmax": 4.760533979446879, 
      "latmin": 51.217868346181184
    }, 
    {
      "latmax": 51.202566378209646, 
      "name": "Markt", 
      "lonmin": 4.772124170938824, 
      "sanName": "markt", 
      "numOfAddr": 17, 
      "lonmax": 4.773974344766383, 
      "latmin": 51.201304510856076
    }, 
    {
      "latmax": 51.20049370174088, 
      "name": "Merellaan", 
      "lonmin": 4.773372010316804, 
      "sanName": "merellaan", 
      "numOfAddr": 28, 
      "lonmax": 4.774940392259531, 
      "latmin": 51.198412733463954
    }, 
    {
      "latmax": 51.20230835944404, 
      "name": "Mgr. Donchelei", 
      "lonmin": 4.767554382801018, 
      "sanName": "mgrdonchelei", 
      "numOfAddr": 20, 
      "lonmax": 4.770732436972601, 
      "latmin": 51.20106555693275
    }, 
    {
      "latmax": 51.21536345222774, 
      "name": "Molenbaan", 
      "lonmin": 4.747908751928626, 
      "sanName": "molenbaan", 
      "numOfAddr": 110, 
      "lonmax": 4.772126951398311, 
      "latmin": 51.20569610330387
    }, 
    {
      "latmax": 51.213671944148125, 
      "name": "Moleneinde", 
      "lonmin": 4.756363401681056, 
      "sanName": "moleneinde", 
      "numOfAddr": 92, 
      "lonmax": 4.76230883802225, 
      "latmin": 51.20695917649167
    }, 
    {
      "latmax": 51.21150915816456, 
      "name": "Molenhei", 
      "lonmin": 4.750895778389268, 
      "sanName": "molenhei", 
      "numOfAddr": 23, 
      "lonmax": 4.756973706326297, 
      "latmin": 51.20687740445382
    }, 
    {
      "latmax": 51.205377342646415, 
      "name": "Molenstraat", 
      "lonmin": 4.763511379285202, 
      "sanName": "molenstraat", 
      "numOfAddr": 47, 
      "lonmax": 4.768355292341528, 
      "latmin": 51.202909940663524
    }, 
    {
      "latmax": 51.201826059608244, 
      "name": "Nachtegaal", 
      "lonmin": 4.781457323410092, 
      "sanName": "nachtegaal", 
      "numOfAddr": 10, 
      "lonmax": 4.782128785505163, 
      "latmin": 51.201457092592726
    }, 
    {
      "latmax": 51.218128911835144, 
      "name": "Niemandshoek", 
      "lonmin": 4.755873702445426, 
      "sanName": "niemandshoek", 
      "numOfAddr": 46, 
      "lonmax": 4.767584405123257, 
      "latmin": 51.21541852904122
    }, 
    {
      "latmax": 51.20708769754788, 
      "name": "Nieuwstraat", 
      "lonmin": 4.773800549126837, 
      "sanName": "nieuwstraat", 
      "numOfAddr": 133, 
      "lonmax": 4.791600868996767, 
      "latmin": 51.20094172590414
    }, 
    {
      "latmax": 51.20608561098768, 
      "name": "Oostakker", 
      "lonmin": 4.77306208760884, 
      "sanName": "oostakker", 
      "numOfAddr": 28, 
      "lonmax": 4.776340513749495, 
      "latmin": 51.20364125285444
    }, 
    {
      "latmax": 51.22727228704463, 
      "name": "Pallaaraard", 
      "lonmin": 4.744603893075186, 
      "sanName": "pallaaraard", 
      "numOfAddr": 40, 
      "lonmax": 4.755645748129012, 
      "latmin": 51.214229700609245
    }, 
    {
      "latmax": 51.235250579385564, 
      "name": "Plein", 
      "lonmin": 4.764193139699241, 
      "sanName": "plein", 
      "numOfAddr": 40, 
      "lonmax": 4.7764461077266205, 
      "latmin": 51.22338929679807
    }, 
    {
      "latmax": 51.2165457999876, 
      "name": "Poederleeseweg", 
      "lonmin": 4.817740031331591, 
      "sanName": "poederleeseweg", 
      "numOfAddr": 9, 
      "lonmax": 4.824508990585055, 
      "latmin": 51.20550682703712
    }, 
    {
      "latmax": 51.21959188455012, 
      "name": "Proosthoevebaan", 
      "lonmin": 4.789384575379886, 
      "sanName": "proosthoevebaan", 
      "numOfAddr": 14, 
      "lonmax": 4.8027128383212485, 
      "latmin": 51.21132563063762
    }, 
    {
      "latmax": 51.20468127419898, 
      "name": "Pullesebaan", 
      "lonmin": 4.750251326036484, 
      "sanName": "pullesebaan", 
      "numOfAddr": 24, 
      "lonmax": 4.757826856646721, 
      "latmin": 51.202272179854795
    }, 
    {
      "latmax": 51.21235189037023, 
      "name": "Putakkerstraat", 
      "lonmin": 4.753096102399734, 
      "sanName": "putakkerstraat", 
      "numOfAddr": 44, 
      "lonmax": 4.761963406467405, 
      "latmin": 51.20904290598098
    }, 
    {
      "latmax": 51.201953376319494, 
      "name": "Ravenlaan", 
      "lonmin": 4.778808449307862, 
      "sanName": "ravenlaan", 
      "numOfAddr": 4, 
      "lonmax": 4.7791933663564015, 
      "latmin": 51.201259916457836
    }, 
    {
      "latmax": 51.20769807667578, 
      "name": "Rechtestraat", 
      "lonmin": 4.762060876679884, 
      "sanName": "rechtestraat", 
      "numOfAddr": 30, 
      "lonmax": 4.768346713652336, 
      "latmin": 51.20698418179918
    }, 
    {
      "latmax": 51.21189950025091, 
      "name": "Rentmeesterblok", 
      "lonmin": 4.756704750780212, 
      "sanName": "rentmeesterblok", 
      "numOfAddr": 2, 
      "lonmax": 4.757072479951731, 
      "latmin": 51.211047607243536
    }, 
    {
      "latmax": 51.206930560038046, 
      "name": "Riemenstraat", 
      "lonmin": 4.772982447113462, 
      "sanName": "riemenstraat", 
      "numOfAddr": 100, 
      "lonmax": 4.781096537468498, 
      "latmin": 51.20290695114582
    }, 
    {
      "latmax": 51.21398502696412, 
      "name": "Rommelsven", 
      "lonmin": 4.750569625711751, 
      "sanName": "rommelsven", 
      "numOfAddr": 3, 
      "lonmax": 4.751506442218443, 
      "latmin": 51.213533090768216
    }, 
    {
      "latmax": 51.24880800223009, 
      "name": "Rommelzwaan", 
      "lonmin": 4.740399946730145, 
      "sanName": "rommelzwaan", 
      "numOfAddr": 7, 
      "lonmax": 4.758211843810422, 
      "latmin": 51.238052691560775
    }, 
    {
      "latmax": 51.20547749839845, 
      "name": "Rozenlaan", 
      "lonmin": 4.779771789358944, 
      "sanName": "rozenlaan", 
      "numOfAddr": 5, 
      "lonmax": 4.780598459964719, 
      "latmin": 51.20509337804291
    }, 
    {
      "latmax": 51.20423700463454, 
      "name": "Salvialaan", 
      "lonmin": 4.781409693264049, 
      "sanName": "salvialaan", 
      "numOfAddr": 27, 
      "lonmax": 4.784404041821204, 
      "latmin": 51.20344436679
    }, 
    {
      "latmax": 51.21263802000371, 
      "name": "Sassenhout", 
      "lonmin": 4.795537767637389, 
      "sanName": "sassenhout", 
      "numOfAddr": 82, 
      "lonmax": 4.831874691500279, 
      "latmin": 51.20859979188682
    }, 
    {
      "latmax": 51.20389725150977, 
      "name": "Schoolstraat", 
      "lonmin": 4.7696262038664, 
      "sanName": "schoolstraat", 
      "numOfAddr": 5, 
      "lonmax": 4.770175177400282, 
      "latmin": 51.20369404095567
    }, 
    {
      "latmax": 51.20395032631365, 
      "name": "Schransstraat", 
      "lonmin": 4.7771091907661045, 
      "sanName": "schransstraat", 
      "numOfAddr": 11, 
      "lonmax": 4.778510679327717, 
      "latmin": 51.2024737414722
    }, 
    {
      "latmax": 51.20015611705828, 
      "name": "Smalvoort", 
      "lonmin": 4.760359871458763, 
      "sanName": "smalvoort", 
      "numOfAddr": 17, 
      "lonmax": 4.76189099791894, 
      "latmin": 51.19899807613923
    }, 
    {
      "latmax": 51.231028965843166, 
      "name": "Strateneinde", 
      "lonmin": 4.7544817305711575, 
      "sanName": "strateneinde", 
      "numOfAddr": 21, 
      "lonmax": 4.7645971042486694, 
      "latmin": 51.22139104575373
    }, 
    {
      "latmax": 51.205410094121014, 
      "name": "Tuinweg", 
      "lonmin": 4.778483709518201, 
      "sanName": "tuinweg", 
      "numOfAddr": 35, 
      "lonmax": 4.781547307046212, 
      "latmin": 51.20269461902655
    }, 
    {
      "latmax": 51.20511399924883, 
      "name": "Tulpenlaan", 
      "lonmin": 4.7803785615779715, 
      "sanName": "tulpenlaan", 
      "numOfAddr": 18, 
      "lonmax": 4.782182795171597, 
      "latmin": 51.20430030871744
    }, 
    {
      "latmax": 51.211546882513325, 
      "name": "Van Arenberglaan", 
      "lonmin": 4.768651867424619, 
      "sanName": "vanarenberglaan", 
      "numOfAddr": 2, 
      "lonmax": 4.769068986201883, 
      "latmin": 51.211384435477
    }, 
    {
      "latmax": 51.212199117525365, 
      "name": "Van de Wervelaan", 
      "lonmin": 4.766935843003845, 
      "sanName": "vandewervelaan", 
      "numOfAddr": 59, 
      "lonmax": 4.769234450164969, 
      "latmin": 51.20644048894364
    }, 
    {
      "latmax": 51.210505332254755, 
      "name": "Van Rotselaarlaan", 
      "lonmin": 4.761489200752923, 
      "sanName": "vanrotselaarlaan", 
      "numOfAddr": 41, 
      "lonmax": 4.764847249538944, 
      "latmin": 51.20742515234241
    }, 
    {
      "latmax": 51.201219863581535, 
      "name": "Veldstraat", 
      "lonmin": 4.774996890869405, 
      "sanName": "veldstraat", 
      "numOfAddr": 29, 
      "lonmax": 4.77649967839809, 
      "latmin": 51.198470189499275
    }, 
    {
      "latmax": 51.201505105920106, 
      "name": "Vinkenlaan", 
      "lonmin": 4.778031514028924, 
      "sanName": "vinkenlaan", 
      "numOfAddr": 34, 
      "lonmax": 4.782406194715829, 
      "latmin": 51.19984492594581
    }, 
    {
      "latmax": 51.228582000740275, 
      "name": "Vispluk", 
      "lonmin": 4.772781760826153, 
      "sanName": "vispluk", 
      "numOfAddr": 111, 
      "lonmax": 4.787597174702366, 
      "latmin": 51.210449454084205
    }, 
    {
      "latmax": 51.20585427091686, 
      "name": "Vossenkuil", 
      "lonmin": 4.766547383256866, 
      "sanName": "vossenkuil", 
      "numOfAddr": 15, 
      "lonmax": 4.769141669726171, 
      "latmin": 51.20503496702173
    }, 
    {
      "latmax": 51.21584505560798, 
      "name": "Vroegeinde", 
      "lonmin": 4.742145441096529, 
      "sanName": "vroegeinde", 
      "numOfAddr": 60, 
      "lonmax": 4.75371488016532, 
      "latmin": 51.20874716152289
    }, 
    {
      "latmax": 51.204287166208296, 
      "name": "Wilgenlaan", 
      "lonmin": 4.75799106372719, 
      "sanName": "wilgenlaan", 
      "numOfAddr": 12, 
      "lonmax": 4.759174995842161, 
      "latmin": 51.20295372627746
    }, 
    {
      "latmax": 51.2079291440592, 
      "name": "Zand", 
      "lonmin": 4.77854953327983, 
      "sanName": "zand", 
      "numOfAddr": 15, 
      "lonmax": 4.7802029628304785, 
      "latmin": 51.207026320726946
    }, 
    {
      "latmax": 51.204692937566136, 
      "name": "Zavelstraat", 
      "lonmin": 4.760571112011608, 
      "sanName": "zavelstraat", 
      "numOfAddr": 23, 
      "lonmax": 4.763091762873988, 
      "latmin": 51.203490457188444
    }, 
    {
      "latmax": 51.226924313432754, 
      "name": "Zegbroek", 
      "lonmin": 4.749647403909615, 
      "sanName": "zegbroek", 
      "numOfAddr": 63, 
      "lonmax": 4.756966029386805, 
      "latmin": 51.221301614994466
    }
  ]
}