{
  "streets": [
    {
      "latmax": 51.38900556732441, 
      "name": "Acaciaweg", 
      "lonmin": 4.896754423295491, 
      "sanName": "acaciaweg", 
      "numOfAddr": 3, 
      "lonmax": 4.897791360054083, 
      "latmin": 51.387396497759774
    }, 
    {
      "latmax": 51.35684062274382, 
      "name": "Albertstraat", 
      "lonmin": 4.862396156527924, 
      "sanName": "albertstraat", 
      "numOfAddr": 8, 
      "lonmax": 4.863736528584198, 
      "latmin": 51.356463948876666
    }, 
    {
      "latmax": 51.3521600302738, 
      "name": "Beersedreef", 
      "lonmin": 4.832629765026269, 
      "sanName": "beersedreef", 
      "numOfAddr": 8, 
      "lonmax": 4.836821401088932, 
      "latmin": 51.34343749806568
    }, 
    {
      "latmax": 51.36437414943682, 
      "name": "Begijnenhei", 
      "lonmin": 4.850244176692357, 
      "sanName": "begijnenhei", 
      "numOfAddr": 19, 
      "lonmax": 4.852821932414223, 
      "latmin": 51.36285625678168
    }, 
    {
      "latmax": 51.39727443332853, 
      "name": "Bergsken", 
      "lonmin": 4.89436646548284, 
      "sanName": "bergsken", 
      "numOfAddr": 7, 
      "lonmax": 4.897007637277445, 
      "latmin": 51.394485242125306
    }, 
    {
      "latmax": 51.377874826298935, 
      "name": "Berkelaar", 
      "lonmin": 4.882905079586039, 
      "sanName": "berkelaar", 
      "numOfAddr": 10, 
      "lonmax": 4.8979423326236935, 
      "latmin": 51.37227572235523
    }, 
    {
      "latmax": 51.36895513412921, 
      "name": "Berkenstraat", 
      "lonmin": 4.843932026326295, 
      "sanName": "berkenstraat", 
      "numOfAddr": 10, 
      "lonmax": 4.846819937905764, 
      "latmin": 51.366979745242396
    }, 
    {
      "latmax": 51.353696581074786, 
      "name": "Beukendreef", 
      "lonmin": 4.825310966927462, 
      "sanName": "beukendreef", 
      "numOfAddr": 2, 
      "lonmax": 4.8254521103943535, 
      "latmin": 51.35367798083212
    }, 
    {
      "latmax": 51.357451318841, 
      "name": "Bevrijdingsstraat", 
      "lonmin": 4.861507801597943, 
      "sanName": "bevrijdingsstraat", 
      "numOfAddr": 34, 
      "lonmax": 4.862748505387308, 
      "latmin": 51.35551924103197
    }, 
    {
      "latmax": 51.35459826018896, 
      "name": "Biekorfstraat", 
      "lonmin": 4.846044884684492, 
      "sanName": "biekorfstraat", 
      "numOfAddr": 25, 
      "lonmax": 4.847812387712956, 
      "latmin": 51.352214802185856
    }, 
    {
      "latmax": 51.35373233292067, 
      "name": "Blazoenstraat", 
      "lonmin": 4.870765550511453, 
      "sanName": "blazoenstraat", 
      "numOfAddr": 8, 
      "lonmax": 4.871906144238716, 
      "latmin": 51.35287364929717
    }, 
    {
      "latmax": 51.38527028671841, 
      "name": "Bloksgoor", 
      "lonmin": 4.90478951384048, 
      "sanName": "bloksgoor", 
      "numOfAddr": 4, 
      "lonmax": 4.905727517240759, 
      "latmin": 51.38405942709712
    }, 
    {
      "latmax": 51.34259048215867, 
      "name": "Boensberg", 
      "lonmin": 4.872401511077209, 
      "sanName": "boensberg", 
      "numOfAddr": 4, 
      "lonmax": 4.8734488895350445, 
      "latmin": 51.3422746344738
    }, 
    {
      "latmax": 51.3541946226547, 
      "name": "Boogstraat", 
      "lonmin": 4.869701073893767, 
      "sanName": "boogstraat", 
      "numOfAddr": 20, 
      "lonmax": 4.870552209214558, 
      "latmin": 51.35315092035075
    }, 
    {
      "latmax": 51.36406496347804, 
      "name": "Boskens", 
      "lonmin": 4.852088338036062, 
      "sanName": "boskens", 
      "numOfAddr": 11, 
      "lonmax": 4.853218663966002, 
      "latmin": 51.36334073621571
    }, 
    {
      "latmax": 51.36080471808717, 
      "name": "Bosstraat", 
      "lonmin": 4.897478498275066, 
      "sanName": "bosstraat", 
      "numOfAddr": 25, 
      "lonmax": 4.915410333918377, 
      "latmin": 51.35165639544033
    }, 
    {
      "latmax": 51.35660946458942, 
      "name": "Boudewijnstraat", 
      "lonmin": 4.864998577173905, 
      "sanName": "boudewijnstraat", 
      "numOfAddr": 4, 
      "lonmax": 4.865689837741093, 
      "latmin": 51.35657802880321
    }, 
    {
      "latmax": 51.355542187568716, 
      "name": "Bredestraat", 
      "lonmin": 4.872365367493481, 
      "sanName": "bredestraat", 
      "numOfAddr": 45, 
      "lonmax": 4.873857805500242, 
      "latmin": 51.35117333255278
    }, 
    {
      "latmax": 51.346775153121825, 
      "name": "Breebos", 
      "lonmin": 4.809883178067816, 
      "sanName": "breebos", 
      "numOfAddr": 68, 
      "lonmax": 4.812767029133469, 
      "latmin": 51.34533055521396
    }, 
    {
      "latmax": 51.35903397838044, 
      "name": "Breughelstraat", 
      "lonmin": 4.870215291340858, 
      "sanName": "breughelstraat", 
      "numOfAddr": 5, 
      "lonmax": 4.870852656365184, 
      "latmin": 51.35862707048795
    }, 
    {
      "latmax": 51.39941496163686, 
      "name": "Bruul", 
      "lonmin": 4.895888950045911, 
      "sanName": "bruul", 
      "numOfAddr": 1, 
      "lonmax": 4.895888950045911, 
      "latmin": 51.39941496163686
    }, 
    {
      "latmax": 51.35528865829096, 
      "name": "Cardijnlaan", 
      "lonmin": 4.866114922103202, 
      "sanName": "cardijnlaan", 
      "numOfAddr": 31, 
      "lonmax": 4.868212511273576, 
      "latmin": 51.353569795445
    }, 
    {
      "latmax": 51.35891670242874, 
      "name": "Consciencestraat", 
      "lonmin": 4.854161187706575, 
      "sanName": "consciencestraat", 
      "numOfAddr": 27, 
      "lonmax": 4.855731886166378, 
      "latmin": 51.357502773972676
    }, 
    {
      "latmax": 51.353228590753126, 
      "name": "Dammekensstraat", 
      "lonmin": 4.821609744309618, 
      "sanName": "dammekensstraat", 
      "numOfAddr": 6, 
      "lonmax": 4.8218902410613085, 
      "latmin": 51.35221537154978
    }, 
    {
      "latmax": 51.34858495257171, 
      "name": "De Hees", 
      "lonmin": 4.884002655487972, 
      "sanName": "dehees", 
      "numOfAddr": 15, 
      "lonmax": 4.887957958670061, 
      "latmin": 51.346681197159675
    }, 
    {
      "latmax": 51.35477957934936, 
      "name": "Den Drank", 
      "lonmin": 4.8448577297731985, 
      "sanName": "dendrank", 
      "numOfAddr": 13, 
      "lonmax": 4.8457764040105165, 
      "latmin": 51.35363855518643
    }, 
    {
      "latmax": 51.35491965637799, 
      "name": "Den Heerd", 
      "lonmin": 4.860148788796797, 
      "sanName": "denheerd", 
      "numOfAddr": 18, 
      "lonmax": 4.861808605898516, 
      "latmin": 51.353098775170565
    }, 
    {
      "latmax": 51.36824441628901, 
      "name": "Dennenstraat", 
      "lonmin": 4.8432720235317515, 
      "sanName": "dennenstraat", 
      "numOfAddr": 11, 
      "lonmax": 4.846465709192046, 
      "latmin": 51.36591786034037
    }, 
    {
      "latmax": 51.3553538724875, 
      "name": "Den Outer", 
      "lonmin": 4.857668466945348, 
      "sanName": "denouter", 
      "numOfAddr": 20, 
      "lonmax": 4.860525913552644, 
      "latmin": 51.35411997562434
    }, 
    {
      "latmax": 51.363063060199394, 
      "name": "De Poot", 
      "lonmin": 4.849154554965054, 
      "sanName": "depoot", 
      "numOfAddr": 30, 
      "lonmax": 4.852078923921845, 
      "latmin": 51.36164114070993
    }, 
    {
      "latmax": 51.3848938057735, 
      "name": "Diepte", 
      "lonmin": 4.828701758757637, 
      "sanName": "diepte", 
      "numOfAddr": 4, 
      "lonmax": 4.832618436552347, 
      "latmin": 51.38195668984162
    }, 
    {
      "latmax": 51.353815889177994, 
      "name": "Doelenplein", 
      "lonmin": 4.867505611282131, 
      "sanName": "doelenplein", 
      "numOfAddr": 11, 
      "lonmax": 4.86817141294792, 
      "latmin": 51.3533720649497
    }, 
    {
      "latmax": 51.355980437525254, 
      "name": "Driesplein", 
      "lonmin": 4.867817318560328, 
      "sanName": "driesplein", 
      "numOfAddr": 8, 
      "lonmax": 4.869455074455984, 
      "latmin": 51.3554221797068
    }, 
    {
      "latmax": 51.396142640943545, 
      "name": "Eendenpad", 
      "lonmin": 4.8392764843329115, 
      "sanName": "eendenpad", 
      "numOfAddr": 9, 
      "lonmax": 4.842966260579238, 
      "latmin": 51.39532684405894
    }, 
    {
      "latmax": 51.401101987678274, 
      "name": "Egelspad", 
      "lonmin": 4.849998339298965, 
      "sanName": "egelspad", 
      "numOfAddr": 4, 
      "lonmax": 4.8513854709460595, 
      "latmin": 51.40097372095206
    }, 
    {
      "latmax": 51.36444742858814, 
      "name": "Egstraat", 
      "lonmin": 4.847135377726029, 
      "sanName": "egstraat", 
      "numOfAddr": 21, 
      "lonmax": 4.849058873104717, 
      "latmin": 51.36313178135027
    }, 
    {
      "latmax": 51.3603458076051, 
      "name": "Eikelsblok", 
      "lonmin": 4.844081856737999, 
      "sanName": "eikelsblok", 
      "numOfAddr": 19, 
      "lonmax": 4.848260002837174, 
      "latmin": 51.35986496123359
    }, 
    {
      "latmax": 51.35207060485571, 
      "name": "Eikendreef", 
      "lonmin": 4.831341753770728, 
      "sanName": "eikendreef", 
      "numOfAddr": 2, 
      "lonmax": 4.83140628482764, 
      "latmin": 51.351833966335576
    }, 
    {
      "latmax": 51.40505898490234, 
      "name": "Eindepoel", 
      "lonmin": 4.857684025586229, 
      "sanName": "eindepoel", 
      "numOfAddr": 9, 
      "lonmax": 4.869504125760599, 
      "latmin": 51.40115598756861
    }, 
    {
      "latmax": 51.38990689615681, 
      "name": "Elzenberg", 
      "lonmin": 4.869168788034406, 
      "sanName": "elzenberg", 
      "numOfAddr": 7, 
      "lonmax": 4.8706580476801005, 
      "latmin": 51.389309503188095
    }, 
    {
      "latmax": 51.35789343803469, 
      "name": "Ernest Claesstraat", 
      "lonmin": 4.851152165351056, 
      "sanName": "ernestclaesstraat", 
      "numOfAddr": 18, 
      "lonmax": 4.8534437562094945, 
      "latmin": 51.357333597181736
    }, 
    {
      "latmax": 51.36815415334142, 
      "name": "Esdoornstraat", 
      "lonmin": 4.842180499425112, 
      "sanName": "esdoornstraat", 
      "numOfAddr": 12, 
      "lonmax": 4.844728525793563, 
      "latmin": 51.366683222347106
    }, 
    {
      "latmax": 51.370983158064206, 
      "name": "Esseheide", 
      "lonmin": 4.840001586477635, 
      "sanName": "esseheide", 
      "numOfAddr": 2, 
      "lonmax": 4.840138256984189, 
      "latmin": 51.37085930784539
    }, 
    {
      "latmax": 51.353785263256874, 
      "name": "Gagelstraat", 
      "lonmin": 4.844705791947803, 
      "sanName": "gagelstraat", 
      "numOfAddr": 12, 
      "lonmax": 4.846439653264591, 
      "latmin": 51.352890830735056
    }, 
    {
      "latmax": 51.35508781591298, 
      "name": "Gasthuisdreef", 
      "lonmin": 4.832649691090358, 
      "sanName": "gasthuisdreef", 
      "numOfAddr": 1, 
      "lonmax": 4.832649691090358, 
      "latmin": 51.35508781591298
    }, 
    {
      "latmax": 51.38341778428899, 
      "name": "Geheul", 
      "lonmin": 4.898045085023684, 
      "sanName": "geheul", 
      "numOfAddr": 14, 
      "lonmax": 4.901524388629134, 
      "latmin": 51.3792903548048
    }, 
    {
      "latmax": 51.35614373714549, 
      "name": "Gentse Wijk", 
      "lonmin": 4.833794447581691, 
      "sanName": "gentsewijk", 
      "numOfAddr": 10, 
      "lonmax": 4.834631839631348, 
      "latmin": 51.35503264901725
    }, 
    {
      "latmax": 51.35730710888657, 
      "name": "Gezellestraat", 
      "lonmin": 4.85764581432757, 
      "sanName": "gezellestraat", 
      "numOfAddr": 29, 
      "lonmax": 4.861817501268894, 
      "latmin": 51.35666609704718
    }, 
    {
      "latmax": 51.359261406872, 
      "name": "Gildestraat", 
      "lonmin": 4.861898673808208, 
      "sanName": "gildestraat", 
      "numOfAddr": 9, 
      "lonmax": 4.862873314925728, 
      "latmin": 51.35867801794505
    }, 
    {
      "latmax": 51.35646194490654, 
      "name": "Goordijkstraat", 
      "lonmin": 4.843445881215947, 
      "sanName": "goordijkstraat", 
      "numOfAddr": 35, 
      "lonmax": 4.847464863492168, 
      "latmin": 51.34867759533359
    }, 
    {
      "latmax": 51.35512797391441, 
      "name": "Groes", 
      "lonmin": 4.869654170734867, 
      "sanName": "groes", 
      "numOfAddr": 1, 
      "lonmax": 4.869654170734867, 
      "latmin": 51.35512797391441
    }, 
    {
      "latmax": 51.355834448461344, 
      "name": "Hazenpad", 
      "lonmin": 4.884052489398771, 
      "sanName": "hazenpad", 
      "numOfAddr": 15, 
      "lonmax": 4.887499407516165, 
      "latmin": 51.35308411987567
    }, 
    {
      "latmax": 51.3912298087724, 
      "name": "Heibleuken", 
      "lonmin": 4.844829250777968, 
      "sanName": "heibleuken", 
      "numOfAddr": 12, 
      "lonmax": 4.848126662400548, 
      "latmin": 51.39022478034343
    }, 
    {
      "latmax": 51.356132586290656, 
      "name": "Heidestraat", 
      "lonmin": 4.843852146326587, 
      "sanName": "heidestraat", 
      "numOfAddr": 89, 
      "lonmax": 4.857370740763145, 
      "latmin": 51.35458640134146
    }, 
    {
      "latmax": 51.36338766668475, 
      "name": "Heidries", 
      "lonmin": 4.850877072743987, 
      "sanName": "heidries", 
      "numOfAddr": 14, 
      "lonmax": 4.851757273280533, 
      "latmin": 51.362409718442905
    }, 
    {
      "latmax": 51.405149805197034, 
      "name": "Heikant", 
      "lonmin": 4.853208170765073, 
      "sanName": "heikant", 
      "numOfAddr": 14, 
      "lonmax": 4.860716091144635, 
      "latmin": 51.40302185097023
    }, 
    {
      "latmax": 51.35399479878961, 
      "name": "Heiseneinde", 
      "lonmin": 4.848898120637319, 
      "sanName": "heiseneinde", 
      "numOfAddr": 61, 
      "lonmax": 4.8635893847977725, 
      "latmin": 51.346414647873004
    }, 
    {
      "latmax": 51.3793027660116, 
      "name": "Heiveld", 
      "lonmin": 4.858327941079302, 
      "sanName": "heiveld", 
      "numOfAddr": 7, 
      "lonmax": 4.863137827214166, 
      "latmin": 51.37837571250698
    }, 
    {
      "latmax": 51.36278013889446, 
      "name": "Het Steeke", 
      "lonmin": 4.851540401021196, 
      "sanName": "hetsteeke", 
      "numOfAddr": 16, 
      "lonmax": 4.852624063222962, 
      "latmin": 51.36202384789383
    }, 
    {
      "latmax": 51.397768205691804, 
      "name": "Hoekeinde", 
      "lonmin": 4.8554004049750725, 
      "sanName": "hoekeinde", 
      "numOfAddr": 62, 
      "lonmax": 4.863537964922706, 
      "latmin": 51.36537517003886
    }, 
    {
      "latmax": 51.35543186739514, 
      "name": "Hoevestraat", 
      "lonmin": 4.878190050630348, 
      "sanName": "hoevestraat", 
      "numOfAddr": 51, 
      "lonmax": 4.89551800015104, 
      "latmin": 51.35228417606869
    }, 
    {
      "latmax": 51.36713938096348, 
      "name": "Hofeinde", 
      "lonmin": 4.86152145506265, 
      "sanName": "hofeinde", 
      "numOfAddr": 40, 
      "lonmax": 4.865637310834524, 
      "latmin": 51.36211275135166
    }, 
    {
      "latmax": 51.35290442722348, 
      "name": "Honingstraat", 
      "lonmin": 4.844868650312617, 
      "sanName": "honingstraat", 
      "numOfAddr": 15, 
      "lonmax": 4.846921956025706, 
      "latmin": 51.35215613053098
    }, 
    {
      "latmax": 51.39174410495829, 
      "name": "Hooghoekeinde", 
      "lonmin": 4.849272786715472, 
      "sanName": "hooghoekeinde", 
      "numOfAddr": 6, 
      "lonmax": 4.8554162215796355, 
      "latmin": 51.382636239741515
    }, 
    {
      "latmax": 51.36558820360189, 
      "name": "Horst", 
      "lonmin": 4.8905915535655415, 
      "sanName": "horst", 
      "numOfAddr": 16, 
      "lonmax": 4.895465671864102, 
      "latmin": 51.35907717279271
    }, 
    {
      "latmax": 51.359378267573696, 
      "name": "Hoveniersstraat", 
      "lonmin": 4.8649763987368715, 
      "sanName": "hoveniersstraat", 
      "numOfAddr": 13, 
      "lonmax": 4.866155380687435, 
      "latmin": 51.358588817440435
    }, 
    {
      "latmax": 51.36758418860769, 
      "name": "Industrieweg", 
      "lonmin": 4.838231453405333, 
      "sanName": "industrieweg", 
      "numOfAddr": 21, 
      "lonmax": 4.843056864700705, 
      "latmin": 51.36248302390584
    }, 
    {
      "latmax": 51.36093787200519, 
      "name": "J. Mertensstraat", 
      "lonmin": 4.856194170272265, 
      "sanName": "jmertensstraat", 
      "numOfAddr": 14, 
      "lonmax": 4.858717176772194, 
      "latmin": 51.359488513912645
    }, 
    {
      "latmax": 51.359385260692534, 
      "name": "Jordaensstraat", 
      "lonmin": 4.868706291119032, 
      "sanName": "jordaensstraat", 
      "numOfAddr": 11, 
      "lonmax": 4.869635241018372, 
      "latmin": 51.35843694473538
    }, 
    {
      "latmax": 51.35484016730973, 
      "name": "Kapelhof", 
      "lonmin": 4.868351690124852, 
      "sanName": "kapelhof", 
      "numOfAddr": 12, 
      "lonmax": 4.869494523329135, 
      "latmin": 51.354450424738985
    }, 
    {
      "latmax": 51.35984443399045, 
      "name": "Kapelstraat", 
      "lonmin": 4.824255417767098, 
      "sanName": "kapelstraat", 
      "numOfAddr": 11, 
      "lonmax": 4.82676036890799, 
      "latmin": 51.352575838871864
    }, 
    {
      "latmax": 51.385841507649204, 
      "name": "Kastanjelaar", 
      "lonmin": 4.879356964031874, 
      "sanName": "kastanjelaar", 
      "numOfAddr": 7, 
      "lonmax": 4.881274592692966, 
      "latmin": 51.3839409870781
    }, 
    {
      "latmax": 51.35451289417921, 
      "name": "Kerkenakker", 
      "lonmin": 4.861625137589793, 
      "sanName": "kerkenakker", 
      "numOfAddr": 11, 
      "lonmax": 4.862617561354173, 
      "latmin": 51.35351207794866
    }, 
    {
      "latmax": 51.35920120695214, 
      "name": "Kerkplein", 
      "lonmin": 4.863701028954034, 
      "sanName": "kerkplein", 
      "numOfAddr": 4, 
      "lonmax": 4.8645031925984545, 
      "latmin": 51.35830467613906
    }, 
    {
      "latmax": 51.362159664714625, 
      "name": "Kerkstraat", 
      "lonmin": 4.8630007901723245, 
      "sanName": "kerkstraat", 
      "numOfAddr": 31, 
      "lonmax": 4.864249803553143, 
      "latmin": 51.35853404914849
    }, 
    {
      "latmax": 51.359798929503754, 
      "name": "Kern Lindendijk", 
      "lonmin": 4.865065445392557, 
      "sanName": "kernlindendijk", 
      "numOfAddr": 32, 
      "lonmax": 4.86731031963486, 
      "latmin": 51.3589873689543
    }, 
    {
      "latmax": 51.35808466519181, 
      "name": "Kleiryt", 
      "lonmin": 4.8655221185549635, 
      "sanName": "kleiryt", 
      "numOfAddr": 51, 
      "lonmax": 4.872295354441749, 
      "latmin": 51.35507440431374
    }, 
    {
      "latmax": 51.35543242074364, 
      "name": "Kleirytse Driesen", 
      "lonmin": 4.868872805451448, 
      "sanName": "kleirytsedriesen", 
      "numOfAddr": 15, 
      "lonmax": 4.870597982699991, 
      "latmin": 51.355031266047305
    }, 
    {
      "latmax": 51.36007080088107, 
      "name": "Kloosterstraat", 
      "lonmin": 4.863862531720587, 
      "sanName": "kloosterstraat", 
      "numOfAddr": 31, 
      "lonmax": 4.868027989130705, 
      "latmin": 51.35690708960175
    }, 
    {
      "latmax": 51.37732447108316, 
      "name": "Koekhoven", 
      "lonmin": 4.893134623399882, 
      "sanName": "koekhoven", 
      "numOfAddr": 45, 
      "lonmax": 4.899643083327578, 
      "latmin": 51.34435028975808
    }, 
    {
      "latmax": 51.356370395411005, 
      "name": "Koopepad", 
      "lonmin": 4.868952968338673, 
      "sanName": "koopepad", 
      "numOfAddr": 6, 
      "lonmax": 4.869900320015685, 
      "latmin": 51.35621494091226
    }, 
    {
      "latmax": 51.36119255741278, 
      "name": "Korenveld", 
      "lonmin": 4.845423269419857, 
      "sanName": "korenveld", 
      "numOfAddr": 20, 
      "lonmax": 4.848398710985567, 
      "latmin": 51.360606308697726
    }, 
    {
      "latmax": 51.35237716010209, 
      "name": "Krekelstraat", 
      "lonmin": 4.84562388891318, 
      "sanName": "krekelstraat", 
      "numOfAddr": 17, 
      "lonmax": 4.847262235937513, 
      "latmin": 51.351295350267925
    }, 
    {
      "latmax": 51.38539404815957, 
      "name": "Kromvenweg", 
      "lonmin": 4.881297347627783, 
      "sanName": "kromvenweg", 
      "numOfAddr": 2, 
      "lonmax": 4.881351991386327, 
      "latmin": 51.38462149756636
    }, 
    {
      "latmax": 51.353527143254624, 
      "name": "Kweekstraat", 
      "lonmin": 4.8235794903887035, 
      "sanName": "kweekstraat", 
      "numOfAddr": 18, 
      "lonmax": 4.825594903498292, 
      "latmin": 51.352020400318814
    }, 
    {
      "latmax": 51.3590011146579, 
      "name": "Langstraat", 
      "lonmin": 4.872781350745962, 
      "sanName": "langstraat", 
      "numOfAddr": 8, 
      "lonmax": 4.893160653121826, 
      "latmin": 51.357209786793454
    }, 
    {
      "latmax": 51.358508145847466, 
      "name": "Leest", 
      "lonmin": 4.856404627489179, 
      "sanName": "leest", 
      "numOfAddr": 84, 
      "lonmax": 4.864046370679538, 
      "latmin": 51.35391930049168
    }, 
    {
      "latmax": 51.35790326100955, 
      "name": "Leopoldstraat", 
      "lonmin": 4.86344761005141, 
      "sanName": "leopoldstraat", 
      "numOfAddr": 64, 
      "lonmax": 4.86529898609472, 
      "latmin": 51.35428077276855
    }, 
    {
      "latmax": 51.36281694047677, 
      "name": "Lievekenshoek", 
      "lonmin": 4.897986043021721, 
      "sanName": "lievekenshoek", 
      "numOfAddr": 8, 
      "lonmax": 4.903807654915977, 
      "latmin": 51.36038682864882
    }, 
    {
      "latmax": 51.359339611377045, 
      "name": "Lindendijk", 
      "lonmin": 4.86437718740521, 
      "sanName": "lindendijk", 
      "numOfAddr": 2, 
      "lonmax": 4.864403509912706, 
      "latmin": 51.35927712399364
    }, 
    {
      "latmax": 51.39990252042485, 
      "name": "Lipseinde", 
      "lonmin": 4.8891695843786644, 
      "sanName": "lipseinde", 
      "numOfAddr": 33, 
      "lonmax": 4.893823736659622, 
      "latmin": 51.38706859113419
    }, 
    {
      "latmax": 51.388377767594136, 
      "name": "Lipseindedreef", 
      "lonmin": 4.891328509700692, 
      "sanName": "lipseindedreef", 
      "numOfAddr": 14, 
      "lonmax": 4.893876208226885, 
      "latmin": 51.38704623814086
    }, 
    {
      "latmax": 51.37886103813347, 
      "name": "Lochtenberg", 
      "lonmin": 4.836737761448156, 
      "sanName": "lochtenberg", 
      "numOfAddr": 12, 
      "lonmax": 4.854857896106365, 
      "latmin": 51.372329476018365
    }, 
    {
      "latmax": 51.361664356042276, 
      "name": "Looiweg", 
      "lonmin": 4.864424693191217, 
      "sanName": "looiweg", 
      "numOfAddr": 15, 
      "lonmax": 4.86763235241563, 
      "latmin": 51.360979320260114
    }, 
    {
      "latmax": 51.36527551010952, 
      "name": "Marckstraat", 
      "lonmin": 4.896247878655554, 
      "sanName": "marckstraat", 
      "numOfAddr": 10, 
      "lonmax": 4.912695525584606, 
      "latmin": 51.35741655508463
    }, 
    {
      "latmax": 51.358434376249456, 
      "name": "Markt", 
      "lonmin": 4.860522262125784, 
      "sanName": "markt", 
      "numOfAddr": 17, 
      "lonmax": 4.8638505906496965, 
      "latmin": 51.35765990172598
    }, 
    {
      "latmax": 51.34178682158902, 
      "name": "Meyenbos", 
      "lonmin": 4.89103593719795, 
      "sanName": "meyenbos", 
      "numOfAddr": 9, 
      "lonmax": 4.8967321998610185, 
      "latmin": 51.33737899519098
    }, 
    {
      "latmax": 51.350515468999255, 
      "name": "Mierenweg", 
      "lonmin": 4.84284390922334, 
      "sanName": "mierenweg", 
      "numOfAddr": 10, 
      "lonmax": 4.8449264010633915, 
      "latmin": 51.34931517535921
    }, 
    {
      "latmax": 51.35282143713173, 
      "name": "Moerstraat", 
      "lonmin": 4.866630180935671, 
      "sanName": "moerstraat", 
      "numOfAddr": 10, 
      "lonmax": 4.867476052711868, 
      "latmin": 51.34511549887562
    }, 
    {
      "latmax": 51.359143158837945, 
      "name": "Molekensstraat", 
      "lonmin": 4.8660392368241405, 
      "sanName": "molekensstraat", 
      "numOfAddr": 24, 
      "lonmax": 4.867528274828694, 
      "latmin": 51.35809910225208
    }, 
    {
      "latmax": 51.36298531006207, 
      "name": "Molendries", 
      "lonmin": 4.853068159081664, 
      "sanName": "molendries", 
      "numOfAddr": 36, 
      "lonmax": 4.856003859188499, 
      "latmin": 51.360757130087485
    }, 
    {
      "latmax": 51.36177410911069, 
      "name": "Molenpolder", 
      "lonmin": 4.855289720300771, 
      "sanName": "molenpolder", 
      "numOfAddr": 10, 
      "lonmax": 4.856152969861645, 
      "latmin": 51.361100045482644
    }, 
    {
      "latmax": 51.36111479565886, 
      "name": "Molenvloed", 
      "lonmin": 4.854387034870669, 
      "sanName": "molenvloed", 
      "numOfAddr": 13, 
      "lonmax": 4.855915792004446, 
      "latmin": 51.36041898678499
    }, 
    {
      "latmax": 51.36090288060262, 
      "name": "Molenweg", 
      "lonmin": 4.850461847841103, 
      "sanName": "molenweg", 
      "numOfAddr": 10, 
      "lonmax": 4.8513601738484216, 
      "latmin": 51.359764058121364
    }, 
    {
      "latmax": 51.35989662003302, 
      "name": "Molenzijde", 
      "lonmin": 4.842818372395765, 
      "sanName": "molenzijde", 
      "numOfAddr": 116, 
      "lonmax": 4.855682976898559, 
      "latmin": 51.35743409931371
    }, 
    {
      "latmax": 51.37029149776968, 
      "name": "Molenzijdse Heide", 
      "lonmin": 4.834995284009143, 
      "sanName": "molenzijdseheide", 
      "numOfAddr": 3, 
      "lonmax": 4.838567472328352, 
      "latmin": 51.3686519806608
    }, 
    {
      "latmax": 51.34968451457816, 
      "name": "Nachtegaalstraat", 
      "lonmin": 4.855093152801074, 
      "sanName": "nachtegaalstraat", 
      "numOfAddr": 7, 
      "lonmax": 4.862613167510711, 
      "latmin": 51.342422555252526
    }, 
    {
      "latmax": 51.35912259520685, 
      "name": "Nijverheidsstraat", 
      "lonmin": 4.831592955852679, 
      "sanName": "nijverheidsstraat", 
      "numOfAddr": 6, 
      "lonmax": 4.833601915665645, 
      "latmin": 51.357336291799854
    }, 
    {
      "latmax": 51.357992774203275, 
      "name": "Opstal", 
      "lonmin": 4.872328031907289, 
      "sanName": "opstal", 
      "numOfAddr": 44, 
      "lonmax": 4.879113373722347, 
      "latmin": 51.35015286460371
    }, 
    {
      "latmax": 51.36288671019163, 
      "name": "Ossenhout", 
      "lonmin": 4.874242132341866, 
      "sanName": "ossenhout", 
      "numOfAddr": 3, 
      "lonmax": 4.877947897971788, 
      "latmin": 51.36033406255915
    }, 
    {
      "latmax": 51.351354255303235, 
      "name": "Ossenweg", 
      "lonmin": 4.8269732397524825, 
      "sanName": "ossenweg", 
      "numOfAddr": 3, 
      "lonmax": 4.827309892880256, 
      "latmin": 51.35021218520412
    }, 
    {
      "latmax": 51.40007858243286, 
      "name": "Oude Baan", 
      "lonmin": 4.860941430285243, 
      "sanName": "oudebaan", 
      "numOfAddr": 14, 
      "lonmax": 4.883195147449397, 
      "latmin": 51.377372431719046
    }, 
    {
      "latmax": 51.39427669122172, 
      "name": "Pampa", 
      "lonmin": 4.837402890013136, 
      "sanName": "pampa", 
      "numOfAddr": 4, 
      "lonmax": 4.8399543681146735, 
      "latmin": 51.392216339894276
    }, 
    {
      "latmax": 51.39103635239672, 
      "name": "Pampaweg", 
      "lonmin": 4.8416598354105, 
      "sanName": "pampaweg", 
      "numOfAddr": 11, 
      "lonmax": 4.847662196793098, 
      "latmin": 51.38799922045622
    }, 
    {
      "latmax": 51.36705365433551, 
      "name": "Pannenhuisstraat", 
      "lonmin": 4.844872046059903, 
      "sanName": "pannenhuisstraat", 
      "numOfAddr": 28, 
      "lonmax": 4.848312180684252, 
      "latmin": 51.364306321766676
    }, 
    {
      "latmax": 51.36002061179036, 
      "name": "Pastoor Ceulemansstraat", 
      "lonmin": 4.858432641014399, 
      "sanName": "pastoorceulemansstraat", 
      "numOfAddr": 15, 
      "lonmax": 4.861368685982521, 
      "latmin": 51.359122069009345
    }, 
    {
      "latmax": 51.36155328191014, 
      "name": "Pastorijstraat", 
      "lonmin": 4.859061715603717, 
      "sanName": "pastorijstraat", 
      "numOfAddr": 33, 
      "lonmax": 4.862961016557144, 
      "latmin": 51.3594001769799
    }, 
    {
      "latmax": 51.353435526665976, 
      "name": "Pijlstraat", 
      "lonmin": 4.8684255779208465, 
      "sanName": "pijlstraat", 
      "numOfAddr": 9, 
      "lonmax": 4.869131866535084, 
      "latmin": 51.35304995852893
    }, 
    {
      "latmax": 51.362303249105935, 
      "name": "Ploegstraat", 
      "lonmin": 4.8436330872414874, 
      "sanName": "ploegstraat", 
      "numOfAddr": 34, 
      "lonmax": 4.8461737324150045, 
      "latmin": 51.36036700248286
    }, 
    {
      "latmax": 51.35817735747234, 
      "name": "Prinsenstraat", 
      "lonmin": 4.8673643012089265, 
      "sanName": "prinsenstraat", 
      "numOfAddr": 8, 
      "lonmax": 4.867937289393214, 
      "latmin": 51.35760333925447
    }, 
    {
      "latmax": 51.358825365506696, 
      "name": "Renier Sniedersstraat", 
      "lonmin": 4.851062774460288, 
      "sanName": "reniersniedersstraat", 
      "numOfAddr": 19, 
      "lonmax": 4.853560393988168, 
      "latmin": 51.358038105306726
    }, 
    {
      "latmax": 51.354706793429436, 
      "name": "Rode Dreef", 
      "lonmin": 4.830716199353725, 
      "sanName": "rodedreef", 
      "numOfAddr": 2, 
      "lonmax": 4.831275865871749, 
      "latmin": 51.35462278275302
    }, 
    {
      "latmax": 51.356890449300586, 
      "name": "Rodenbachstraat", 
      "lonmin": 4.860034525828055, 
      "sanName": "rodenbachstraat", 
      "numOfAddr": 20, 
      "lonmax": 4.8609397255642515, 
      "latmin": 51.35599805298846
    }, 
    {
      "latmax": 51.36472107027303, 
      "name": "Rozenhofstraat", 
      "lonmin": 4.8512557661625095, 
      "sanName": "rozenhofstraat", 
      "numOfAddr": 11, 
      "lonmax": 4.852447074617525, 
      "latmin": 51.36382340829906
    }, 
    {
      "latmax": 51.35880106676028, 
      "name": "Rubensstraat", 
      "lonmin": 4.868382539176463, 
      "sanName": "rubensstraat", 
      "numOfAddr": 13, 
      "lonmax": 4.870964889672856, 
      "latmin": 51.35796243594809
    }, 
    {
      "latmax": 51.3998328344116, 
      "name": "Scarphoutdreef", 
      "lonmin": 4.845823386678884, 
      "sanName": "scarphoutdreef", 
      "numOfAddr": 14, 
      "lonmax": 4.847748186290595, 
      "latmin": 51.397084533093654
    }, 
    {
      "latmax": 51.39448913051774, 
      "name": "Schaddekot", 
      "lonmin": 4.880691038577435, 
      "sanName": "schaddekot", 
      "numOfAddr": 5, 
      "lonmax": 4.890235843823742, 
      "latmin": 51.39185280105145
    }, 
    {
      "latmax": 51.351894246506745, 
      "name": "Schoondreef", 
      "lonmin": 4.884998845775935, 
      "sanName": "schoondreef", 
      "numOfAddr": 24, 
      "lonmax": 4.887521522241673, 
      "latmin": 51.348017549111916
    }, 
    {
      "latmax": 51.3642133069603, 
      "name": "Schuivenoord", 
      "lonmin": 4.8480044800192665, 
      "sanName": "schuivenoord", 
      "numOfAddr": 30, 
      "lonmax": 4.850274226315784, 
      "latmin": 51.36274830646063
    }, 
    {
      "latmax": 51.35931342765425, 
      "name": "Schuttershofstraat", 
      "lonmin": 4.856521192387567, 
      "sanName": "schuttershofstraat", 
      "numOfAddr": 48, 
      "lonmax": 4.862058132105956, 
      "latmin": 51.3579044912908
    }, 
    {
      "latmax": 51.36104843304158, 
      "name": "Sint Michielstraat", 
      "lonmin": 4.867594917590958, 
      "sanName": "sintmichielstraat", 
      "numOfAddr": 24, 
      "lonmax": 4.868516430099644, 
      "latmin": 51.35770454223516
    }, 
    {
      "latmax": 51.36095188896679, 
      "name": "Sint Rochusstraat", 
      "lonmin": 4.858365621304904, 
      "sanName": "sintrochusstraat", 
      "numOfAddr": 10, 
      "lonmax": 4.859799112810219, 
      "latmin": 51.36047230573415
    }, 
    {
      "latmax": 51.35445583131435, 
      "name": "Sint Sebastiaanstraat", 
      "lonmin": 4.867892598430451, 
      "sanName": "sintsebastiaanstraat", 
      "numOfAddr": 41, 
      "lonmax": 4.872086233721747, 
      "latmin": 51.352420427118226
    }, 
    {
      "latmax": 51.358423707744166, 
      "name": "Sint Willebrordusstraat", 
      "lonmin": 4.866930916228965, 
      "sanName": "sintwillebrordusstraat", 
      "numOfAddr": 10, 
      "lonmax": 4.867462228150812, 
      "latmin": 51.35787500618025
    }, 
    {
      "latmax": 51.370500634177645, 
      "name": "Slagmolenstraat", 
      "lonmin": 4.849192810778415, 
      "sanName": "slagmolenstraat", 
      "numOfAddr": 13, 
      "lonmax": 4.856080582391354, 
      "latmin": 51.36762498670178
    }, 
    {
      "latmax": 51.3692602924362, 
      "name": "Sparrenstraat", 
      "lonmin": 4.841432852197998, 
      "sanName": "sparrenstraat", 
      "numOfAddr": 13, 
      "lonmax": 4.843636908994365, 
      "latmin": 51.36747181206873
    }, 
    {
      "latmax": 51.404255702655405, 
      "name": "Staakheuvel", 
      "lonmin": 4.845957659488881, 
      "sanName": "staakheuvel", 
      "numOfAddr": 3, 
      "lonmax": 4.846558418132517, 
      "latmin": 51.403288074062935
    }, 
    {
      "latmax": 51.3516093480434, 
      "name": "Steenovendreef", 
      "lonmin": 4.883557369274403, 
      "sanName": "steenovendreef", 
      "numOfAddr": 6, 
      "lonmax": 4.884992093403981, 
      "latmin": 51.35033435663866
    }, 
    {
      "latmax": 51.35384326663658, 
      "name": "Steenweg op Beerse", 
      "lonmin": 4.858307519002296, 
      "sanName": "steenwegopbeerse", 
      "numOfAddr": 120, 
      "lonmax": 4.8645804817966445, 
      "latmin": 51.33965519999609
    }, 
    {
      "latmax": 51.38030800119008, 
      "name": "Steenweg op Hoogstraten", 
      "lonmin": 4.829148466092394, 
      "sanName": "steenwegophoogstraten", 
      "numOfAddr": 135, 
      "lonmax": 4.8590203088133945, 
      "latmin": 51.3621150710269
    }, 
    {
      "latmax": 51.35686213657409, 
      "name": "Steenweg op Rijkevorsel", 
      "lonmin": 4.813891573381308, 
      "sanName": "steenwegoprijkevorsel", 
      "numOfAddr": 64, 
      "lonmax": 4.841245650352455, 
      "latmin": 51.34939461025387
    }, 
    {
      "latmax": 51.35440594980069, 
      "name": "Steenweg op Turnhout", 
      "lonmin": 4.864571281079517, 
      "sanName": "steenwegopturnhout", 
      "numOfAddr": 156, 
      "lonmax": 4.89738102918608, 
      "latmin": 51.34142604797686
    }, 
    {
      "latmax": 51.38833508976317, 
      "name": "Steenweg op Weelde", 
      "lonmin": 4.8645909298796415, 
      "sanName": "steenwegopweelde", 
      "numOfAddr": 38, 
      "lonmax": 4.910993740165862, 
      "latmin": 51.362254175889625
    }, 
    {
      "latmax": 51.359403693065076, 
      "name": "Steenweg op Wortel", 
      "lonmin": 4.827444762947449, 
      "sanName": "steenwegopwortel", 
      "numOfAddr": 7, 
      "lonmax": 4.830669062848688, 
      "latmin": 51.35404597579647
    }, 
    {
      "latmax": 51.36556463093797, 
      "name": "Stenbaeten", 
      "lonmin": 4.848916084477295, 
      "sanName": "stenbaeten", 
      "numOfAddr": 25, 
      "lonmax": 4.851566000055822, 
      "latmin": 51.36433821085696
    }, 
    {
      "latmax": 51.36223781057382, 
      "name": "Stoopsstraat", 
      "lonmin": 4.846459527480921, 
      "sanName": "stoopsstraat", 
      "numOfAddr": 18, 
      "lonmax": 4.847776571033736, 
      "latmin": 51.360236458131894
    }, 
    {
      "latmax": 51.400409489105506, 
      "name": "Strikkevenweg", 
      "lonmin": 4.860378770976535, 
      "sanName": "strikkevenweg", 
      "numOfAddr": 13, 
      "lonmax": 4.86353894738754, 
      "latmin": 51.39797983487552
    }, 
    {
      "latmax": 51.39850068565938, 
      "name": "Strikkeweg", 
      "lonmin": 4.859240661353253, 
      "sanName": "strikkeweg", 
      "numOfAddr": 25, 
      "lonmax": 4.886793367434622, 
      "latmin": 51.394184079999945
    }, 
    {
      "latmax": 51.35902554937374, 
      "name": "Taxandrialaan", 
      "lonmin": 4.853173046141374, 
      "sanName": "taxandrialaan", 
      "numOfAddr": 13, 
      "lonmax": 4.854265198853078, 
      "latmin": 51.35746038419427
    }, 
    {
      "latmax": 51.358224308029726, 
      "name": "Teniersstraat", 
      "lonmin": 4.869716519501547, 
      "sanName": "teniersstraat", 
      "numOfAddr": 3, 
      "lonmax": 4.870307543674727, 
      "latmin": 51.35797892638488
    }, 
    {
      "latmax": 51.39446105737811, 
      "name": "Turfkot", 
      "lonmin": 4.8700775203706135, 
      "sanName": "turfkot", 
      "numOfAddr": 8, 
      "lonmax": 4.871625890282934, 
      "latmin": 51.39328934750634
    }, 
    {
      "latmax": 51.363815538148245, 
      "name": "Vaartstraat", 
      "lonmin": 4.841673726557641, 
      "sanName": "vaartstraat", 
      "numOfAddr": 55, 
      "lonmax": 4.8450587424748095, 
      "latmin": 51.35794291878864
    }, 
    {
      "latmax": 51.37403556912014, 
      "name": "Veldenbergstraat", 
      "lonmin": 4.832145571981816, 
      "sanName": "veldenbergstraat", 
      "numOfAddr": 81, 
      "lonmax": 4.8529072859709315, 
      "latmin": 51.36031364740321
    }, 
    {
      "latmax": 51.37895035319068, 
      "name": "Veldenstraat", 
      "lonmin": 4.853202540239233, 
      "sanName": "veldenstraat", 
      "numOfAddr": 2, 
      "lonmax": 4.8543352204101025, 
      "latmin": 51.37854548120754
    }, 
    {
      "latmax": 51.388817503028875, 
      "name": "Verbindingsstraat", 
      "lonmin": 4.892162833601928, 
      "sanName": "verbindingsstraat", 
      "numOfAddr": 4, 
      "lonmax": 4.894867971096246, 
      "latmin": 51.38788716917014
    }, 
    {
      "latmax": 51.361116475709885, 
      "name": "Vissersstraat", 
      "lonmin": 4.848823141497328, 
      "sanName": "vissersstraat", 
      "numOfAddr": 14, 
      "lonmax": 4.849763550346866, 
      "latmin": 51.36012482210624
    }, 
    {
      "latmax": 51.341034763156806, 
      "name": "Vogelzangstraat", 
      "lonmin": 4.850933963000788, 
      "sanName": "vogelzangstraat", 
      "numOfAddr": 7, 
      "lonmax": 4.8586049543133445, 
      "latmin": 51.33994094675406
    }, 
    {
      "latmax": 51.36361682364516, 
      "name": "Vondelweg", 
      "lonmin": 4.865617690236268, 
      "sanName": "vondelweg", 
      "numOfAddr": 9, 
      "lonmax": 4.870234506659945, 
      "latmin": 51.36176559611584
    }, 
    {
      "latmax": 51.358063574979, 
      "name": "Vredestraat", 
      "lonmin": 4.864990842791742, 
      "sanName": "vredestraat", 
      "numOfAddr": 13, 
      "lonmax": 4.865776245595713, 
      "latmin": 51.35701798075584
    }, 
    {
      "latmax": 51.36023192232496, 
      "name": "Wanmolenstraat", 
      "lonmin": 4.842841806165575, 
      "sanName": "wanmolenstraat", 
      "numOfAddr": 21, 
      "lonmax": 4.84384832620363, 
      "latmin": 51.358856570656
    }, 
    {
      "latmax": 51.35767812952764, 
      "name": "Werfstraat", 
      "lonmin": 4.879576353186134, 
      "sanName": "werfstraat", 
      "numOfAddr": 16, 
      "lonmax": 4.884653473956222, 
      "latmin": 51.35418220701093
    }, 
    {
      "latmax": 51.36533176609743, 
      "name": "Wijntuinstraat", 
      "lonmin": 4.85835963672375, 
      "sanName": "wijntuinstraat", 
      "numOfAddr": 45, 
      "lonmax": 4.862584890340685, 
      "latmin": 51.36181803891373
    }, 
    {
      "latmax": 51.35723050252569, 
      "name": "Witherenstraat", 
      "lonmin": 4.865942463841839, 
      "sanName": "witherenstraat", 
      "numOfAddr": 7, 
      "lonmax": 4.867048051363097, 
      "latmin": 51.35683506572016
    }, 
    {
      "latmax": 51.40628529255037, 
      "name": "Witte-keiweg", 
      "lonmin": 4.852220982484354, 
      "sanName": "wittekeiweg", 
      "numOfAddr": 5, 
      "lonmax": 4.85310209342797, 
      "latmin": 51.403839889721795
    }, 
    {
      "latmax": 51.35230461297287, 
      "name": "Wolfstraat", 
      "lonmin": 4.887570466993009, 
      "sanName": "wolfstraat", 
      "numOfAddr": 18, 
      "lonmax": 4.888921898248255, 
      "latmin": 51.345736776907565
    }, 
    {
      "latmax": 51.40023223627682, 
      "name": "Wortelbaan", 
      "lonmin": 4.844243111516383, 
      "sanName": "wortelbaan", 
      "numOfAddr": 18, 
      "lonmax": 4.855900306929801, 
      "latmin": 51.397591896841135
    }, 
    {
      "latmax": 51.35839892464367, 
      "name": "Zoete Inval", 
      "lonmin": 4.8342708736183315, 
      "sanName": "zoeteinval", 
      "numOfAddr": 8, 
      "lonmax": 4.834824681651234, 
      "latmin": 51.35830295351005
    }, 
    {
      "latmax": 51.38588771362735, 
      "name": "Zwart Goor", 
      "lonmin": 4.884515125828496, 
      "sanName": "zwartgoor", 
      "numOfAddr": 2, 
      "lonmax": 4.887394107168465, 
      "latmin": 51.382871775205345
    }, 
    {
      "latmax": 51.39922181633003, 
      "name": "Zwartwaterweg", 
      "lonmin": 4.83924167451639, 
      "sanName": "zwartwaterweg", 
      "numOfAddr": 39, 
      "lonmax": 4.850794231043, 
      "latmin": 51.39558956075528
    }
  ]
}