{
  "streets": [
    {
      "latmax": 51.317883631274675, 
      "name": "Aanbeeldstraat", 
      "lonmin": 4.847106841070542, 
      "sanName": "aanbeeldstraat", 
      "numOfAddr": 10, 
      "lonmax": 4.847892220648875, 
      "latmin": 51.317052341535536
    }, 
    {
      "latmax": 51.31597379123812, 
      "name": "Abdijstraat", 
      "lonmin": 4.857144513388979, 
      "sanName": "abdijstraat", 
      "numOfAddr": 21, 
      "lonmax": 4.8600170649146754, 
      "latmin": 51.315228194865156
    }, 
    {
      "latmax": 51.32662224229925, 
      "name": "Absheide", 
      "lonmin": 4.813407222282821, 
      "sanName": "absheide", 
      "numOfAddr": 28, 
      "lonmax": 4.8234920030240085, 
      "latmin": 51.324140597872436
    }, 
    {
      "latmax": 51.32268943027395, 
      "name": "Akkerdries", 
      "lonmin": 4.847270982709767, 
      "sanName": "akkerdries", 
      "numOfAddr": 24, 
      "lonmax": 4.849724908233436, 
      "latmin": 51.32110326190403
    }, 
    {
      "latmax": 51.305570472365666, 
      "name": "Akkerschootstraat", 
      "lonmin": 4.852078696378857, 
      "sanName": "akkerschootstraat", 
      "numOfAddr": 10, 
      "lonmax": 4.852855556246247, 
      "latmin": 51.30377563531966
    }, 
    {
      "latmax": 51.3229484975628, 
      "name": "Albertstraat", 
      "lonmin": 4.856711284980541, 
      "sanName": "albertstraat", 
      "numOfAddr": 12, 
      "lonmax": 4.8586559432677054, 
      "latmin": 51.32204452930965
    }, 
    {
      "latmax": 51.303782197386916, 
      "name": "Ambachtstraat", 
      "lonmin": 4.832658797257378, 
      "sanName": "ambachtstraat", 
      "numOfAddr": 25, 
      "lonmax": 4.8351712594207505, 
      "latmin": 51.29880257982417
    }, 
    {
      "latmax": 51.325231842326964, 
      "name": "Anjerstraat", 
      "lonmin": 4.864914082222738, 
      "sanName": "anjerstraat", 
      "numOfAddr": 23, 
      "lonmax": 4.86819776257454, 
      "latmin": 51.32465970438946
    }, 
    {
      "latmax": 51.31072224848266, 
      "name": "Antwerpseweg", 
      "lonmin": 4.773499509407229, 
      "sanName": "antwerpseweg", 
      "numOfAddr": 161, 
      "lonmax": 4.855693372901982, 
      "latmin": 51.30035768887488
    }, 
    {
      "latmax": 51.3202270203816, 
      "name": "Asterstraat", 
      "lonmin": 4.866985481660786, 
      "sanName": "asterstraat", 
      "numOfAddr": 29, 
      "lonmax": 4.869645627061027, 
      "latmin": 51.31971594974571
    }, 
    {
      "latmax": 51.31037507156251, 
      "name": "Bareelstraat", 
      "lonmin": 4.8332617615526745, 
      "sanName": "bareelstraat", 
      "numOfAddr": 31, 
      "lonmax": 4.839277900215674, 
      "latmin": 51.307443065183406
    }, 
    {
      "latmax": 51.32426710493631, 
      "name": "Beekakkersstraat", 
      "lonmin": 4.840324159785786, 
      "sanName": "beekakkersstraat", 
      "numOfAddr": 136, 
      "lonmax": 4.85228135218653, 
      "latmin": 51.32170669534067
    }, 
    {
      "latmax": 51.30338738462713, 
      "name": "Beemdenstraat", 
      "lonmin": 4.830989494824321, 
      "sanName": "beemdenstraat", 
      "numOfAddr": 17, 
      "lonmax": 4.832572566048114, 
      "latmin": 51.2983244325921
    }, 
    {
      "latmax": 51.310825037993084, 
      "name": "Beersedijk", 
      "lonmin": 4.791749847776067, 
      "sanName": "beersedijk", 
      "numOfAddr": 1, 
      "lonmax": 4.791749847776067, 
      "latmin": 51.310825037993084
    }, 
    {
      "latmax": 51.306939716524234, 
      "name": "Berenlaan", 
      "lonmin": 4.856784224459517, 
      "sanName": "berenlaan", 
      "numOfAddr": 20, 
      "lonmax": 4.857926288615889, 
      "latmin": 51.30421198463736
    }, 
    {
      "latmax": 51.29202676094442, 
      "name": "Bergmolen", 
      "lonmin": 4.778618116083281, 
      "sanName": "bergmolen", 
      "numOfAddr": 9, 
      "lonmax": 4.779392780350972, 
      "latmin": 51.29123144723961
    }, 
    {
      "latmax": 51.31942933948493, 
      "name": "Beukenlaan", 
      "lonmin": 4.866542674880509, 
      "sanName": "beukenlaan", 
      "numOfAddr": 20, 
      "lonmax": 4.870916354039995, 
      "latmin": 51.318387908412795
    }, 
    {
      "latmax": 51.3308675388732, 
      "name": "Biehal", 
      "lonmin": 4.851883239156865, 
      "sanName": "biehal", 
      "numOfAddr": 21, 
      "lonmax": 4.854677439045906, 
      "latmin": 51.32955414012516
    }, 
    {
      "latmax": 51.3062824888177, 
      "name": "Biezenstraat", 
      "lonmin": 4.840329587999619, 
      "sanName": "biezenstraat", 
      "numOfAddr": 1, 
      "lonmax": 4.840329587999619, 
      "latmin": 51.3062824888177
    }, 
    {
      "latmax": 51.31898942992984, 
      "name": "Bisschopslaan", 
      "lonmin": 4.854459074094828, 
      "sanName": "bisschopslaan", 
      "numOfAddr": 74, 
      "lonmax": 4.857833728256348, 
      "latmin": 51.31066536955976
    }, 
    {
      "latmax": 51.34212630307891, 
      "name": "Blakheide", 
      "lonmin": 4.800328882383111, 
      "sanName": "blakheide", 
      "numOfAddr": 9, 
      "lonmax": 4.8079246994001945, 
      "latmin": 51.33586688507234
    }, 
    {
      "latmax": 51.29924298895219, 
      "name": "Bloemenstraat", 
      "lonmin": 4.781983806630599, 
      "sanName": "bloemenstraat", 
      "numOfAddr": 16, 
      "lonmax": 4.782956505717698, 
      "latmin": 51.298092330191736
    }, 
    {
      "latmax": 51.31544016825983, 
      "name": "Blokjesstraat", 
      "lonmin": 4.862154028408326, 
      "sanName": "blokjesstraat", 
      "numOfAddr": 8, 
      "lonmax": 4.863773311672251, 
      "latmin": 51.3148945088634
    }, 
    {
      "latmax": 51.301452692213566, 
      "name": "Boogstraat", 
      "lonmin": 4.781990625482091, 
      "sanName": "boogstraat", 
      "numOfAddr": 6, 
      "lonmax": 4.782542589465443, 
      "latmin": 51.30046948558599
    }, 
    {
      "latmax": 51.31385298885177, 
      "name": "Bosduifstraat", 
      "lonmin": 4.780484046684123, 
      "sanName": "bosduifstraat", 
      "numOfAddr": 7, 
      "lonmax": 4.784755136501124, 
      "latmin": 51.313257269449515
    }, 
    {
      "latmax": 51.32237992574608, 
      "name": "Boterbloemstraat", 
      "lonmin": 4.867207303838583, 
      "sanName": "boterbloemstraat", 
      "numOfAddr": 23, 
      "lonmax": 4.868066546870421, 
      "latmin": 51.320801835321085
    }, 
    {
      "latmax": 51.32235940957739, 
      "name": "Boudewijnstraat", 
      "lonmin": 4.850756083763219, 
      "sanName": "boudewijnstraat", 
      "numOfAddr": 73, 
      "lonmax": 4.8555881964731995, 
      "latmin": 51.31918663372805
    }, 
    {
      "latmax": 51.315869630795575, 
      "name": "Bremstraat", 
      "lonmin": 4.863709665922455, 
      "sanName": "bremstraat", 
      "numOfAddr": 42, 
      "lonmax": 4.8680703819022915, 
      "latmin": 51.31287668995171
    }, 
    {
      "latmax": 51.31756944524939, 
      "name": "Brugstraat", 
      "lonmin": 4.845006550899409, 
      "sanName": "brugstraat", 
      "numOfAddr": 51, 
      "lonmax": 4.850530081122583, 
      "latmin": 51.31220408426746
    }, 
    {
      "latmax": 51.32576837587759, 
      "name": "Busselen", 
      "lonmin": 4.846472371749207, 
      "sanName": "busselen", 
      "numOfAddr": 32, 
      "lonmax": 4.854186368878972, 
      "latmin": 51.324175937109395
    }, 
    {
      "latmax": 51.29445625583416, 
      "name": "d'Aeste Beemden", 
      "lonmin": 4.772716331899987, 
      "sanName": "daestebeemden", 
      "numOfAddr": 1, 
      "lonmax": 4.772716331899987, 
      "latmin": 51.29445625583416
    }, 
    {
      "latmax": 51.287917331585355, 
      "name": "d'Aestenstraat", 
      "lonmin": 4.7718060346244355, 
      "sanName": "daestenstraat", 
      "numOfAddr": 26, 
      "lonmax": 4.777801060306585, 
      "latmin": 51.27967350639612
    }, 
    {
      "latmax": 51.30881206534605, 
      "name": "Dageraadlaan", 
      "lonmin": 4.850419807356378, 
      "sanName": "dageraadlaan", 
      "numOfAddr": 15, 
      "lonmax": 4.851523447531509, 
      "latmin": 51.30240801999111
    }, 
    {
      "latmax": 51.32237389058801, 
      "name": "Daliastraat", 
      "lonmin": 4.865602115467247, 
      "sanName": "daliastraat", 
      "numOfAddr": 15, 
      "lonmax": 4.866255851625991, 
      "latmin": 51.32094820748943
    }, 
    {
      "latmax": 51.29799894529028, 
      "name": "Deken Verhulststraat", 
      "lonmin": 4.7792226696206255, 
      "sanName": "dekenverhulststraat", 
      "numOfAddr": 30, 
      "lonmax": 4.780933713772082, 
      "latmin": 51.295892779318486
    }, 
    {
      "latmax": 51.313576098898174, 
      "name": "den Abt", 
      "lonmin": 4.778569908127149, 
      "sanName": "denabt", 
      "numOfAddr": 144, 
      "lonmax": 4.79426552811191, 
      "latmin": 51.308952381783286
    }, 
    {
      "latmax": 51.30321215084763, 
      "name": "Dennenlaan", 
      "lonmin": 4.841329442017446, 
      "sanName": "dennenlaan", 
      "numOfAddr": 10, 
      "lonmax": 4.847595236054857, 
      "latmin": 51.30124601024169
    }, 
    {
      "latmax": 51.33047719798433, 
      "name": "Dijkstraat", 
      "lonmin": 4.870551173023633, 
      "sanName": "dijkstraat", 
      "numOfAddr": 26, 
      "lonmax": 4.890753204770475, 
      "latmin": 51.327733047457805
    }, 
    {
      "latmax": 51.29728254136374, 
      "name": "Dorpstraat", 
      "lonmin": 4.778586661424298, 
      "sanName": "dorpstraat", 
      "numOfAddr": 12, 
      "lonmax": 4.779630647995616, 
      "latmin": 51.29547893108409
    }, 
    {
      "latmax": 51.31427431678542, 
      "name": "Driesplein", 
      "lonmin": 4.8590425880444466, 
      "sanName": "driesplein", 
      "numOfAddr": 34, 
      "lonmax": 4.861173492309111, 
      "latmin": 51.31208291233418
    }, 
    {
      "latmax": 51.32480426789803, 
      "name": "Dr. Paul Janssenstraat", 
      "lonmin": 4.8721126903115906, 
      "sanName": "drpauljanssenstraat", 
      "numOfAddr": 21, 
      "lonmax": 4.874084891672921, 
      "latmin": 51.320037571951225
    }, 
    {
      "latmax": 51.32787119330463, 
      "name": "Duivenhoek", 
      "lonmin": 4.82464043410509, 
      "sanName": "duivenhoek", 
      "numOfAddr": 2, 
      "lonmax": 4.8248046567662195, 
      "latmin": 51.32772954346623
    }, 
    {
      "latmax": 51.32395320464094, 
      "name": "Edward Woutersstraat", 
      "lonmin": 4.8727845923647966, 
      "sanName": "edwardwoutersstraat", 
      "numOfAddr": 1, 
      "lonmax": 4.8727845923647966, 
      "latmin": 51.32395320464094
    }, 
    {
      "latmax": 51.31748661867865, 
      "name": "Eekhoornstraat", 
      "lonmin": 4.788770847184926, 
      "sanName": "eekhoornstraat", 
      "numOfAddr": 14, 
      "lonmax": 4.792442531889632, 
      "latmin": 51.31691059266609
    }, 
    {
      "latmax": 51.31649789850399, 
      "name": "Eendenstraat", 
      "lonmin": 4.785420981800403, 
      "sanName": "eendenstraat", 
      "numOfAddr": 19, 
      "lonmax": 4.79244216786255, 
      "latmin": 51.31583768923021
    }, 
    {
      "latmax": 51.313981850629354, 
      "name": "Egelspoelstraat", 
      "lonmin": 4.846673290514922, 
      "sanName": "egelspoelstraat", 
      "numOfAddr": 37, 
      "lonmax": 4.851026285078499, 
      "latmin": 51.311228612478146
    }, 
    {
      "latmax": 51.318615483944114, 
      "name": "Eikenstraat", 
      "lonmin": 4.8640948084337845, 
      "sanName": "eikenstraat", 
      "numOfAddr": 41, 
      "lonmax": 4.866595747107189, 
      "latmin": 51.314286193616795
    }, 
    {
      "latmax": 51.31655250287577, 
      "name": "Eindeloop", 
      "lonmin": 4.869832760413095, 
      "sanName": "eindeloop", 
      "numOfAddr": 8, 
      "lonmax": 4.8715529989860675, 
      "latmin": 51.31602393215069
    }, 
    {
      "latmax": 51.301373086554406, 
      "name": "Engstraat", 
      "lonmin": 4.782610700229578, 
      "sanName": "engstraat", 
      "numOfAddr": 70, 
      "lonmax": 4.796545490437046, 
      "latmin": 51.29729117507105
    }, 
    {
      "latmax": 51.31830098312978, 
      "name": "Ernest Claesstraat", 
      "lonmin": 4.862792906854161, 
      "sanName": "ernestclaesstraat", 
      "numOfAddr": 7, 
      "lonmax": 4.8645658447395785, 
      "latmin": 51.317831283772534
    }, 
    {
      "latmax": 51.310722849954296, 
      "name": "Europaplein", 
      "lonmin": 4.844442480658639, 
      "sanName": "europaplein", 
      "numOfAddr": 8, 
      "lonmax": 4.845289810078521, 
      "latmin": 51.31024221163566
    }, 
    {
      "latmax": 51.31650894809456, 
      "name": "Fazantenstraat", 
      "lonmin": 4.780277024271652, 
      "sanName": "fazantenstraat", 
      "numOfAddr": 12, 
      "lonmax": 4.783794813396324, 
      "latmin": 51.31574374373388
    }, 
    {
      "latmax": 51.31834568822998, 
      "name": "Felix Timmermansstraat", 
      "lonmin": 4.858480046448949, 
      "sanName": "felixtimmermansstraat", 
      "numOfAddr": 14, 
      "lonmax": 4.859967341772382, 
      "latmin": 51.31704698512463
    }, 
    {
      "latmax": 51.322118669561945, 
      "name": "Frans Lauwersstraat", 
      "lonmin": 4.8710383378009405, 
      "sanName": "franslauwersstraat", 
      "numOfAddr": 18, 
      "lonmax": 4.871817849611913, 
      "latmin": 51.3209782331056
    }, 
    {
      "latmax": 51.327743162907154, 
      "name": "Gammerstraat", 
      "lonmin": 4.8630191582081, 
      "sanName": "gammerstraat", 
      "numOfAddr": 12, 
      "lonmax": 4.863435301235464, 
      "latmin": 51.32722214893386
    }, 
    {
      "latmax": 51.3154140284294, 
      "name": "Ganzenstraat", 
      "lonmin": 4.785170772351014, 
      "sanName": "ganzenstraat", 
      "numOfAddr": 26, 
      "lonmax": 4.793363072916125, 
      "latmin": 51.31451376920934
    }, 
    {
      "latmax": 51.324417401590914, 
      "name": "Gasthuisstraat", 
      "lonmin": 4.855543791041384, 
      "sanName": "gasthuisstraat", 
      "numOfAddr": 69, 
      "lonmax": 4.856597182800458, 
      "latmin": 51.320130927120125
    }, 
    {
      "latmax": 51.31953733824635, 
      "name": "Geelgorsstraat", 
      "lonmin": 4.837558655769963, 
      "sanName": "geelgorsstraat", 
      "numOfAddr": 27, 
      "lonmax": 4.841862088620865, 
      "latmin": 51.3187141029072
    }, 
    {
      "latmax": 51.32001846026805, 
      "name": "Gemeenteplein", 
      "lonmin": 4.855625677767937, 
      "sanName": "gemeenteplein", 
      "numOfAddr": 6, 
      "lonmax": 4.85613907997392, 
      "latmin": 51.31982769931117
    }, 
    {
      "latmax": 51.294552530709275, 
      "name": "Gierledijk", 
      "lonmin": 4.7816633513416065, 
      "sanName": "gierledijk", 
      "numOfAddr": 33, 
      "lonmax": 4.786828104535461, 
      "latmin": 51.293795615670454
    }, 
    {
      "latmax": 51.309836129998736, 
      "name": "Gierleseweg", 
      "lonmin": 4.855262900096192, 
      "sanName": "gierleseweg", 
      "numOfAddr": 30, 
      "lonmax": 4.856807373610539, 
      "latmin": 51.30393740976968
    }, 
    {
      "latmax": 51.30033468170177, 
      "name": "Gildestraat", 
      "lonmin": 4.782275096305472, 
      "sanName": "gildestraat", 
      "numOfAddr": 15, 
      "lonmax": 4.785101693623065, 
      "latmin": 51.2991147662499
    }, 
    {
      "latmax": 51.33150613863174, 
      "name": "Ginnekenshoek", 
      "lonmin": 4.8387629682289806, 
      "sanName": "ginnekenshoek", 
      "numOfAddr": 22, 
      "lonmax": 4.8439456307605635, 
      "latmin": 51.32993708010569
    }, 
    {
      "latmax": 51.30636939814791, 
      "name": "Gooskens", 
      "lonmin": 4.782145552103751, 
      "sanName": "gooskens", 
      "numOfAddr": 5, 
      "lonmax": 4.785242324586503, 
      "latmin": 51.30338216924756
    }, 
    {
      "latmax": 51.32963633436022, 
      "name": "Gorenstraat", 
      "lonmin": 4.876178999051332, 
      "sanName": "gorenstraat", 
      "numOfAddr": 11, 
      "lonmax": 4.876854355397992, 
      "latmin": 51.328267055109485
    }, 
    {
      "latmax": 51.31863274791218, 
      "name": "Grafheuvelstraat", 
      "lonmin": 4.834250272992608, 
      "sanName": "grafheuvelstraat", 
      "numOfAddr": 5, 
      "lonmax": 4.8351952992310885, 
      "latmin": 51.31804088356205
    }, 
    {
      "latmax": 51.31914137039107, 
      "name": "Grotebeekstraat", 
      "lonmin": 4.8447582686698345, 
      "sanName": "grotebeekstraat", 
      "numOfAddr": 28, 
      "lonmax": 4.846114604918701, 
      "latmin": 51.316377607008
    }, 
    {
      "latmax": 51.31769967148208, 
      "name": "Guido Gezellestraat", 
      "lonmin": 4.859288923645836, 
      "sanName": "guidogezellestraat", 
      "numOfAddr": 40, 
      "lonmax": 4.863965754039729, 
      "latmin": 51.316491021576866
    }, 
    {
      "latmax": 51.28412720848261, 
      "name": "Halebeek", 
      "lonmin": 4.832335958915058, 
      "sanName": "halebeek", 
      "numOfAddr": 1, 
      "lonmax": 4.832335958915058, 
      "latmin": 51.28412720848261
    }, 
    {
      "latmax": 51.31517145078913, 
      "name": "Hazenstraat", 
      "lonmin": 4.7798420495978124, 
      "sanName": "hazenstraat", 
      "numOfAddr": 12, 
      "lonmax": 4.784349087509271, 
      "latmin": 51.314247344515955
    }, 
    {
      "latmax": 51.288658458049404, 
      "name": "Heiakker", 
      "lonmin": 4.785789399978429, 
      "sanName": "heiakker", 
      "numOfAddr": 3, 
      "lonmax": 4.786324836864207, 
      "latmin": 51.28784880517437
    }, 
    {
      "latmax": 51.31905797357601, 
      "name": "Heibergstraat", 
      "lonmin": 4.866001664372264, 
      "sanName": "heibergstraat", 
      "numOfAddr": 44, 
      "lonmax": 4.869132732365698, 
      "latmin": 51.31281140949947
    }, 
    {
      "latmax": 51.32677877968895, 
      "name": "Heidestraat", 
      "lonmin": 4.820926498032301, 
      "sanName": "heidestraat", 
      "numOfAddr": 20, 
      "lonmax": 4.824055679402384, 
      "latmin": 51.32474462197232
    }, 
    {
      "latmax": 51.30129048885594, 
      "name": "Heidijk", 
      "lonmin": 4.776703644236682, 
      "sanName": "heidijk", 
      "numOfAddr": 59, 
      "lonmax": 4.78007394688441, 
      "latmin": 51.295464087210036
    }, 
    {
      "latmax": 51.313342402965404, 
      "name": "Hei-ende", 
      "lonmin": 4.776702419364659, 
      "sanName": "heiende", 
      "numOfAddr": 60, 
      "lonmax": 4.781493800253043, 
      "latmin": 51.30235267931217
    }, 
    {
      "latmax": 51.303425619055986, 
      "name": "Heigoed", 
      "lonmin": 4.776590959584688, 
      "sanName": "heigoed", 
      "numOfAddr": 2, 
      "lonmax": 4.776707751145987, 
      "latmin": 51.30300933113482
    }, 
    {
      "latmax": 51.32725829755169, 
      "name": "Heilaarstraat", 
      "lonmin": 4.85421068815618, 
      "sanName": "heilaarstraat", 
      "numOfAddr": 58, 
      "lonmax": 4.857054271325171, 
      "latmin": 51.32437891430641
    }, 
    {
      "latmax": 51.32000530656762, 
      "name": "Heilig-Hartstraat", 
      "lonmin": 4.829173155431282, 
      "sanName": "heilighartstraat", 
      "numOfAddr": 32, 
      "lonmax": 4.830155706903713, 
      "latmin": 51.31697290795464
    }, 
    {
      "latmax": 51.327258291119904, 
      "name": "Heldenweg", 
      "lonmin": 4.819642518633789, 
      "sanName": "heldenweg", 
      "numOfAddr": 21, 
      "lonmax": 4.823215814661006, 
      "latmin": 51.32477573700468
    }, 
    {
      "latmax": 51.312605809640274, 
      "name": "Hemelrijkstraat", 
      "lonmin": 4.840012459199808, 
      "sanName": "hemelrijkstraat", 
      "numOfAddr": 34, 
      "lonmax": 4.8444154844447676, 
      "latmin": 51.31058192664297
    }, 
    {
      "latmax": 51.31881561872211, 
      "name": "Hendrik Consciencestraat", 
      "lonmin": 4.861885722192372, 
      "sanName": "hendrikconsciencestraat", 
      "numOfAddr": 13, 
      "lonmax": 4.8625780775171865, 
      "latmin": 51.31775681601733
    }, 
    {
      "latmax": 51.30949328656107, 
      "name": "Herfststraat", 
      "lonmin": 4.837465570808046, 
      "sanName": "herfststraat", 
      "numOfAddr": 12, 
      "lonmax": 4.83826780982041, 
      "latmin": 51.308624579925045
    }, 
    {
      "latmax": 51.31723640459117, 
      "name": "Hertenstraat", 
      "lonmin": 4.787988075765999, 
      "sanName": "hertenstraat", 
      "numOfAddr": 3, 
      "lonmax": 4.788907453997404, 
      "latmin": 51.31645746279002
    }, 
    {
      "latmax": 51.29767710616186, 
      "name": "Het Laar", 
      "lonmin": 4.782780332737926, 
      "sanName": "hetlaar", 
      "numOfAddr": 56, 
      "lonmax": 4.786080714757242, 
      "latmin": 51.29426135098058
    }, 
    {
      "latmax": 51.31470022460065, 
      "name": "Het Puike", 
      "lonmin": 4.820987956939855, 
      "sanName": "hetpuike", 
      "numOfAddr": 11, 
      "lonmax": 4.822230430082221, 
      "latmin": 51.31342241623993
    }, 
    {
      "latmax": 51.323148087704354, 
      "name": "Hoevestraat", 
      "lonmin": 4.821375376583701, 
      "sanName": "hoevestraat", 
      "numOfAddr": 15, 
      "lonmax": 4.825634628050749, 
      "latmin": 51.31543177780261
    }, 
    {
      "latmax": 51.32353207768661, 
      "name": "Holleweg", 
      "lonmin": 4.830191846424563, 
      "sanName": "holleweg", 
      "numOfAddr": 16, 
      "lonmax": 4.830859753758337, 
      "latmin": 51.321001627717685
    }, 
    {
      "latmax": 51.32193745077539, 
      "name": "Honor\u0082 Aertsstraat", 
      "lonmin": 4.860668282028379, 
      "sanName": "honoraertsstraat", 
      "numOfAddr": 12, 
      "lonmax": 4.861733937632354, 
      "latmin": 51.32140839494832
    }, 
    {
      "latmax": 51.29264802186959, 
      "name": "Hoog Looi", 
      "lonmin": 4.789486121141621, 
      "sanName": "hooglooi", 
      "numOfAddr": 3, 
      "lonmax": 4.7941724065689755, 
      "latmin": 51.291869588751275
    }, 
    {
      "latmax": 51.29558447533484, 
      "name": "Hoogstraat", 
      "lonmin": 4.77776332512752, 
      "sanName": "hoogstraat", 
      "numOfAddr": 20, 
      "lonmax": 4.780908134129832, 
      "latmin": 51.29508441154118
    }, 
    {
      "latmax": 51.324092264733146, 
      "name": "Houtseweg", 
      "lonmin": 4.8338418211396466, 
      "sanName": "houtseweg", 
      "numOfAddr": 153, 
      "lonmax": 4.8494697422661055, 
      "latmin": 51.31947038362341
    }, 
    {
      "latmax": 51.32814956565585, 
      "name": "Huffelenstraat", 
      "lonmin": 4.863616044085936, 
      "sanName": "huffelenstraat", 
      "numOfAddr": 15, 
      "lonmax": 4.864200679369392, 
      "latmin": 51.32752860759539
    }, 
    {
      "latmax": 51.321006147482166, 
      "name": "Hulderakkers", 
      "lonmin": 4.8287583440049335, 
      "sanName": "hulderakkers", 
      "numOfAddr": 7, 
      "lonmax": 4.830136892089818, 
      "latmin": 51.32095172816806
    }, 
    {
      "latmax": 51.32140265226036, 
      "name": "Ijzerstraat", 
      "lonmin": 4.85634875939649, 
      "sanName": "ijzerstraat", 
      "numOfAddr": 16, 
      "lonmax": 4.857597549605247, 
      "latmin": 51.32057850467202
    }, 
    {
      "latmax": 51.30001778471984, 
      "name": "Industrieweg", 
      "lonmin": 4.831345403245893, 
      "sanName": "industrieweg", 
      "numOfAddr": 11, 
      "lonmax": 4.83868000589529, 
      "latmin": 51.29735118165301
    }, 
    {
      "latmax": 51.32433567537339, 
      "name": "Jan Vaertenstraat", 
      "lonmin": 4.871736078063748, 
      "sanName": "janvaertenstraat", 
      "numOfAddr": 13, 
      "lonmax": 4.873549233896009, 
      "latmin": 51.32397773940276
    }, 
    {
      "latmax": 51.321096423518675, 
      "name": "J.B. Bastijnsstraat", 
      "lonmin": 4.862351568461549, 
      "sanName": "jbbastijnsstraat", 
      "numOfAddr": 10, 
      "lonmax": 4.863219907771551, 
      "latmin": 51.320618572830085
    }, 
    {
      "latmax": 51.324919649905745, 
      "name": "Jozef Rommensstraat", 
      "lonmin": 4.857318781575671, 
      "sanName": "jozefrommensstraat", 
      "numOfAddr": 19, 
      "lonmax": 4.858802681659463, 
      "latmin": 51.323519241197914
    }, 
    {
      "latmax": 51.318676838095115, 
      "name": "Jozef Simonsstraat", 
      "lonmin": 4.860677085675504, 
      "sanName": "jozefsimonsstraat", 
      "numOfAddr": 13, 
      "lonmax": 4.8613981149561365, 
      "latmin": 51.31776791475115
    }, 
    {
      "latmax": 51.314935480047716, 
      "name": "Kapellekuilstraat", 
      "lonmin": 4.857589740618579, 
      "sanName": "kapellekuilstraat", 
      "numOfAddr": 37, 
      "lonmax": 4.8600812633852595, 
      "latmin": 51.312019139232305
    }, 
    {
      "latmax": 51.31947332916735, 
      "name": "Kapelstraat", 
      "lonmin": 4.837079557317247, 
      "sanName": "kapelstraat", 
      "numOfAddr": 87, 
      "lonmax": 4.849423999635155, 
      "latmin": 51.31747039574629
    }, 
    {
      "latmax": 51.32330543197342, 
      "name": "Kardinaal Cardijnlaan", 
      "lonmin": 4.825418069836126, 
      "sanName": "kardinaalcardijnlaan", 
      "numOfAddr": 112, 
      "lonmax": 4.828526596126796, 
      "latmin": 51.31671010803097
    }, 
    {
      "latmax": 51.31957217772447, 
      "name": "Kardinaal Van Roeystraat", 
      "lonmin": 4.828007117416706, 
      "sanName": "kardinaalvanroeystraat", 
      "numOfAddr": 31, 
      "lonmax": 4.828852587574265, 
      "latmin": 51.31671230009845
    }, 
    {
      "latmax": 51.31807131192272, 
      "name": "Karel Van Nyenlaan", 
      "lonmin": 4.851225480390633, 
      "sanName": "karelvannyenlaan", 
      "numOfAddr": 19, 
      "lonmax": 4.85503873550663, 
      "latmin": 51.317199892104156
    }, 
    {
      "latmax": 51.327150904054164, 
      "name": "Kattespoelstraat", 
      "lonmin": 4.8686354526346785, 
      "sanName": "kattespoelstraat", 
      "numOfAddr": 114, 
      "lonmax": 4.871862471823793, 
      "latmin": 51.318954399707955
    }, 
    {
      "latmax": 51.33313005074521, 
      "name": "Keizershof", 
      "lonmin": 4.836770558332799, 
      "sanName": "keizershof", 
      "numOfAddr": 9, 
      "lonmax": 4.838432207055481, 
      "latmin": 51.331254088066224
    }, 
    {
      "latmax": 51.310633218620666, 
      "name": "Kempenlaan", 
      "lonmin": 4.856320051698923, 
      "sanName": "kempenlaan", 
      "numOfAddr": 21, 
      "lonmax": 4.862435068002451, 
      "latmin": 51.306959732612015
    }, 
    {
      "latmax": 51.29905935365364, 
      "name": "Kerkenhoek", 
      "lonmin": 4.778591953183098, 
      "sanName": "kerkenhoek", 
      "numOfAddr": 56, 
      "lonmax": 4.780904843074237, 
      "latmin": 51.29750237945353
    }, 
    {
      "latmax": 51.31977281156512, 
      "name": "Kerkplein", 
      "lonmin": 4.854665122839881, 
      "sanName": "kerkplein", 
      "numOfAddr": 10, 
      "lonmax": 4.856073763172158, 
      "latmin": 51.31960173621146
    }, 
    {
      "latmax": 51.29737453986276, 
      "name": "Kerkstraat", 
      "lonmin": 4.78018100857078, 
      "sanName": "kerkstraat", 
      "numOfAddr": 72, 
      "lonmax": 4.78238701513239, 
      "latmin": 51.2918980056183
    }, 
    {
      "latmax": 51.32600430061452, 
      "name": "Ketelaarstraat", 
      "lonmin": 4.823118429372978, 
      "sanName": "ketelaarstraat", 
      "numOfAddr": 8, 
      "lonmax": 4.826943739740274, 
      "latmin": 51.32466128300992
    }, 
    {
      "latmax": 51.30798950389719, 
      "name": "Ketsenberg", 
      "lonmin": 4.786572962835071, 
      "sanName": "ketsenberg", 
      "numOfAddr": 5, 
      "lonmax": 4.79230897365726, 
      "latmin": 51.305937327997896
    }, 
    {
      "latmax": 51.31421175675594, 
      "name": "Kikkerstraat", 
      "lonmin": 4.849577070019905, 
      "sanName": "kikkerstraat", 
      "numOfAddr": 11, 
      "lonmax": 4.851351676034899, 
      "latmin": 51.313515209615254
    }, 
    {
      "latmax": 51.30419181585686, 
      "name": "Klampovenstraat", 
      "lonmin": 4.798235993469952, 
      "sanName": "klampovenstraat", 
      "numOfAddr": 1, 
      "lonmax": 4.798235993469952, 
      "latmin": 51.30419181585686
    }, 
    {
      "latmax": 51.32674773512936, 
      "name": "Klaproosstraat", 
      "lonmin": 4.864034715122178, 
      "sanName": "klaproosstraat", 
      "numOfAddr": 66, 
      "lonmax": 4.870303350629118, 
      "latmin": 51.32338460391882
    }, 
    {
      "latmax": 51.28621137478515, 
      "name": "Klaverheide", 
      "lonmin": 4.780566268771443, 
      "sanName": "klaverheide", 
      "numOfAddr": 4, 
      "lonmax": 4.786097865672905, 
      "latmin": 51.28379866078258
    }, 
    {
      "latmax": 51.333016352625414, 
      "name": "Kleiputstraat", 
      "lonmin": 4.857702361541526, 
      "sanName": "kleiputstraat", 
      "numOfAddr": 2, 
      "lonmax": 4.858040668659038, 
      "latmin": 51.33282368633853
    }, 
    {
      "latmax": 51.30046190338837, 
      "name": "Knaapstraat", 
      "lonmin": 4.785288309245512, 
      "sanName": "knaapstraat", 
      "numOfAddr": 13, 
      "lonmax": 4.786502610176425, 
      "latmin": 51.29928658503941
    }, 
    {
      "latmax": 51.34219989869134, 
      "name": "Koloniedijk", 
      "lonmin": 4.837914432693348, 
      "sanName": "koloniedijk", 
      "numOfAddr": 2, 
      "lonmax": 4.840329888084926, 
      "latmin": 51.34083462242241
    }, 
    {
      "latmax": 51.315294653062395, 
      "name": "Kongostraat", 
      "lonmin": 4.817531625679898, 
      "sanName": "kongostraat", 
      "numOfAddr": 27, 
      "lonmax": 4.824594577238151, 
      "latmin": 51.31146930951751
    }, 
    {
      "latmax": 51.314100313348014, 
      "name": "Konijnenstraat", 
      "lonmin": 4.785536028700163, 
      "sanName": "konijnenstraat", 
      "numOfAddr": 13, 
      "lonmax": 4.7940847169022005, 
      "latmin": 51.313533258477584
    }, 
    {
      "latmax": 51.320926395603855, 
      "name": "Koningin Astridstraat", 
      "lonmin": 4.844330070736133, 
      "sanName": "koninginastridstraat", 
      "numOfAddr": 19, 
      "lonmax": 4.84537141109686, 
      "latmin": 51.319487843218354
    }, 
    {
      "latmax": 51.30873991346517, 
      "name": "Koningslaan", 
      "lonmin": 4.853001781324996, 
      "sanName": "koningslaan", 
      "numOfAddr": 15, 
      "lonmax": 4.854429991346496, 
      "latmin": 51.303448960307165
    }, 
    {
      "latmax": 51.32264848477705, 
      "name": "Koolwitjesstraat", 
      "lonmin": 4.8451179271198255, 
      "sanName": "koolwitjesstraat", 
      "numOfAddr": 9, 
      "lonmax": 4.845728306465638, 
      "latmin": 51.32150265929607
    }, 
    {
      "latmax": 51.32301696287997, 
      "name": "Korenbloemstraat", 
      "lonmin": 4.86826567119336, 
      "sanName": "korenbloemstraat", 
      "numOfAddr": 23, 
      "lonmax": 4.869107024464441, 
      "latmin": 51.32095596005378
    }, 
    {
      "latmax": 51.31843878257233, 
      "name": "Korenveldstraat", 
      "lonmin": 4.845566389520249, 
      "sanName": "korenveldstraat", 
      "numOfAddr": 13, 
      "lonmax": 4.847528519598648, 
      "latmin": 51.31792789140842
    }, 
    {
      "latmax": 51.33161889743775, 
      "name": "Korte Kwikstraat", 
      "lonmin": 4.79781607825903, 
      "sanName": "kortekwikstraat", 
      "numOfAddr": 24, 
      "lonmax": 4.800961543336915, 
      "latmin": 51.33059645621238
    }, 
    {
      "latmax": 51.323612040232724, 
      "name": "Krommenhof", 
      "lonmin": 4.860745845478757, 
      "sanName": "krommenhof", 
      "numOfAddr": 33, 
      "lonmax": 4.862470380288564, 
      "latmin": 51.32097967834895
    }, 
    {
      "latmax": 51.31315355891714, 
      "name": "Laakstraat", 
      "lonmin": 4.838832540757966, 
      "sanName": "laakstraat", 
      "numOfAddr": 34, 
      "lonmax": 4.8445714757751634, 
      "latmin": 51.31210080883661
    }, 
    {
      "latmax": 51.334913425184055, 
      "name": "Lage Heide", 
      "lonmin": 4.826801982017893, 
      "sanName": "lageheide", 
      "numOfAddr": 10, 
      "lonmax": 4.830610425050199, 
      "latmin": 51.33106472300893
    }, 
    {
      "latmax": 51.301250638827135, 
      "name": "Landjuweel", 
      "lonmin": 4.78452564649644, 
      "sanName": "landjuweel", 
      "numOfAddr": 27, 
      "lonmax": 4.7905290669210405, 
      "latmin": 51.30037820394397
    }, 
    {
      "latmax": 51.33126952492935, 
      "name": "Lange Kwikstraat", 
      "lonmin": 4.797020967087815, 
      "sanName": "langekwikstraat", 
      "numOfAddr": 36, 
      "lonmax": 4.802081889581538, 
      "latmin": 51.326743097165675
    }, 
    {
      "latmax": 51.322421304915025, 
      "name": "Larenstraat", 
      "lonmin": 4.84108599888027, 
      "sanName": "larenstraat", 
      "numOfAddr": 27, 
      "lonmax": 4.842478529165518, 
      "latmin": 51.319098394616574
    }, 
    {
      "latmax": 51.32491781180616, 
      "name": "Leemstraat", 
      "lonmin": 4.861104729041178, 
      "sanName": "leemstraat", 
      "numOfAddr": 39, 
      "lonmax": 4.864308644874721, 
      "latmin": 51.32071910097981
    }, 
    {
      "latmax": 51.295975785483606, 
      "name": "Leetereind", 
      "lonmin": 4.787947120834238, 
      "sanName": "leetereind", 
      "numOfAddr": 10, 
      "lonmax": 4.797388834932747, 
      "latmin": 51.29349803718609
    }, 
    {
      "latmax": 51.32179936222134, 
      "name": "Leeuwerikstraat", 
      "lonmin": 4.8358021689103134, 
      "sanName": "leeuwerikstraat", 
      "numOfAddr": 31, 
      "lonmax": 4.837816418588644, 
      "latmin": 51.31914765542985
    }, 
    {
      "latmax": 51.32055110319568, 
      "name": "Leliestraat", 
      "lonmin": 4.867674514304046, 
      "sanName": "leliestraat", 
      "numOfAddr": 6, 
      "lonmax": 4.869045982167985, 
      "latmin": 51.320427568795445
    }, 
    {
      "latmax": 51.33350332346818, 
      "name": "Lemmerstraat", 
      "lonmin": 4.838287666857945, 
      "sanName": "lemmerstraat", 
      "numOfAddr": 19, 
      "lonmax": 4.840811729293942, 
      "latmin": 51.32664414363162
    }, 
    {
      "latmax": 51.30996302671517, 
      "name": "Lentestraat", 
      "lonmin": 4.838650709137229, 
      "sanName": "lentestraat", 
      "numOfAddr": 15, 
      "lonmax": 4.839703547870319, 
      "latmin": 51.30886384646197
    }, 
    {
      "latmax": 51.32094008298067, 
      "name": "Leopoldstraat", 
      "lonmin": 4.842128325562483, 
      "sanName": "leopoldstraat", 
      "numOfAddr": 17, 
      "lonmax": 4.8442740384518785, 
      "latmin": 51.320300188475336
    }, 
    {
      "latmax": 51.295122739839904, 
      "name": "Lepelstraat", 
      "lonmin": 4.776266181783525, 
      "sanName": "lepelstraat", 
      "numOfAddr": 43, 
      "lonmax": 4.7795001295698745, 
      "latmin": 51.28873682665423
    }, 
    {
      "latmax": 51.31433104156168, 
      "name": "Libelleplein", 
      "lonmin": 4.853482777117082, 
      "sanName": "libelleplein", 
      "numOfAddr": 8, 
      "lonmax": 4.8541853680507145, 
      "latmin": 51.313960356509746
    }, 
    {
      "latmax": 51.32005603511706, 
      "name": "Lijsterstraat", 
      "lonmin": 4.837864509910917, 
      "sanName": "lijsterstraat", 
      "numOfAddr": 30, 
      "lonmax": 4.839951726137366, 
      "latmin": 51.31937014028404
    }, 
    {
      "latmax": 51.306255562377075, 
      "name": "Lilsedijk", 
      "lonmin": 4.8340003578460085, 
      "sanName": "lilsedijk", 
      "numOfAddr": 25, 
      "lonmax": 4.841648291385954, 
      "latmin": 51.291109126849996
    }, 
    {
      "latmax": 51.312021646435745, 
      "name": "Lindendreef", 
      "lonmin": 4.853443196825105, 
      "sanName": "lindendreef", 
      "numOfAddr": 16, 
      "lonmax": 4.855494416637472, 
      "latmin": 51.31069162060367
    }, 
    {
      "latmax": 51.31965526678634, 
      "name": "Lindenlaan", 
      "lonmin": 4.849723375489147, 
      "sanName": "lindenlaan", 
      "numOfAddr": 74, 
      "lonmax": 4.854695811849955, 
      "latmin": 51.31883743380733
    }, 
    {
      "latmax": 51.33653591170376, 
      "name": "Luisterborg", 
      "lonmin": 4.836809007560335, 
      "sanName": "luisterborg", 
      "numOfAddr": 1, 
      "lonmax": 4.836809007560335, 
      "latmin": 51.33653591170376
    }, 
    {
      "latmax": 51.315954548002836, 
      "name": "Maanstraat", 
      "lonmin": 4.779626736161097, 
      "sanName": "maanstraat", 
      "numOfAddr": 4, 
      "lonmax": 4.780177213764888, 
      "latmin": 51.314853739821146
    }, 
    {
      "latmax": 51.32537360285675, 
      "name": "Madeliefjesstraat", 
      "lonmin": 4.863010693515883, 
      "sanName": "madeliefjesstraat", 
      "numOfAddr": 21, 
      "lonmax": 4.864066174626118, 
      "latmin": 51.323002685270204
    }, 
    {
      "latmax": 51.33618470789696, 
      "name": "Meergoorstraat", 
      "lonmin": 4.817605460588024, 
      "sanName": "meergoorstraat", 
      "numOfAddr": 36, 
      "lonmax": 4.827078936114866, 
      "latmin": 51.326701405070914
    }, 
    {
      "latmax": 51.31880573169076, 
      "name": "Melkerijstraat", 
      "lonmin": 4.848726208316214, 
      "sanName": "melkerijstraat", 
      "numOfAddr": 18, 
      "lonmax": 4.851400797576012, 
      "latmin": 51.317296601176075
    }, 
    {
      "latmax": 51.32258677246641, 
      "name": "Merelstraat", 
      "lonmin": 4.8375400907606965, 
      "sanName": "merelstraat", 
      "numOfAddr": 23, 
      "lonmax": 4.838892015750004, 
      "latmin": 51.320799137570084
    }, 
    {
      "latmax": 51.33937810797316, 
      "name": "Merksplasseweg", 
      "lonmin": 4.854392557239951, 
      "sanName": "merksplasseweg", 
      "numOfAddr": 67, 
      "lonmax": 4.858668435089649, 
      "latmin": 51.32812008681182
    }, 
    {
      "latmax": 51.319352624747175, 
      "name": "Mezenstraat", 
      "lonmin": 4.834996861849725, 
      "sanName": "mezenstraat", 
      "numOfAddr": 9, 
      "lonmax": 4.836232970293135, 
      "latmin": 51.31892376957154
    }, 
    {
      "latmax": 51.32031344267205, 
      "name": "Molenberg", 
      "lonmin": 4.848687539862563, 
      "sanName": "molenberg", 
      "numOfAddr": 63, 
      "lonmax": 4.855418006053847, 
      "latmin": 51.31958425563551
    }, 
    {
      "latmax": 51.3199187423091, 
      "name": "Molenstraat", 
      "lonmin": 4.853248254430538, 
      "sanName": "molenstraat", 
      "numOfAddr": 6, 
      "lonmax": 4.8536418794342495, 
      "latmin": 51.31960496916039
    }, 
    {
      "latmax": 51.31797992310344, 
      "name": "Molenvloed", 
      "lonmin": 4.8390635288388495, 
      "sanName": "molenvloed", 
      "numOfAddr": 18, 
      "lonmax": 4.840392172470509, 
      "latmin": 51.31652638496344
    }, 
    {
      "latmax": 51.32130658202017, 
      "name": "Nieuwe dreef", 
      "lonmin": 4.815143641273072, 
      "sanName": "nieuwedreef", 
      "numOfAddr": 54, 
      "lonmax": 4.8235960481749816, 
      "latmin": 51.30638738853565
    }, 
    {
      "latmax": 51.32785294505685, 
      "name": "Nijverheidsstraat", 
      "lonmin": 4.7914283402669104, 
      "sanName": "nijverheidsstraat", 
      "numOfAddr": 8, 
      "lonmax": 4.803117463454522, 
      "latmin": 51.32560721221795
    }, 
    {
      "latmax": 51.31964120479309, 
      "name": "O.-L.-Vrouwstraat", 
      "lonmin": 4.825292461211682, 
      "sanName": "olvrouwstraat", 
      "numOfAddr": 37, 
      "lonmax": 4.826504779177098, 
      "latmin": 51.31666103280281
    }, 
    {
      "latmax": 51.33189740237666, 
      "name": "Oosteneinde", 
      "lonmin": 4.868295630082679, 
      "sanName": "oosteneinde", 
      "numOfAddr": 19, 
      "lonmax": 4.870396458316183, 
      "latmin": 51.32974621821115
    }, 
    {
      "latmax": 51.31770124500228, 
      "name": "Oostmalseweg", 
      "lonmin": 4.808053163407192, 
      "sanName": "oostmalseweg", 
      "numOfAddr": 99, 
      "lonmax": 4.836295242425218, 
      "latmin": 51.311116698046476
    }, 
    {
      "latmax": 51.32890155127015, 
      "name": "Opstal", 
      "lonmin": 4.867945527024873, 
      "sanName": "opstal", 
      "numOfAddr": 15, 
      "lonmax": 4.8707197923266445, 
      "latmin": 51.327708314998475
    }, 
    {
      "latmax": 51.34123446447839, 
      "name": "Ossenweg", 
      "lonmin": 4.826184691553357, 
      "sanName": "ossenweg", 
      "numOfAddr": 35, 
      "lonmax": 4.8339950925563695, 
      "latmin": 51.325598588017584
    }, 
    {
      "latmax": 51.31571606418936, 
      "name": "Ossevenstraat", 
      "lonmin": 4.869134218947534, 
      "sanName": "ossevenstraat", 
      "numOfAddr": 17, 
      "lonmax": 4.871971671810253, 
      "latmin": 51.314801232589154
    }, 
    {
      "latmax": 51.29666178860231, 
      "name": "Oude Oostmallebaan", 
      "lonmin": 4.774064309643624, 
      "sanName": "oudeoostmallebaan", 
      "numOfAddr": 2, 
      "lonmax": 4.774109255315928, 
      "latmin": 51.296522085588194
    }, 
    {
      "latmax": 51.3146712423778, 
      "name": "Oudstrijdersstraat", 
      "lonmin": 4.870094996097925, 
      "sanName": "oudstrijdersstraat", 
      "numOfAddr": 22, 
      "lonmax": 4.871623502448052, 
      "latmin": 51.31293354925575
    }, 
    {
      "latmax": 51.32608561257059, 
      "name": "Paardebloemstraat", 
      "lonmin": 4.8680515154960835, 
      "sanName": "paardebloemstraat", 
      "numOfAddr": 13, 
      "lonmax": 4.868902628854892, 
      "latmin": 51.324061804020964
    }, 
    {
      "latmax": 51.32807538489128, 
      "name": "Paddesteenstraat", 
      "lonmin": 4.862414363905461, 
      "sanName": "paddesteenstraat", 
      "numOfAddr": 12, 
      "lonmax": 4.863491717420152, 
      "latmin": 51.32792170623161
    }, 
    {
      "latmax": 51.319978953601975, 
      "name": "Pastoor Carpentierstraat", 
      "lonmin": 4.825785191027982, 
      "sanName": "pastoorcarpentierstraat", 
      "numOfAddr": 36, 
      "lonmax": 4.833170906060355, 
      "latmin": 51.31924445755869
    }, 
    {
      "latmax": 51.32068018007513, 
      "name": "Pastoor Mensaertstraat", 
      "lonmin": 4.827895747159124, 
      "sanName": "pastoormensaertstraat", 
      "numOfAddr": 45, 
      "lonmax": 4.835275037100655, 
      "latmin": 51.31997470818618
    }, 
    {
      "latmax": 51.31881279331345, 
      "name": "Pastoriestraat", 
      "lonmin": 4.8570219822142695, 
      "sanName": "pastoriestraat", 
      "numOfAddr": 69, 
      "lonmax": 4.864276603896723, 
      "latmin": 51.31220916200014
    }, 
    {
      "latmax": 51.317794645928835, 
      "name": "Patrijzenstraat", 
      "lonmin": 4.783325083095695, 
      "sanName": "patrijzenstraat", 
      "numOfAddr": 12, 
      "lonmax": 4.785434150704225, 
      "latmin": 51.3138801632022
    }, 
    {
      "latmax": 51.32688214848507, 
      "name": "Peerdekensstraat", 
      "lonmin": 4.855916755618277, 
      "sanName": "peerdekensstraat", 
      "numOfAddr": 42, 
      "lonmax": 4.859982817096471, 
      "latmin": 51.3242518976914
    }, 
    {
      "latmax": 51.29754791108554, 
      "name": "Peggersstraat", 
      "lonmin": 4.784578874133341, 
      "sanName": "peggersstraat", 
      "numOfAddr": 21, 
      "lonmax": 4.786410176942865, 
      "latmin": 51.29568795593035
    }, 
    {
      "latmax": 51.32443486112981, 
      "name": "Pioenstraat", 
      "lonmin": 4.865331207176674, 
      "sanName": "pioenstraat", 
      "numOfAddr": 21, 
      "lonmax": 4.86829581549819, 
      "latmin": 51.32390203415318
    }, 
    {
      "latmax": 51.32808138248292, 
      "name": "Polendam", 
      "lonmin": 4.834104247116056, 
      "sanName": "polendam", 
      "numOfAddr": 25, 
      "lonmax": 4.8535758484499985, 
      "latmin": 51.325512325884695
    }, 
    {
      "latmax": 51.318643608183045, 
      "name": "Renier Sniedersstraat", 
      "lonmin": 4.859643530715946, 
      "sanName": "reniersniedersstraat", 
      "numOfAddr": 27, 
      "lonmax": 4.863406229393956, 
      "latmin": 51.317275910264605
    }, 
    {
      "latmax": 51.310697040596196, 
      "name": "Rerum Novarumlaan", 
      "lonmin": 4.84124699064734, 
      "sanName": "rerumnovarumlaan", 
      "numOfAddr": 29, 
      "lonmax": 4.850839015045138, 
      "latmin": 51.308988163514286
    }, 
    {
      "latmax": 51.33593406657803, 
      "name": "Rijkevorselseweg", 
      "lonmin": 4.80014526661532, 
      "sanName": "rijkevorselseweg", 
      "numOfAddr": 65, 
      "lonmax": 4.832408886631963, 
      "latmin": 51.32503467152573
    }, 
    {
      "latmax": 51.31282590473169, 
      "name": "Rode-Kruisstraat", 
      "lonmin": 4.859032324466194, 
      "sanName": "rodekruisstraat", 
      "numOfAddr": 24, 
      "lonmax": 4.862835274007015, 
      "latmin": 51.31154313874952
    }, 
    {
      "latmax": 51.31868950256651, 
      "name": "Rodenbachlaan", 
      "lonmin": 4.853120771894593, 
      "sanName": "rodenbachlaan", 
      "numOfAddr": 8, 
      "lonmax": 4.854019645339995, 
      "latmin": 51.31676508844469
    }, 
    {
      "latmax": 51.30490584415149, 
      "name": "Rouwbergskens", 
      "lonmin": 4.8365176235468565, 
      "sanName": "rouwbergskens", 
      "numOfAddr": 5, 
      "lonmax": 4.839185731608875, 
      "latmin": 51.30292004525776
    }, 
    {
      "latmax": 51.318434532283966, 
      "name": "Rouwleegd", 
      "lonmin": 4.78142999008274, 
      "sanName": "rouwleegd", 
      "numOfAddr": 32, 
      "lonmax": 4.792149547710682, 
      "latmin": 51.31747557860231
    }, 
    {
      "latmax": 51.32149744590537, 
      "name": "Rozenstraat", 
      "lonmin": 4.864114964107292, 
      "sanName": "rozenstraat", 
      "numOfAddr": 8, 
      "lonmax": 4.865700728946815, 
      "latmin": 51.32102938610565
    }, 
    {
      "latmax": 51.31381722046646, 
      "name": "Salamanderstraat", 
      "lonmin": 4.850310578592293, 
      "sanName": "salamanderstraat", 
      "numOfAddr": 22, 
      "lonmax": 4.8553011616263015, 
      "latmin": 51.31303089440903
    }, 
    {
      "latmax": 51.31719428876616, 
      "name": "Scheltjenseinde", 
      "lonmin": 4.865346763650478, 
      "sanName": "scheltjenseinde", 
      "numOfAddr": 13, 
      "lonmax": 4.867157856112382, 
      "latmin": 51.31633776349189
    }, 
    {
      "latmax": 51.32872514945769, 
      "name": "Scheperstraat", 
      "lonmin": 4.864141765461124, 
      "sanName": "scheperstraat", 
      "numOfAddr": 46, 
      "lonmax": 4.868775942273922, 
      "latmin": 51.32792259459689
    }, 
    {
      "latmax": 51.320712137876505, 
      "name": "Schoolstraat", 
      "lonmin": 4.85743398685769, 
      "sanName": "schoolstraat", 
      "numOfAddr": 41, 
      "lonmax": 4.860402291804256, 
      "latmin": 51.31939430324838
    }, 
    {
      "latmax": 51.32448623045259, 
      "name": "Schransdriesstraat", 
      "lonmin": 4.832345497893068, 
      "sanName": "schransdriesstraat", 
      "numOfAddr": 63, 
      "lonmax": 4.837109240315861, 
      "latmin": 51.3177305030278
    }, 
    {
      "latmax": 51.29468928714258, 
      "name": "Schrieken", 
      "lonmin": 4.820420933561166, 
      "sanName": "schrieken", 
      "numOfAddr": 4, 
      "lonmax": 4.823669572021582, 
      "latmin": 51.29153146650325
    }, 
    {
      "latmax": 51.316470983599395, 
      "name": "Schutsboomstraat", 
      "lonmin": 4.860877453389468, 
      "sanName": "schutsboomstraat", 
      "numOfAddr": 32, 
      "lonmax": 4.867360438227486, 
      "latmin": 51.31545652792163
    }, 
    {
      "latmax": 51.30000656018954, 
      "name": "Schuttersstraat", 
      "lonmin": 4.782786882797889, 
      "sanName": "schuttersstraat", 
      "numOfAddr": 15, 
      "lonmax": 4.7838841353208315, 
      "latmin": 51.29852357844775
    }, 
    {
      "latmax": 51.32565041086575, 
      "name": "Seringenstraat", 
      "lonmin": 4.8643002296879345, 
      "sanName": "seringenstraat", 
      "numOfAddr": 13, 
      "lonmax": 4.865120851896584, 
      "latmin": 51.3235186542635
    }, 
    {
      "latmax": 51.32198402930314, 
      "name": "Sijsjesstraat", 
      "lonmin": 4.839303122691343, 
      "sanName": "sijsjesstraat", 
      "numOfAddr": 28, 
      "lonmax": 4.84102626157213, 
      "latmin": 51.319508409748764
    }, 
    {
      "latmax": 51.322494385192215, 
      "name": "Sint-Barbarastraat", 
      "lonmin": 4.82766784262937, 
      "sanName": "sintbarbarastraat", 
      "numOfAddr": 19, 
      "lonmax": 4.829915465945473, 
      "latmin": 51.32200250697676
    }, 
    {
      "latmax": 51.31732023746816, 
      "name": "Sint-Corneliusstraat", 
      "lonmin": 4.836600564599399, 
      "sanName": "sintcorneliusstraat", 
      "numOfAddr": 57, 
      "lonmax": 4.841419287740543, 
      "latmin": 51.30861498644988
    }, 
    {
      "latmax": 51.32336205386001, 
      "name": "Sint-Elooistraat", 
      "lonmin": 4.827366658955726, 
      "sanName": "sintelooistraat", 
      "numOfAddr": 22, 
      "lonmax": 4.829771576255657, 
      "latmin": 51.32274315549337
    }, 
    {
      "latmax": 51.319190267377834, 
      "name": "Sint-Hubertusstraat", 
      "lonmin": 4.831896844203018, 
      "sanName": "sinthubertusstraat", 
      "numOfAddr": 20, 
      "lonmax": 4.832797561407742, 
      "latmin": 51.31734407520006
    }, 
    {
      "latmax": 51.319396996562354, 
      "name": "Sint-Isidoorstraat", 
      "lonmin": 4.830937872597745, 
      "sanName": "sintisidoorstraat", 
      "numOfAddr": 6, 
      "lonmax": 4.831535486872497, 
      "latmin": 51.31900393465685
    }, 
    {
      "latmax": 51.31163184175841, 
      "name": "Sint-Lambertusstraat", 
      "lonmin": 4.841972608858185, 
      "sanName": "sintlambertusstraat", 
      "numOfAddr": 34, 
      "lonmax": 4.844090716162912, 
      "latmin": 51.309638277424156
    }, 
    {
      "latmax": 51.32103789436886, 
      "name": "Sint-Rochusstraat", 
      "lonmin": 4.831044644915572, 
      "sanName": "sintrochusstraat", 
      "numOfAddr": 1, 
      "lonmax": 4.831044644915572, 
      "latmin": 51.32103789436886
    }, 
    {
      "latmax": 51.31880486625167, 
      "name": "Sint-Sebastiaanstraat", 
      "lonmin": 4.832694128357352, 
      "sanName": "sintsebastiaanstraat", 
      "numOfAddr": 17, 
      "lonmax": 4.8337865195310155, 
      "latmin": 51.317453671462935
    }, 
    {
      "latmax": 51.31859572633283, 
      "name": "Smisstraat", 
      "lonmin": 4.847870359078597, 
      "sanName": "smisstraat", 
      "numOfAddr": 7, 
      "lonmax": 4.849395039717368, 
      "latmin": 51.317779085610894
    }, 
    {
      "latmax": 51.31243008065826, 
      "name": "Stadionlaan", 
      "lonmin": 4.843566536833981, 
      "sanName": "stadionlaan", 
      "numOfAddr": 17, 
      "lonmax": 4.845962274362685, 
      "latmin": 51.3107896409354
    }, 
    {
      "latmax": 51.301331553973576, 
      "name": "Statiestraat", 
      "lonmin": 4.780528693647838, 
      "sanName": "statiestraat", 
      "numOfAddr": 45, 
      "lonmax": 4.782238517294814, 
      "latmin": 51.29751736317507
    }, 
    {
      "latmax": 51.33216572757324, 
      "name": "Steenbakkersdam", 
      "lonmin": 4.856976548202031, 
      "sanName": "steenbakkersdam", 
      "numOfAddr": 14, 
      "lonmax": 4.891440854202896, 
      "latmin": 51.32816231742032
    }, 
    {
      "latmax": 51.320400823254985, 
      "name": "Steenovensstraat", 
      "lonmin": 4.8606881267805155, 
      "sanName": "steenovensstraat", 
      "numOfAddr": 55, 
      "lonmax": 4.866168872452085, 
      "latmin": 51.319269387788076
    }, 
    {
      "latmax": 51.31323731464966, 
      "name": "Stekelbaarsstraat", 
      "lonmin": 4.851265634516162, 
      "sanName": "stekelbaarsstraat", 
      "numOfAddr": 44, 
      "lonmax": 4.85515619497947, 
      "latmin": 51.31154760766818
    }, 
    {
      "latmax": 51.31779047462219, 
      "name": "Stenen Brug", 
      "lonmin": 4.869819852599412, 
      "sanName": "stenenbrug", 
      "numOfAddr": 4, 
      "lonmax": 4.871167074668924, 
      "latmin": 51.31702409769313
    }, 
    {
      "latmax": 51.31955017774532, 
      "name": "Stijn Streuvelsstraat", 
      "lonmin": 4.8577172528269825, 
      "sanName": "stijnstreuvelsstraat", 
      "numOfAddr": 51, 
      "lonmax": 4.865416976712352, 
      "latmin": 51.318427016072576
    }, 
    {
      "latmax": 51.30016988529255, 
      "name": "Tamboerstraat", 
      "lonmin": 4.787380015989202, 
      "sanName": "tamboerstraat", 
      "numOfAddr": 3, 
      "lonmax": 4.787857329031587, 
      "latmin": 51.299770871057234
    }, 
    {
      "latmax": 51.309595880939, 
      "name": "Tanseleerstraat", 
      "lonmin": 4.827910057356598, 
      "sanName": "tanseleerstraat", 
      "numOfAddr": 2, 
      "lonmax": 4.832345471563301, 
      "latmin": 51.309460205999464
    }, 
    {
      "latmax": 51.30688222674611, 
      "name": "Taxandrialaan", 
      "lonmin": 4.852103736883982, 
      "sanName": "taxandrialaan", 
      "numOfAddr": 7, 
      "lonmax": 4.855146184083796, 
      "latmin": 51.30563086249348
    }, 
    {
      "latmax": 51.317059519316494, 
      "name": "Tempelstraat", 
      "lonmin": 4.850337472075703, 
      "sanName": "tempelstraat", 
      "numOfAddr": 34, 
      "lonmax": 4.855448198078468, 
      "latmin": 51.31607075346256
    }, 
    {
      "latmax": 51.305481375756976, 
      "name": "Toekomstlaan", 
      "lonmin": 4.841817610336059, 
      "sanName": "toekomstlaan", 
      "numOfAddr": 10, 
      "lonmax": 4.850586165213115, 
      "latmin": 51.30411333514123
    }, 
    {
      "latmax": 51.30375158301867, 
      "name": "Torenlaan", 
      "lonmin": 4.851484489654036, 
      "sanName": "torenlaan", 
      "numOfAddr": 4, 
      "lonmax": 4.855438064508241, 
      "latmin": 51.30270159489246
    }, 
    {
      "latmax": 51.322868956326424, 
      "name": "Tulpenstraat", 
      "lonmin": 4.864707157124392, 
      "sanName": "tulpenstraat", 
      "numOfAddr": 24, 
      "lonmax": 4.868311971748872, 
      "latmin": 51.32233634532864
    }, 
    {
      "latmax": 51.31267831855743, 
      "name": "Turnhoutseweg", 
      "lonmin": 4.85642265199999, 
      "sanName": "turnhoutseweg", 
      "numOfAddr": 52, 
      "lonmax": 4.8707425650509855, 
      "latmin": 51.31008230100302
    }, 
    {
      "latmax": 51.319648924647026, 
      "name": "Urnenstraat", 
      "lonmin": 4.833957484816154, 
      "sanName": "urnenstraat", 
      "numOfAddr": 4, 
      "lonmax": 4.834681392708524, 
      "latmin": 51.31929759752141
    }, 
    {
      "latmax": 51.32394023882001, 
      "name": "Vaartstraat", 
      "lonmin": 4.813676148604197, 
      "sanName": "vaartstraat", 
      "numOfAddr": 46, 
      "lonmax": 4.8326832102791695, 
      "latmin": 51.32119571275473
    }, 
    {
      "latmax": 51.32735614611801, 
      "name": "Veerpontstraat", 
      "lonmin": 4.862157217494083, 
      "sanName": "veerpontstraat", 
      "numOfAddr": 30, 
      "lonmax": 4.864205090844119, 
      "latmin": 51.326221718546506
    }, 
    {
      "latmax": 51.32779484886345, 
      "name": "Veldstraat", 
      "lonmin": 4.860296940473438, 
      "sanName": "veldstraat", 
      "numOfAddr": 107, 
      "lonmax": 4.876832123438857, 
      "latmin": 51.32439474267787
    }, 
    {
      "latmax": 51.30128616907186, 
      "name": "Vendelierstraat", 
      "lonmin": 4.78310108940976, 
      "sanName": "vendelierstraat", 
      "numOfAddr": 8, 
      "lonmax": 4.783967042513661, 
      "latmin": 51.30041451986877
    }, 
    {
      "latmax": 51.31788308665705, 
      "name": "Verbindingstraat", 
      "lonmin": 4.817965363822701, 
      "sanName": "verbindingstraat", 
      "numOfAddr": 1, 
      "lonmax": 4.817965363822701, 
      "latmin": 51.31788308665705
    }, 
    {
      "latmax": 51.322588272029506, 
      "name": "Vinkenpad", 
      "lonmin": 4.834868674395388, 
      "sanName": "vinkenpad", 
      "numOfAddr": 20, 
      "lonmax": 4.837811562884796, 
      "latmin": 51.32195762907033
    }, 
    {
      "latmax": 51.322658274371435, 
      "name": "Violierstraat", 
      "lonmin": 4.864185258609846, 
      "sanName": "violierstraat", 
      "numOfAddr": 7, 
      "lonmax": 4.865012932965111, 
      "latmin": 51.32164857547564
    }, 
    {
      "latmax": 51.29682012868507, 
      "name": "Vlimmerseweg", 
      "lonmin": 4.770434023766045, 
      "sanName": "vlimmerseweg", 
      "numOfAddr": 31, 
      "lonmax": 4.776743444103213, 
      "latmin": 51.295153398047745
    }, 
    {
      "latmax": 51.33977615005509, 
      "name": "Vogelenzang", 
      "lonmin": 4.842328824471894, 
      "sanName": "vogelenzang", 
      "numOfAddr": 5, 
      "lonmax": 4.852719114436858, 
      "latmin": 51.33511315276681
    }, 
    {
      "latmax": 51.31114820417608, 
      "name": "Volkstuinplein", 
      "lonmin": 4.8407344419157585, 
      "sanName": "volkstuinplein", 
      "numOfAddr": 13, 
      "lonmax": 4.841505950913485, 
      "latmin": 51.31025725498941
    }, 
    {
      "latmax": 51.31413352268288, 
      "name": "Voorkensstraat", 
      "lonmin": 4.860248070377205, 
      "sanName": "voorkensstraat", 
      "numOfAddr": 24, 
      "lonmax": 4.8620735579665295, 
      "latmin": 51.31247369503386
    }, 
    {
      "latmax": 51.33479120765693, 
      "name": "Vossenbrugstraat", 
      "lonmin": 4.834073171246046, 
      "sanName": "vossenbrugstraat", 
      "numOfAddr": 41, 
      "lonmax": 4.8545460960564295, 
      "latmin": 51.32983537202333
    }, 
    {
      "latmax": 51.30785238495083, 
      "name": "Vossenlaan", 
      "lonmin": 4.858452158014494, 
      "sanName": "vossenlaan", 
      "numOfAddr": 24, 
      "lonmax": 4.8595696376193915, 
      "latmin": 51.304651812797175
    }, 
    {
      "latmax": 51.31999855777727, 
      "name": "Vredestraat", 
      "lonmin": 4.856138794048054, 
      "sanName": "vredestraat", 
      "numOfAddr": 14, 
      "lonmax": 4.8572285004824165, 
      "latmin": 51.319626594729925
    }, 
    {
      "latmax": 51.32416063630238, 
      "name": "Vrijwilligersstraat", 
      "lonmin": 4.857198097183137, 
      "sanName": "vrijwilligersstraat", 
      "numOfAddr": 83, 
      "lonmax": 4.860850489735301, 
      "latmin": 51.32012963559219
    }, 
    {
      "latmax": 51.320277526278176, 
      "name": "Weerstandersstraat", 
      "lonmin": 4.806240407422095, 
      "sanName": "weerstandersstraat", 
      "numOfAddr": 4, 
      "lonmax": 4.812025926721527, 
      "latmin": 51.31761098906624
    }, 
    {
      "latmax": 51.293857974047185, 
      "name": "Wetschot", 
      "lonmin": 4.787417384416445, 
      "sanName": "wetschot", 
      "numOfAddr": 24, 
      "lonmax": 4.8112758501534465, 
      "latmin": 51.28814852493875
    }, 
    {
      "latmax": 51.32065897511562, 
      "name": "Wielewaalstraat", 
      "lonmin": 4.837783062341065, 
      "sanName": "wielewaalstraat", 
      "numOfAddr": 14, 
      "lonmax": 4.839512787250045, 
      "latmin": 51.3200582659442
    }, 
    {
      "latmax": 51.32794912285158, 
      "name": "Zandstraat", 
      "lonmin": 4.861961017873753, 
      "sanName": "zandstraat", 
      "numOfAddr": 23, 
      "lonmax": 4.862810187006628, 
      "latmin": 51.32684935092271
    }, 
    {
      "latmax": 51.30484066970679, 
      "name": "Zenitlaan", 
      "lonmin": 4.848043539830225, 
      "sanName": "zenitlaan", 
      "numOfAddr": 10, 
      "lonmax": 4.849515385013528, 
      "latmin": 51.30203287631497
    }, 
    {
      "latmax": 51.291635465317825, 
      "name": "Zilvereind", 
      "lonmin": 4.777714991192939, 
      "sanName": "zilvereind", 
      "numOfAddr": 35, 
      "lonmax": 4.781391968134146, 
      "latmin": 51.28425111482672
    }, 
    {
      "latmax": 51.308972411455095, 
      "name": "Zomerstraat", 
      "lonmin": 4.83414943649968, 
      "sanName": "zomerstraat", 
      "numOfAddr": 40, 
      "lonmax": 4.840485234561964, 
      "latmin": 51.30768828073065
    }, 
    {
      "latmax": 51.32365815739255, 
      "name": "Zonnedauwstraat", 
      "lonmin": 4.864676109275918, 
      "sanName": "zonnedauwstraat", 
      "numOfAddr": 13, 
      "lonmax": 4.868228809164759, 
      "latmin": 51.323141907331014
    }, 
    {
      "latmax": 51.315005986373365, 
      "name": "Zonstraat", 
      "lonmin": 4.778042265570931, 
      "sanName": "zonstraat", 
      "numOfAddr": 8, 
      "lonmax": 4.77891952678969, 
      "latmin": 51.31397636717085
    }, 
    {
      "latmax": 51.310375900551925, 
      "name": "Zuidstraat", 
      "lonmin": 4.857195893367852, 
      "sanName": "zuidstraat", 
      "numOfAddr": 21, 
      "lonmax": 4.861396332191622, 
      "latmin": 51.30859161338669
    }
  ]
}