{
  "streets": [
    {
      "latmax": 51.35369931190377, 
      "name": "Aastraat", 
      "lonmin": 4.98698758663639, 
      "sanName": "aastraat", 
      "numOfAddr": 10, 
      "lonmax": 4.989219768038536, 
      "latmin": 51.35288035568472
    }, 
    {
      "latmax": 51.32405109830362, 
      "name": "Albert Sohiestraat", 
      "lonmin": 4.979259288566558, 
      "sanName": "albertsohiestraat", 
      "numOfAddr": 16, 
      "lonmax": 4.983279959885966, 
      "latmin": 51.32223009988431
    }, 
    {
      "latmax": 51.31937717218108, 
      "name": "Alois Peetersstraat", 
      "lonmin": 4.98947578962866, 
      "sanName": "aloispeetersstraat", 
      "numOfAddr": 17, 
      "lonmax": 4.990688515560695, 
      "latmin": 51.31881393652777
    }, 
    {
      "latmax": 51.32661347046044, 
      "name": "Ambachtstraat", 
      "lonmin": 4.968286985005699, 
      "sanName": "ambachtstraat", 
      "numOfAddr": 8, 
      "lonmax": 4.9703222952587796, 
      "latmin": 51.3254383122039
    }, 
    {
      "latmax": 51.30311799433622, 
      "name": "Arselt", 
      "lonmin": 5.025837153211582, 
      "sanName": "arselt", 
      "numOfAddr": 17, 
      "lonmax": 5.051393695550262, 
      "latmin": 51.2958970959249
    }, 
    {
      "latmax": 51.311212048948455, 
      "name": "Augustijnenstraat", 
      "lonmin": 4.991925350068882, 
      "sanName": "augustijnenstraat", 
      "numOfAddr": 14, 
      "lonmax": 4.994239314003688, 
      "latmin": 51.3099649499005
    }, 
    {
      "latmax": 51.32054814984928, 
      "name": "Begijnenhoefstraat", 
      "lonmin": 5.000491029006688, 
      "sanName": "begijnenhoefstraat", 
      "numOfAddr": 23, 
      "lonmax": 5.008583675677098, 
      "latmin": 51.31429204800264
    }, 
    {
      "latmax": 51.32595173969995, 
      "name": "Bergstraat", 
      "lonmin": 4.997712958846623, 
      "sanName": "bergstraat", 
      "numOfAddr": 12, 
      "lonmax": 5.029280449614957, 
      "latmin": 51.32348003048476
    }, 
    {
      "latmax": 51.3164265320894, 
      "name": "Berkendreef", 
      "lonmin": 5.023177262999495, 
      "sanName": "berkendreef", 
      "numOfAddr": 7, 
      "lonmax": 5.024784638321725, 
      "latmin": 51.31578194873732
    }, 
    {
      "latmax": 51.3132872999655, 
      "name": "Beukenlaan", 
      "lonmin": 5.018135170825876, 
      "sanName": "beukenlaan", 
      "numOfAddr": 11, 
      "lonmax": 5.022235153454173, 
      "latmin": 51.31253942811894
    }, 
    {
      "latmax": 51.32743360924803, 
      "name": "Beyntel", 
      "lonmin": 4.968781777291169, 
      "sanName": "beyntel", 
      "numOfAddr": 6, 
      "lonmax": 4.9722123183244875, 
      "latmin": 51.32341260219522
    }, 
    {
      "latmax": 51.327831077060544, 
      "name": "Beyntellus", 
      "lonmin": 4.971538202440804, 
      "sanName": "beyntellus", 
      "numOfAddr": 8, 
      "lonmax": 4.9734389799243255, 
      "latmin": 51.325820582703244
    }, 
    {
      "latmax": 51.317523359460566, 
      "name": "Biesveld", 
      "lonmin": 5.011928468940583, 
      "sanName": "biesveld", 
      "numOfAddr": 2, 
      "lonmax": 5.012848321233559, 
      "latmin": 51.31735782499456
    }, 
    {
      "latmax": 51.297834792505995, 
      "name": "Binnenheide", 
      "lonmin": 5.025281472994855, 
      "sanName": "binnenheide", 
      "numOfAddr": 6, 
      "lonmax": 5.026940451063373, 
      "latmin": 51.29670565954637
    }, 
    {
      "latmax": 51.319900778307485, 
      "name": "Blekerijstraat", 
      "lonmin": 4.968524136529724, 
      "sanName": "blekerijstraat", 
      "numOfAddr": 12, 
      "lonmax": 4.969360795126605, 
      "latmin": 51.31881780906473
    }, 
    {
      "latmax": 51.304915957981045, 
      "name": "Blijkerstraat", 
      "lonmin": 5.005649090563639, 
      "sanName": "blijkerstraat", 
      "numOfAddr": 23, 
      "lonmax": 5.0113007498009425, 
      "latmin": 51.29948732652107
    }, 
    {
      "latmax": 51.31017319562523, 
      "name": "Boomgaardstraat", 
      "lonmin": 4.978646982960532, 
      "sanName": "boomgaardstraat", 
      "numOfAddr": 14, 
      "lonmax": 4.9797725094705125, 
      "latmin": 51.30909886413377
    }, 
    {
      "latmax": 51.30463210434231, 
      "name": "Bosdreef", 
      "lonmin": 5.007792485729391, 
      "sanName": "bosdreef", 
      "numOfAddr": 26, 
      "lonmax": 5.01120347356914, 
      "latmin": 51.30167607816765
    }, 
    {
      "latmax": 51.31528916503581, 
      "name": "Bosduivenlaan", 
      "lonmin": 5.027219473180981, 
      "sanName": "bosduivenlaan", 
      "numOfAddr": 13, 
      "lonmax": 5.034338401315007, 
      "latmin": 51.313872505328156
    }, 
    {
      "latmax": 51.3134347702053, 
      "name": "Bosrand", 
      "lonmin": 5.005888298107693, 
      "sanName": "bosrand", 
      "numOfAddr": 17, 
      "lonmax": 5.010719870923672, 
      "latmin": 51.311775900017366
    }, 
    {
      "latmax": 51.320178173830016, 
      "name": "Brooseinde", 
      "lonmin": 4.991380954403503, 
      "sanName": "brooseinde", 
      "numOfAddr": 49, 
      "lonmax": 4.996422388240599, 
      "latmin": 51.315223229996555
    }, 
    {
      "latmax": 51.320991080150065, 
      "name": "Brouwerstraat", 
      "lonmin": 4.978241207405777, 
      "sanName": "brouwerstraat", 
      "numOfAddr": 15, 
      "lonmax": 4.979927655173927, 
      "latmin": 51.3199268784872
    }, 
    {
      "latmax": 51.33437955293125, 
      "name": "Bruno'sstraat", 
      "lonmin": 4.98824261512037, 
      "sanName": "brunosstraat", 
      "numOfAddr": 8, 
      "lonmax": 4.990612802421953, 
      "latmin": 51.332160966550916
    }, 
    {
      "latmax": 51.322240777504746, 
      "name": "Buizerdweg", 
      "lonmin": 5.021915558953718, 
      "sanName": "buizerdweg", 
      "numOfAddr": 6, 
      "lonmax": 5.024159037795097, 
      "latmin": 51.32154228816832
    }, 
    {
      "latmax": 51.310537674351764, 
      "name": "Burg. Luytenstraat", 
      "lonmin": 4.979249981005347, 
      "sanName": "burgluytenstraat", 
      "numOfAddr": 23, 
      "lonmax": 4.980805923920684, 
      "latmin": 51.30900339880582
    }, 
    {
      "latmax": 51.34130953295847, 
      "name": "Burg. Van Loonstraat", 
      "lonmin": 4.974362424124584, 
      "sanName": "burgvanloonstraat", 
      "numOfAddr": 8, 
      "lonmax": 4.9753045095182555, 
      "latmin": 51.340622066015406
    }, 
    {
      "latmax": 51.318066709935906, 
      "name": "Corn. Mertenslaan", 
      "lonmin": 4.96873200859032, 
      "sanName": "cornmertenslaan", 
      "numOfAddr": 16, 
      "lonmax": 4.96968344988412, 
      "latmin": 51.31597406160507
    }, 
    {
      "latmax": 51.29267510271074, 
      "name": "Corsendonk", 
      "lonmin": 5.003216065061957, 
      "sanName": "corsendonk", 
      "numOfAddr": 17, 
      "lonmax": 5.0180634435126334, 
      "latmin": 51.281147424782596
    }, 
    {
      "latmax": 51.32542662253145, 
      "name": "De Blokken", 
      "lonmin": 4.9859294862637515, 
      "sanName": "deblokken", 
      "numOfAddr": 13, 
      "lonmax": 4.988716491353777, 
      "latmin": 51.32268159253376
    }, 
    {
      "latmax": 51.325686777343456, 
      "name": "De Hoogt", 
      "lonmin": 4.975929921406889, 
      "sanName": "dehoogt", 
      "numOfAddr": 19, 
      "lonmax": 4.979280145375609, 
      "latmin": 51.32276472229161
    }, 
    {
      "latmax": 51.35773192723818, 
      "name": "De Laks", 
      "lonmin": 4.9925577447815845, 
      "sanName": "delaks", 
      "numOfAddr": 7, 
      "lonmax": 5.001959344595903, 
      "latmin": 51.35154343302411
    }, 
    {
      "latmax": 51.315609745276205, 
      "name": "De Lint", 
      "lonmin": 5.014059585645966, 
      "sanName": "delint", 
      "numOfAddr": 10, 
      "lonmax": 5.016725651386138, 
      "latmin": 51.31258399774117
    }, 
    {
      "latmax": 51.31625895207249, 
      "name": "Dennenlaan", 
      "lonmin": 5.019789094858999, 
      "sanName": "dennenlaan", 
      "numOfAddr": 25, 
      "lonmax": 5.023742939554251, 
      "latmin": 51.31155136545643
    }, 
    {
      "latmax": 51.31943154266945, 
      "name": "Dijkzijde", 
      "lonmin": 4.968408048840488, 
      "sanName": "dijkzijde", 
      "numOfAddr": 61, 
      "lonmax": 4.975736119617874, 
      "latmin": 51.3168233832531
    }, 
    {
      "latmax": 51.348794548952405, 
      "name": "Dode Dreef", 
      "lonmin": 4.97257498561296, 
      "sanName": "dodedreef", 
      "numOfAddr": 57, 
      "lonmax": 4.977006277535752, 
      "latmin": 51.34318638476356
    }, 
    {
      "latmax": 51.32035567618671, 
      "name": "Domin Bauwensstraat", 
      "lonmin": 4.9844208543713, 
      "sanName": "dominbauwensstraat", 
      "numOfAddr": 6, 
      "lonmax": 4.985189183331388, 
      "latmin": 51.31978917830482
    }, 
    {
      "latmax": 51.30250038905865, 
      "name": "Donk", 
      "lonmin": 5.01943968840152, 
      "sanName": "donk", 
      "numOfAddr": 50, 
      "lonmax": 5.032258105537556, 
      "latmin": 51.29468782841185
    }, 
    {
      "latmax": 51.340387438409664, 
      "name": "Doolhofstraat", 
      "lonmin": 4.992618456250067, 
      "sanName": "doolhofstraat", 
      "numOfAddr": 2, 
      "lonmax": 4.993131777398108, 
      "latmin": 51.338976829074674
    }, 
    {
      "latmax": 51.318633814053555, 
      "name": "Dorp", 
      "lonmin": 2.306689562140502, 
      "sanName": "dorp", 
      "numOfAddr": 24, 
      "lonmax": 4.982205741167438, 
      "latmin": 49.293335165093566
    }, 
    {
      "latmax": 51.32473551739192, 
      "name": "Draaiboom", 
      "lonmin": 4.985809380116567, 
      "sanName": "draaiboom", 
      "numOfAddr": 106, 
      "lonmax": 4.99924949995945, 
      "latmin": 51.32076305225765
    }, 
    {
      "latmax": 51.312310533216525, 
      "name": "Driedostraat", 
      "lonmin": 4.989401444448437, 
      "sanName": "driedostraat", 
      "numOfAddr": 32, 
      "lonmax": 4.992129718365945, 
      "latmin": 51.31000311258439
    }, 
    {
      "latmax": 51.30262455171078, 
      "name": "Echelstraat", 
      "lonmin": 4.992980947098681, 
      "sanName": "echelstraat", 
      "numOfAddr": 5, 
      "lonmax": 4.997426101713767, 
      "latmin": 51.29931466360712
    }, 
    {
      "latmax": 51.32079714468688, 
      "name": "Eekhoornweg", 
      "lonmin": 5.017886181981963, 
      "sanName": "eekhoornweg", 
      "numOfAddr": 6, 
      "lonmax": 5.02030236854502, 
      "latmin": 51.31993336918301
    }, 
    {
      "latmax": 51.31323182426991, 
      "name": "Eendendreef", 
      "lonmin": 5.029781925486232, 
      "sanName": "eendendreef", 
      "numOfAddr": 4, 
      "lonmax": 5.035166330708285, 
      "latmin": 51.311797089518166
    }, 
    {
      "latmax": 51.311973625715005, 
      "name": "Eensven", 
      "lonmin": 4.993665828685435, 
      "sanName": "eensven", 
      "numOfAddr": 9, 
      "lonmax": 4.994710339219048, 
      "latmin": 51.31110425328615
    }, 
    {
      "latmax": 51.31005167054711, 
      "name": "Eggestraat", 
      "lonmin": 4.973752487214221, 
      "sanName": "eggestraat", 
      "numOfAddr": 2, 
      "lonmax": 4.974334749888455, 
      "latmin": 51.31004150147167
    }, 
    {
      "latmax": 51.31794995373095, 
      "name": "Eigen", 
      "lonmin": 4.972538096650578, 
      "sanName": "eigen", 
      "numOfAddr": 42, 
      "lonmax": 4.979655890661734, 
      "latmin": 51.31334844744582
    }, 
    {
      "latmax": 51.31756496364867, 
      "name": "Eksterstraat", 
      "lonmin": 5.003144072568867, 
      "sanName": "eksterstraat", 
      "numOfAddr": 11, 
      "lonmax": 5.005524463691978, 
      "latmin": 51.31597391823972
    }, 
    {
      "latmax": 51.31107039098255, 
      "name": "Engelstraat", 
      "lonmin": 5.019758448918036, 
      "sanName": "engelstraat", 
      "numOfAddr": 7, 
      "lonmax": 5.023037799732385, 
      "latmin": 51.309332118830625
    }, 
    {
      "latmax": 51.32000174830442, 
      "name": "Eug. Surinxstraat", 
      "lonmin": 4.987757754045653, 
      "sanName": "eugsurinxstraat", 
      "numOfAddr": 27, 
      "lonmax": 4.990453310277522, 
      "latmin": 51.31897586347211
    }, 
    {
      "latmax": 51.31729547084629, 
      "name": "Fazantendreef", 
      "lonmin": 5.020504272355364, 
      "sanName": "fazantendreef", 
      "numOfAddr": 10, 
      "lonmax": 5.022027179604881, 
      "latmin": 51.31591216629536
    }, 
    {
      "latmax": 51.32002151670052, 
      "name": "Gaaienlaan", 
      "lonmin": 5.032488339714768, 
      "sanName": "gaaienlaan", 
      "numOfAddr": 24, 
      "lonmax": 5.0357446305021965, 
      "latmin": 51.314862479533836
    }, 
    {
      "latmax": 51.31799094619373, 
      "name": "Gagelveld", 
      "lonmin": 5.0143037993986095, 
      "sanName": "gagelveld", 
      "numOfAddr": 5, 
      "lonmax": 5.0152289029333, 
      "latmin": 51.31729671536546
    }, 
    {
      "latmax": 51.31560199311982, 
      "name": "Ganzendreef", 
      "lonmin": 5.027619289754299, 
      "sanName": "ganzendreef", 
      "numOfAddr": 11, 
      "lonmax": 5.03004824319237, 
      "latmin": 51.31274392587311
    }, 
    {
      "latmax": 51.35748560509465, 
      "name": "Geleg", 
      "lonmin": 4.968531232787882, 
      "sanName": "geleg", 
      "numOfAddr": 2, 
      "lonmax": 4.968776762590896, 
      "latmin": 51.35738204647033
    }, 
    {
      "latmax": 51.32154702791971, 
      "name": "Gemeentestraat", 
      "lonmin": 4.984876612414327, 
      "sanName": "gemeentestraat", 
      "numOfAddr": 27, 
      "lonmax": 4.987461900627313, 
      "latmin": 51.32020172644083
    }, 
    {
      "latmax": 51.31698299444634, 
      "name": "Gommers", 
      "lonmin": 4.9751878457309155, 
      "sanName": "gommers", 
      "numOfAddr": 23, 
      "lonmax": 4.979156614411808, 
      "latmin": 51.31525422252103
    }, 
    {
      "latmax": 51.31989964079516, 
      "name": "Goordijk", 
      "lonmin": 5.023481224970569, 
      "sanName": "goordijk", 
      "numOfAddr": 22, 
      "lonmax": 5.028231044697511, 
      "latmin": 51.31115102700071
    }, 
    {
      "latmax": 51.31887649448079, 
      "name": "Gorzendreef", 
      "lonmin": 5.026173400035606, 
      "sanName": "gorzendreef", 
      "numOfAddr": 18, 
      "lonmax": 5.028708721659417, 
      "latmin": 51.31572510826034
    }, 
    {
      "latmax": 51.31607298689341, 
      "name": "Goudbloemstraat", 
      "lonmin": 4.989635463574436, 
      "sanName": "goudbloemstraat", 
      "numOfAddr": 10, 
      "lonmax": 4.990450091514429, 
      "latmin": 51.31577879810239
    }, 
    {
      "latmax": 51.30866788432018, 
      "name": "Groendreef", 
      "lonmin": 5.017521632064282, 
      "sanName": "groendreef", 
      "numOfAddr": 6, 
      "lonmax": 5.0191522731522475, 
      "latmin": 51.30668518545424
    }, 
    {
      "latmax": 51.32215230054762, 
      "name": "Grote Vondelweg", 
      "lonmin": 4.977262500891259, 
      "sanName": "grotevondelweg", 
      "numOfAddr": 13, 
      "lonmax": 4.9792276461582015, 
      "latmin": 51.320769333985204
    }, 
    {
      "latmax": 51.31534701660451, 
      "name": "Guldenweg", 
      "lonmin": 5.008909627140961, 
      "sanName": "guldenweg", 
      "numOfAddr": 12, 
      "lonmax": 5.01183397443783, 
      "latmin": 51.31409336636088
    }, 
    {
      "latmax": 51.31900118978153, 
      "name": "Haegbroek", 
      "lonmin": 4.974284138641832, 
      "sanName": "haegbroek", 
      "numOfAddr": 21, 
      "lonmax": 4.975988613674015, 
      "latmin": 51.31795982807
    }, 
    {
      "latmax": 51.32089210742536, 
      "name": "Hazenweg", 
      "lonmin": 5.016037613264008, 
      "sanName": "hazenweg", 
      "numOfAddr": 7, 
      "lonmax": 5.018909902111398, 
      "latmin": 51.31914867684296
    }, 
    {
      "latmax": 51.33665587805797, 
      "name": "Heerestraat", 
      "lonmin": 4.972731711696133, 
      "sanName": "heerestraat", 
      "numOfAddr": 59, 
      "lonmax": 4.975231982475127, 
      "latmin": 51.328790968411816
    }, 
    {
      "latmax": 51.35055458065389, 
      "name": "Heidestraat", 
      "lonmin": 4.973302099851723, 
      "sanName": "heidestraat", 
      "numOfAddr": 15, 
      "lonmax": 4.975070431420405, 
      "latmin": 51.34843125403949
    }, 
    {
      "latmax": 51.3444782104494, 
      "name": "Heieinde", 
      "lonmin": 4.975108582019196, 
      "sanName": "heieinde", 
      "numOfAddr": 76, 
      "lonmax": 4.98582608815376, 
      "latmin": 51.33719552050387
    }, 
    {
      "latmax": 51.32025732987776, 
      "name": "Hendrickxstraat", 
      "lonmin": 4.968920388464929, 
      "sanName": "hendrickxstraat", 
      "numOfAddr": 38, 
      "lonmax": 4.970923224265959, 
      "latmin": 51.31866087404012
    }, 
    {
      "latmax": 51.30993028686697, 
      "name": "Hendrik van Zellestraat", 
      "lonmin": 4.9896821909081615, 
      "sanName": "hendrikvanzellestraat", 
      "numOfAddr": 44, 
      "lonmax": 4.992967852016242, 
      "latmin": 51.30774338088585
    }, 
    {
      "latmax": 51.3010254603356, 
      "name": "Herfstdreef", 
      "lonmin": 5.004901760557795, 
      "sanName": "herfstdreef", 
      "numOfAddr": 12, 
      "lonmax": 5.007384219316696, 
      "latmin": 51.29813217493116
    }, 
    {
      "latmax": 51.31503883231487, 
      "name": "Het Bergske", 
      "lonmin": 4.975699565136058, 
      "sanName": "hetbergske", 
      "numOfAddr": 33, 
      "lonmax": 4.979061388962484, 
      "latmin": 51.31419612588039
    }, 
    {
      "latmax": 51.34032447719481, 
      "name": "Hofstede", 
      "lonmin": 4.976175405956398, 
      "sanName": "hofstede", 
      "numOfAddr": 3, 
      "lonmax": 4.976363056463289, 
      "latmin": 51.33994451802994
    }, 
    {
      "latmax": 51.331479214381275, 
      "name": "Hoge Beemdstraat", 
      "lonmin": 4.983565235522324, 
      "sanName": "hogebeemdstraat", 
      "numOfAddr": 5, 
      "lonmax": 4.986427439610056, 
      "latmin": 51.32868568359679
    }, 
    {
      "latmax": 51.29580636386749, 
      "name": "Hoge Darisdonk", 
      "lonmin": 4.9884890174815455, 
      "sanName": "hogedarisdonk", 
      "numOfAddr": 18, 
      "lonmax": 4.99961964285161, 
      "latmin": 51.29002889524213
    }, 
    {
      "latmax": 51.33421548976635, 
      "name": "Hoge Mierdse Heide", 
      "lonmin": 5.027420863427723, 
      "sanName": "hogemierdseheide", 
      "numOfAddr": 35, 
      "lonmax": 5.0332311214012675, 
      "latmin": 51.32614150828658
    }, 
    {
      "latmax": 51.34527029885091, 
      "name": "Hoge Mierdse Weg", 
      "lonmin": 4.994187966780383, 
      "sanName": "hogemierdseweg", 
      "numOfAddr": 2, 
      "lonmax": 4.994648839336992, 
      "latmin": 51.345065734387504
    }, 
    {
      "latmax": 51.316188626858704, 
      "name": "Hoogstraat", 
      "lonmin": 4.981391956283376, 
      "sanName": "hoogstraat", 
      "numOfAddr": 4, 
      "lonmax": 4.983973214636978, 
      "latmin": 51.3151490322138
    }, 
    {
      "latmax": 51.319794116478775, 
      "name": "Horzelweg", 
      "lonmin": 5.017204815044459, 
      "sanName": "horzelweg", 
      "numOfAddr": 10, 
      "lonmax": 5.019810557613064, 
      "latmin": 51.317732368981794
    }, 
    {
      "latmax": 51.340828362661625, 
      "name": "Hueven", 
      "lonmin": 4.975766345360301, 
      "sanName": "hueven", 
      "numOfAddr": 33, 
      "lonmax": 4.978838649030309, 
      "latmin": 51.33913930643441
    }, 
    {
      "latmax": 51.30880749212901, 
      "name": "Jagersstraat", 
      "lonmin": 5.023355446218166, 
      "sanName": "jagersstraat", 
      "numOfAddr": 10, 
      "lonmax": 5.026248488883766, 
      "latmin": 51.307127437378064
    }, 
    {
      "latmax": 51.31041716937096, 
      "name": "Jan de Beerstraat", 
      "lonmin": 4.991781591625463, 
      "sanName": "jandebeerstraat", 
      "numOfAddr": 11, 
      "lonmax": 4.992893361822498, 
      "latmin": 51.309661880272074
    }, 
    {
      "latmax": 51.317925060702734, 
      "name": "Jan Roesstraat", 
      "lonmin": 4.989006427962913, 
      "sanName": "janroesstraat", 
      "numOfAddr": 23, 
      "lonmax": 4.989778975087139, 
      "latmin": 51.316899058797354
    }, 
    {
      "latmax": 51.319208002676966, 
      "name": "Jef Claesenstraat", 
      "lonmin": 4.985208353101706, 
      "sanName": "jefclaesenstraat", 
      "numOfAddr": 55, 
      "lonmax": 4.988145099336884, 
      "latmin": 51.31634339782573
    }, 
    {
      "latmax": 51.31812635170628, 
      "name": "Jozef Embrechtsstraat", 
      "lonmin": 4.986093207402867, 
      "sanName": "jozefembrechtsstraat", 
      "numOfAddr": 25, 
      "lonmax": 4.988685811903665, 
      "latmin": 51.31656687701028
    }, 
    {
      "latmax": 51.31826868980149, 
      "name": "Jozef Van Miertstraat", 
      "lonmin": 4.98984538890842, 
      "sanName": "jozefvanmiertstraat", 
      "numOfAddr": 19, 
      "lonmax": 4.9914231754159175, 
      "latmin": 51.317404116235096
    }, 
    {
      "latmax": 51.309352275990776, 
      "name": "Kaeyputtenstraat", 
      "lonmin": 5.03694765866749, 
      "sanName": "kaeyputtenstraat", 
      "numOfAddr": 2, 
      "lonmax": 5.037963871686917, 
      "latmin": 51.308972774135086
    }, 
    {
      "latmax": 51.31992367742222, 
      "name": "Kapelstraat", 
      "lonmin": 4.981656721167539, 
      "sanName": "kapelstraat", 
      "numOfAddr": 19, 
      "lonmax": 4.983115364193807, 
      "latmin": 51.319201744414606
    }, 
    {
      "latmax": 51.345679113773386, 
      "name": "Karperstraat", 
      "lonmin": 4.972252893673854, 
      "sanName": "karperstraat", 
      "numOfAddr": 6, 
      "lonmax": 4.973725129915946, 
      "latmin": 51.34552419509683
    }, 
    {
      "latmax": 51.32340317985166, 
      "name": "Kerkedries", 
      "lonmin": 4.987497721843473, 
      "sanName": "kerkedries", 
      "numOfAddr": 14, 
      "lonmax": 4.98907222922659, 
      "latmin": 51.32243064342072
    }, 
    {
      "latmax": 51.322922012130746, 
      "name": "Kerkstraat", 
      "lonmin": 4.979143514835909, 
      "sanName": "kerkstraat", 
      "numOfAddr": 70, 
      "lonmax": 4.985203345175563, 
      "latmin": 51.31912808101945
    }, 
    {
      "latmax": 51.29375179053385, 
      "name": "Kinschotsebaan", 
      "lonmin": 5.0300195597789825, 
      "sanName": "kinschotsebaan", 
      "numOfAddr": 6, 
      "lonmax": 5.03516630397652, 
      "latmin": 51.289847938918264
    }, 
    {
      "latmax": 51.331194752188544, 
      "name": "Kleine Heerestraat", 
      "lonmin": 4.976272642742421, 
      "sanName": "kleineheerestraat", 
      "numOfAddr": 3, 
      "lonmax": 4.977711347420335, 
      "latmin": 51.33020323321424
    }, 
    {
      "latmax": 51.35612325061235, 
      "name": "Kleine Lakestraat", 
      "lonmin": 5.0076242795494545, 
      "sanName": "kleinelakestraat", 
      "numOfAddr": 1, 
      "lonmax": 5.0076242795494545, 
      "latmin": 51.35612325061235
    }, 
    {
      "latmax": 51.322451366889254, 
      "name": "Kleine Vondelweg", 
      "lonmin": 4.977015175767349, 
      "sanName": "kleinevondelweg", 
      "numOfAddr": 14, 
      "lonmax": 4.9785833608868275, 
      "latmin": 51.32172695559962
    }, 
    {
      "latmax": 51.34945891623405, 
      "name": "Kleiputstraat", 
      "lonmin": 4.965412257101621, 
      "sanName": "kleiputstraat", 
      "numOfAddr": 32, 
      "lonmax": 4.970130598231892, 
      "latmin": 51.34898519646308
    }, 
    {
      "latmax": 51.33706742027803, 
      "name": "Kluisstraat", 
      "lonmin": 4.966097010102883, 
      "sanName": "kluisstraat", 
      "numOfAddr": 5, 
      "lonmax": 4.967093675624379, 
      "latmin": 51.33629479108827
    }, 
    {
      "latmax": 51.32052075239142, 
      "name": "Koekoekdreef", 
      "lonmin": 5.026778619331869, 
      "sanName": "koekoekdreef", 
      "numOfAddr": 11, 
      "lonmax": 5.03173076408445, 
      "latmin": 51.318889363753776
    }, 
    {
      "latmax": 51.3190001251128, 
      "name": "Koning Boudewijnlaan", 
      "lonmin": 4.975266747510677, 
      "sanName": "koningboudewijnlaan", 
      "numOfAddr": 47, 
      "lonmax": 4.980869951763803, 
      "latmin": 51.31720493537453
    }, 
    {
      "latmax": 51.317562540838466, 
      "name": "Koningin Fabiolalaan", 
      "lonmin": 4.976281221620472, 
      "sanName": "koninginfabiolalaan", 
      "numOfAddr": 26, 
      "lonmax": 4.978699622339791, 
      "latmin": 51.31661344317248
    }, 
    {
      "latmax": 51.319753451054794, 
      "name": "Korenbloemstraat", 
      "lonmin": 4.990541425847364, 
      "sanName": "korenbloemstraat", 
      "numOfAddr": 62, 
      "lonmax": 4.992988280599412, 
      "latmin": 51.315603005214165
    }, 
    {
      "latmax": 51.303564221250056, 
      "name": "Korte Schoutstraat", 
      "lonmin": 5.001740730822125, 
      "sanName": "korteschoutstraat", 
      "numOfAddr": 24, 
      "lonmax": 5.005696554100729, 
      "latmin": 51.29793719839162
    }, 
    {
      "latmax": 51.31880436384763, 
      "name": "Kraaienbosstraat", 
      "lonmin": 4.994526938664952, 
      "sanName": "kraaienbosstraat", 
      "numOfAddr": 22, 
      "lonmax": 5.007442771099889, 
      "latmin": 51.31400801609452
    }, 
    {
      "latmax": 51.316219736475894, 
      "name": "Kraaienstraat", 
      "lonmin": 5.004605098976557, 
      "sanName": "kraaienstraat", 
      "numOfAddr": 5, 
      "lonmax": 5.006620968658159, 
      "latmin": 51.31571798489284
    }, 
    {
      "latmax": 51.31903169378355, 
      "name": "Krekelweg", 
      "lonmin": 5.018992079512836, 
      "sanName": "krekelweg", 
      "numOfAddr": 7, 
      "lonmax": 5.020365613543074, 
      "latmin": 51.31829467838078
    }, 
    {
      "latmax": 51.299255158053136, 
      "name": "Kromme Schoutstraat", 
      "lonmin": 5.003737603270472, 
      "sanName": "krommeschoutstraat", 
      "numOfAddr": 3, 
      "lonmax": 5.0090096361600125, 
      "latmin": 51.29807001195326
    }, 
    {
      "latmax": 51.321506648906045, 
      "name": "Kruispad", 
      "lonmin": 4.990461735382067, 
      "sanName": "kruispad", 
      "numOfAddr": 25, 
      "lonmax": 4.9953146818877325, 
      "latmin": 51.31945794696379
    }, 
    {
      "latmax": 51.35178121345387, 
      "name": "Kuiltjesstraat", 
      "lonmin": 4.969347629554307, 
      "sanName": "kuiltjesstraat", 
      "numOfAddr": 109, 
      "lonmax": 4.972432113973875, 
      "latmin": 51.34207282663811
    }, 
    {
      "latmax": 51.31779276301638, 
      "name": "Kwarteldreef", 
      "lonmin": 5.021954136288042, 
      "sanName": "kwarteldreef", 
      "numOfAddr": 7, 
      "lonmax": 5.024111321255623, 
      "latmin": 51.316850920995925
    }, 
    {
      "latmax": 51.305256215636426, 
      "name": "Lage Darisdonk", 
      "lonmin": 4.987381792449705, 
      "sanName": "lagedarisdonk", 
      "numOfAddr": 45, 
      "lonmax": 4.990887568275049, 
      "latmin": 51.30136368443386
    }, 
    {
      "latmax": 51.353315256164656, 
      "name": "Lage Mierdse Weg", 
      "lonmin": 4.98774685431592, 
      "sanName": "lagemierdseweg", 
      "numOfAddr": 16, 
      "lonmax": 5.036300163276546, 
      "latmin": 51.34258310894667
    }, 
    {
      "latmax": 51.35172191261785, 
      "name": "Landbouwstraat", 
      "lonmin": 4.966476484783119, 
      "sanName": "landbouwstraat", 
      "numOfAddr": 16, 
      "lonmax": 4.969182658916821, 
      "latmin": 51.35124514056222
    }, 
    {
      "latmax": 51.350126900258395, 
      "name": "Leemstraat", 
      "lonmin": 4.965310826795158, 
      "sanName": "leemstraat", 
      "numOfAddr": 17, 
      "lonmax": 4.968119881605593, 
      "latmin": 51.34971196612374
    }, 
    {
      "latmax": 51.35231398201929, 
      "name": "Leeuwerkstraat", 
      "lonmin": 4.985752788592934, 
      "sanName": "leeuwerkstraat", 
      "numOfAddr": 15, 
      "lonmax": 4.98782588152473, 
      "latmin": 51.343303258038226
    }, 
    {
      "latmax": 51.30480601968583, 
      "name": "Lentedreef", 
      "lonmin": 5.009974636319377, 
      "sanName": "lentedreef", 
      "numOfAddr": 23, 
      "lonmax": 5.014486816828676, 
      "latmin": 51.30034118442943
    }, 
    {
      "latmax": 51.3085096051914, 
      "name": "Lijnwaadstraat", 
      "lonmin": 5.002307779484591, 
      "sanName": "lijnwaadstraat", 
      "numOfAddr": 11, 
      "lonmax": 5.003827096883056, 
      "latmin": 51.3079335523285
    }, 
    {
      "latmax": 51.31857374468487, 
      "name": "Lijsterdreef", 
      "lonmin": 5.028358282256285, 
      "sanName": "lijsterdreef", 
      "numOfAddr": 10, 
      "lonmax": 5.030424808420553, 
      "latmin": 51.31666952544519
    }, 
    {
      "latmax": 51.318206786125884, 
      "name": "Lintbekelaan", 
      "lonmin": 5.015831339670017, 
      "sanName": "lintbekelaan", 
      "numOfAddr": 9, 
      "lonmax": 5.021835407366662, 
      "latmin": 51.312268420021624
    }, 
    {
      "latmax": 51.3166213225099, 
      "name": "Magerman", 
      "lonmin": 4.973967526070126, 
      "sanName": "magerman", 
      "numOfAddr": 41, 
      "lonmax": 4.977820037538959, 
      "latmin": 51.315081922478754
    }, 
    {
      "latmax": 51.31689950557209, 
      "name": "Meibloemstraat", 
      "lonmin": 4.988956215876336, 
      "sanName": "meibloemstraat", 
      "numOfAddr": 32, 
      "lonmax": 4.990237167273246, 
      "latmin": 51.31490397962109
    }, 
    {
      "latmax": 51.29643801919799, 
      "name": "Mellestraat", 
      "lonmin": 4.984936985221049, 
      "sanName": "mellestraat", 
      "numOfAddr": 3, 
      "lonmax": 4.987289693702637, 
      "latmin": 51.2954146332161
    }, 
    {
      "latmax": 51.31504220626171, 
      "name": "Molenbergen", 
      "lonmin": 4.98702261550679, 
      "sanName": "molenbergen", 
      "numOfAddr": 26, 
      "lonmax": 4.988688790506119, 
      "latmin": 51.31234963020116
    }, 
    {
      "latmax": 51.31829409832551, 
      "name": "Nachtegalendreef", 
      "lonmin": 5.0302784156784135, 
      "sanName": "nachtegalendreef", 
      "numOfAddr": 6, 
      "lonmax": 5.03268071645765, 
      "latmin": 51.31724378709053
    }, 
    {
      "latmax": 51.321715731241945, 
      "name": "Nadorst", 
      "lonmin": 4.972421205760424, 
      "sanName": "nadorst", 
      "numOfAddr": 33, 
      "lonmax": 4.976432294757008, 
      "latmin": 51.32086613506093
    }, 
    {
      "latmax": 51.31709567029516, 
      "name": "Neerstraat", 
      "lonmin": 4.981611395134905, 
      "sanName": "neerstraat", 
      "numOfAddr": 146, 
      "lonmax": 4.991227514393177, 
      "latmin": 51.30542522710684
    }, 
    {
      "latmax": 51.32474988217514, 
      "name": "Neringstraat", 
      "lonmin": 4.969136751800926, 
      "sanName": "neringstraat", 
      "numOfAddr": 6, 
      "lonmax": 4.970364214390547, 
      "latmin": 51.323751564192186
    }, 
    {
      "latmax": 51.31284506767865, 
      "name": "Nieuwe Staatsbaan", 
      "lonmin": 5.020963592627164, 
      "sanName": "nieuwestaatsbaan", 
      "numOfAddr": 27, 
      "lonmax": 5.037776809276673, 
      "latmin": 51.30670725167899
    }, 
    {
      "latmax": 51.338733466342624, 
      "name": "Nieuwstraat", 
      "lonmin": 4.971299400815076, 
      "sanName": "nieuwstraat", 
      "numOfAddr": 31, 
      "lonmax": 4.974745440599117, 
      "latmin": 51.33753308711531
    }, 
    {
      "latmax": 51.32109509014713, 
      "name": "Onze Lieve Vrouwstraat", 
      "lonmin": 4.989022779163323, 
      "sanName": "onzelievevrouwstraat", 
      "numOfAddr": 63, 
      "lonmax": 4.991582381528018, 
      "latmin": 51.317969857700774
    }, 
    {
      "latmax": 51.333388992508844, 
      "name": "Opstal", 
      "lonmin": 4.970951366486729, 
      "sanName": "opstal", 
      "numOfAddr": 17, 
      "lonmax": 4.972878244297818, 
      "latmin": 51.332159930018214
    }, 
    {
      "latmax": 51.31548616791477, 
      "name": "Oude Arendonkse Baan", 
      "lonmin": 4.989456545042652, 
      "sanName": "oudearendonksebaan", 
      "numOfAddr": 70, 
      "lonmax": 5.011689764290852, 
      "latmin": 51.31194278219535
    }, 
    {
      "latmax": 51.32549544932969, 
      "name": "Oude Heerestraat", 
      "lonmin": 4.974142978823582, 
      "sanName": "oudeheerestraat", 
      "numOfAddr": 12, 
      "lonmax": 4.975169525402101, 
      "latmin": 51.3237606893602
    }, 
    {
      "latmax": 51.30781618962198, 
      "name": "Oude Retiese Baan", 
      "lonmin": 5.010891233403803, 
      "sanName": "ouderetiesebaan", 
      "numOfAddr": 29, 
      "lonmax": 5.019446869635171, 
      "latmin": 51.305102328949715
    }, 
    {
      "latmax": 51.30192156352749, 
      "name": "Overheide", 
      "lonmin": 5.017156748960418, 
      "sanName": "overheide", 
      "numOfAddr": 2, 
      "lonmax": 5.017608299916422, 
      "latmin": 51.301117866112484
    }, 
    {
      "latmax": 51.3609408386308, 
      "name": "Pannenfabriek", 
      "lonmin": 4.96718158585873, 
      "sanName": "pannenfabriek", 
      "numOfAddr": 3, 
      "lonmax": 4.968332419780996, 
      "latmin": 51.360072958555065
    }, 
    {
      "latmax": 51.3173665177384, 
      "name": "Paradijs", 
      "lonmin": 5.007684077195058, 
      "sanName": "paradijs", 
      "numOfAddr": 27, 
      "lonmax": 5.0131918303507845, 
      "latmin": 51.31303694970169
    }, 
    {
      "latmax": 51.31421290938153, 
      "name": "Pastoor Geptsstraat", 
      "lonmin": 4.995284054176701, 
      "sanName": "pastoorgeptsstraat", 
      "numOfAddr": 14, 
      "lonmax": 4.996001046385125, 
      "latmin": 51.31308375435599
    }, 
    {
      "latmax": 51.319735478580405, 
      "name": "Pastoor Kerselaersstraat", 
      "lonmin": 4.99139021153017, 
      "sanName": "pastoorkerselaersstraat", 
      "numOfAddr": 15, 
      "lonmax": 4.992370424782424, 
      "latmin": 51.319282687219136
    }, 
    {
      "latmax": 51.34622275684465, 
      "name": "Pastoor Kruyfhooftstraat", 
      "lonmin": 4.973205887959269, 
      "sanName": "pastoorkruyfhooftstraat", 
      "numOfAddr": 6, 
      "lonmax": 4.973837448317372, 
      "latmin": 51.34589327867395
    }, 
    {
      "latmax": 51.321498953868364, 
      "name": "Pausenstraat", 
      "lonmin": 4.983390916096016, 
      "sanName": "pausenstraat", 
      "numOfAddr": 82, 
      "lonmax": 4.989456002220025, 
      "latmin": 51.3180781257018
    }, 
    {
      "latmax": 51.31880372293054, 
      "name": "Petrus Dielsstraat", 
      "lonmin": 4.985635491833661, 
      "sanName": "petrusdielsstraat", 
      "numOfAddr": 29, 
      "lonmax": 4.988447685904202, 
      "latmin": 51.317468093992424
    }, 
    {
      "latmax": 51.34190088415044, 
      "name": "Ploegstraat", 
      "lonmin": 4.973224090683508, 
      "sanName": "ploegstraat", 
      "numOfAddr": 15, 
      "lonmax": 4.9744361302740385, 
      "latmin": 51.34091952561645
    }, 
    {
      "latmax": 51.3374059786486, 
      "name": "Polderstraat", 
      "lonmin": 2.306689562140502, 
      "sanName": "polderstraat", 
      "numOfAddr": 84, 
      "lonmax": 4.974840804742509, 
      "latmin": 49.293335165093566
    }, 
    {
      "latmax": 51.3157538907777, 
      "name": "Primus J. Boschlaan", 
      "lonmin": 4.968688651612473, 
      "sanName": "primusjboschlaan", 
      "numOfAddr": 11, 
      "lonmax": 4.970311835359589, 
      "latmin": 51.31484316304922
    }, 
    {
      "latmax": 51.33958830880669, 
      "name": "Rabauwakkers", 
      "lonmin": 4.971232267787438, 
      "sanName": "rabauwakkers", 
      "numOfAddr": 42, 
      "lonmax": 4.975326795115692, 
      "latmin": 51.33907721388069
    }, 
    {
      "latmax": 51.321603624689615, 
      "name": "Reebokweg", 
      "lonmin": 5.017153656391524, 
      "sanName": "reebokweg", 
      "numOfAddr": 12, 
      "lonmax": 5.019897663311193, 
      "latmin": 51.320413003868424
    }, 
    {
      "latmax": 51.287246368436115, 
      "name": "Reesdijkstraat", 
      "lonmin": 4.995946551449887, 
      "sanName": "reesdijkstraat", 
      "numOfAddr": 2, 
      "lonmax": 4.9963803886615, 
      "latmin": 51.285924919254946
    }, 
    {
      "latmax": 51.3064971452938, 
      "name": "Rhoode", 
      "lonmin": 5.020700601349012, 
      "sanName": "rhoode", 
      "numOfAddr": 36, 
      "lonmax": 5.045608809082125, 
      "latmin": 51.30055442439969
    }, 
    {
      "latmax": 51.34217930395968, 
      "name": "Rist", 
      "lonmin": 4.965116094508266, 
      "sanName": "rist", 
      "numOfAddr": 41, 
      "lonmax": 4.968546934661845, 
      "latmin": 51.338181532081585
    }, 
    {
      "latmax": 51.32233636141511, 
      "name": "Rode Kruisstraat", 
      "lonmin": 4.978955281976431, 
      "sanName": "rodekruisstraat", 
      "numOfAddr": 21, 
      "lonmax": 4.980884735701195, 
      "latmin": 51.32115519931284
    }, 
    {
      "latmax": 51.29115418925683, 
      "name": "Rode Loopstraat", 
      "lonmin": 5.0024847514491855, 
      "sanName": "rodeloopstraat", 
      "numOfAddr": 2, 
      "lonmax": 5.005419475691243, 
      "latmin": 51.289756512757265
    }, 
    {
      "latmax": 51.32095535449256, 
      "name": "Roskamstraat", 
      "lonmin": 4.975439058816986, 
      "sanName": "roskamstraat", 
      "numOfAddr": 11, 
      "lonmax": 4.976674587478609, 
      "latmin": 51.320579880432426
    }, 
    {
      "latmax": 51.30581803568847, 
      "name": "Schoutenhoefstraat", 
      "lonmin": 4.991355655260353, 
      "sanName": "schoutenhoefstraat", 
      "numOfAddr": 18, 
      "lonmax": 5.004310542931534, 
      "latmin": 51.303699710153104
    }, 
    {
      "latmax": 51.3370290201189, 
      "name": "Schuurhoven", 
      "lonmin": 4.975717613897998, 
      "sanName": "schuurhoven", 
      "numOfAddr": 67, 
      "lonmax": 4.99126772392175, 
      "latmin": 51.330984426004335
    }, 
    {
      "latmax": 51.33462561492871, 
      "name": "Schuurhovenberg", 
      "lonmin": 4.991120079232045, 
      "sanName": "schuurhovenberg", 
      "numOfAddr": 33, 
      "lonmax": 5.003386588371015, 
      "latmin": 51.32438721711291
    }, 
    {
      "latmax": 51.33273380079585, 
      "name": "Schuurhovendijk", 
      "lonmin": 4.990967060653842, 
      "sanName": "schuurhovendijk", 
      "numOfAddr": 4, 
      "lonmax": 4.991826711737528, 
      "latmin": 51.3316444600042
    }, 
    {
      "latmax": 51.31971482481456, 
      "name": "Sint-Annaplein", 
      "lonmin": 4.985686810582305, 
      "sanName": "sintannaplein", 
      "numOfAddr": 25, 
      "lonmax": 4.987636430452372, 
      "latmin": 51.31884471892707
    }, 
    {
      "latmax": 51.34106379960765, 
      "name": "Sint-Antoniusstraat", 
      "lonmin": 4.972242584305994, 
      "sanName": "sintantoniusstraat", 
      "numOfAddr": 46, 
      "lonmax": 4.975931481060991, 
      "latmin": 51.33749578831769
    }, 
    {
      "latmax": 51.318751351946325, 
      "name": "Sint-Bavoplein", 
      "lonmin": 4.988816471047311, 
      "sanName": "sintbavoplein", 
      "numOfAddr": 14, 
      "lonmax": 4.989665210737528, 
      "latmin": 51.31797413420247
    }, 
    {
      "latmax": 51.32162046971714, 
      "name": "Sint-Bavostraat", 
      "lonmin": 4.985676626375617, 
      "sanName": "sintbavostraat", 
      "numOfAddr": 35, 
      "lonmax": 4.9892081857001545, 
      "latmin": 51.31888673009881
    }, 
    {
      "latmax": 51.316919038998286, 
      "name": "Sint-Ritaplein", 
      "lonmin": 4.988162309357614, 
      "sanName": "sintritaplein", 
      "numOfAddr": 18, 
      "lonmax": 4.989282762392999, 
      "latmin": 51.31627891654484
    }, 
    {
      "latmax": 51.28833625104766, 
      "name": "Slootstraat", 
      "lonmin": 4.982008500216347, 
      "sanName": "slootstraat", 
      "numOfAddr": 3, 
      "lonmax": 4.987166451208931, 
      "latmin": 51.28412940891438
    }, 
    {
      "latmax": 51.31855379130958, 
      "name": "Sparrendreef", 
      "lonmin": 5.02455605001856, 
      "sanName": "sparrendreef", 
      "numOfAddr": 6, 
      "lonmax": 5.025989054652214, 
      "latmin": 51.31644026137248
    }, 
    {
      "latmax": 51.31720910290821, 
      "name": "Spechtendreef", 
      "lonmin": 5.028896348654004, 
      "sanName": "spechtendreef", 
      "numOfAddr": 11, 
      "lonmax": 5.033287353685348, 
      "latmin": 51.31590225722172
    }, 
    {
      "latmax": 51.32296169534371, 
      "name": "Sperwersweg", 
      "lonmin": 5.024523101741822, 
      "sanName": "sperwersweg", 
      "numOfAddr": 5, 
      "lonmax": 5.025552951675, 
      "latmin": 51.321358303513655
    }, 
    {
      "latmax": 51.32067454982041, 
      "name": "Sportveldstraat", 
      "lonmin": 4.9882396310563175, 
      "sanName": "sportveldstraat", 
      "numOfAddr": 19, 
      "lonmax": 4.989747850714511, 
      "latmin": 51.31998406939952
    }, 
    {
      "latmax": 51.31546781024879, 
      "name": "Spreeuwendreef", 
      "lonmin": 5.029456375223435, 
      "sanName": "spreeuwendreef", 
      "numOfAddr": 14, 
      "lonmax": 5.031973747009759, 
      "latmin": 51.312024976705146
    }, 
    {
      "latmax": 51.31827674485067, 
      "name": "Sprinkhaanweg", 
      "lonmin": 5.017814427981918, 
      "sanName": "sprinkhaanweg", 
      "numOfAddr": 11, 
      "lonmax": 5.01969768183176, 
      "latmin": 51.31652833953611
    }, 
    {
      "latmax": 51.3122947593781, 
      "name": "Staatsbaan", 
      "lonmin": 5.009607327132004, 
      "sanName": "staatsbaan", 
      "numOfAddr": 49, 
      "lonmax": 5.026934427387837, 
      "latmin": 51.30784244245423
    }, 
    {
      "latmax": 51.30910948509918, 
      "name": "Staprijk", 
      "lonmin": 5.000749362093404, 
      "sanName": "staprijk", 
      "numOfAddr": 8, 
      "lonmax": 5.003158160676121, 
      "latmin": 51.30696111493081
    }, 
    {
      "latmax": 51.318058444409104, 
      "name": "Steenweg op Mol", 
      "lonmin": 4.982467597827623, 
      "sanName": "steenwegopmol", 
      "numOfAddr": 161, 
      "lonmax": 5.019541484502898, 
      "latmin": 51.302234838848065
    }, 
    {
      "latmax": 51.32860589029714, 
      "name": "Steenweg op Oosthoven", 
      "lonmin": 4.974531699113299, 
      "sanName": "steenwegopoosthoven", 
      "numOfAddr": 84, 
      "lonmax": 4.978155078280502, 
      "latmin": 51.319732088498675
    }, 
    {
      "latmax": 51.353997779313076, 
      "name": "Steenweg op Ravels", 
      "lonmin": 4.967279778245384, 
      "sanName": "steenwegopravels", 
      "numOfAddr": 227, 
      "lonmax": 4.986688611346869, 
      "latmin": 51.33584851259683
    }, 
    {
      "latmax": 51.31743830577499, 
      "name": "Steenweg op Sevendonk", 
      "lonmin": 4.970330786913909, 
      "sanName": "steenwegopsevendonk", 
      "numOfAddr": 120, 
      "lonmax": 4.981368345120714, 
      "latmin": 51.305729990228144
    }, 
    {
      "latmax": 51.32283090232044, 
      "name": "Steenweg op Turnhout", 
      "lonmin": 4.968985363654192, 
      "sanName": "steenwegopturnhout", 
      "numOfAddr": 108, 
      "lonmax": 4.980804518568301, 
      "latmin": 51.31824265084808
    }, 
    {
      "latmax": 51.31841241964179, 
      "name": "Taxandriastraat", 
      "lonmin": 4.983955646055021, 
      "sanName": "taxandriastraat", 
      "numOfAddr": 17, 
      "lonmax": 4.9856180600591795, 
      "latmin": 51.317782441123
    }, 
    {
      "latmax": 51.30805646051224, 
      "name": "Tijkstraat", 
      "lonmin": 5.001664897464229, 
      "sanName": "tijkstraat", 
      "numOfAddr": 27, 
      "lonmax": 5.0042905066529375, 
      "latmin": 51.306448346641005
    }, 
    {
      "latmax": 51.31960998979909, 
      "name": "Torfveld", 
      "lonmin": 5.012614549107294, 
      "sanName": "torfveld", 
      "numOfAddr": 17, 
      "lonmax": 5.0156759324465465, 
      "latmin": 51.316270799288645
    }, 
    {
      "latmax": 51.314688313277266, 
      "name": "Torteldreef", 
      "lonmin": 5.0312376299248305, 
      "sanName": "torteldreef", 
      "numOfAddr": 10, 
      "lonmax": 5.035511039603368, 
      "latmin": 51.31337551436983
    }, 
    {
      "latmax": 51.320926455827504, 
      "name": "Tramwissel", 
      "lonmin": 4.974688892142829, 
      "sanName": "tramwissel", 
      "numOfAddr": 10, 
      "lonmax": 4.975349966793626, 
      "latmin": 51.320317077049495
    }, 
    {
      "latmax": 51.30956144367659, 
      "name": "Tweesprongdreef", 
      "lonmin": 5.0147850733575865, 
      "sanName": "tweesprongdreef", 
      "numOfAddr": 9, 
      "lonmax": 5.0170878850841305, 
      "latmin": 51.30813816170066
    }, 
    {
      "latmax": 51.32165731370561, 
      "name": "Valkenweg", 
      "lonmin": 5.022258588241513, 
      "sanName": "valkenweg", 
      "numOfAddr": 9, 
      "lonmax": 5.024782649022994, 
      "latmin": 51.320608082053816
    }, 
    {
      "latmax": 51.32195216219397, 
      "name": "Van der Bekenlaan", 
      "lonmin": 4.982187858558179, 
      "sanName": "vanderbekenlaan", 
      "numOfAddr": 65, 
      "lonmax": 4.984886791978513, 
      "latmin": 51.318258741040125
    }, 
    {
      "latmax": 51.35112999572771, 
      "name": "Veestraat", 
      "lonmin": 4.96796415625553, 
      "sanName": "veestraat", 
      "numOfAddr": 21, 
      "lonmax": 4.968860289675207, 
      "latmin": 51.34934256506587
    }, 
    {
      "latmax": 51.31534246252168, 
      "name": "Veldbloemstraat", 
      "lonmin": 4.989486703210977, 
      "sanName": "veldbloemstraat", 
      "numOfAddr": 20, 
      "lonmax": 4.991244441804644, 
      "latmin": 51.31498205574637
    }, 
    {
      "latmax": 51.34305358634459, 
      "name": "Veldstraat", 
      "lonmin": 4.96730127019928, 
      "sanName": "veldstraat", 
      "numOfAddr": 28, 
      "lonmax": 4.971595358274965, 
      "latmin": 51.342082978735775
    }, 
    {
      "latmax": 51.34853670273144, 
      "name": "Verbindingsweg", 
      "lonmin": 4.972284808151679, 
      "sanName": "verbindingsweg", 
      "numOfAddr": 25, 
      "lonmax": 4.975896055068602, 
      "latmin": 51.34777614518432
    }, 
    {
      "latmax": 51.31404865114629, 
      "name": "Vinkendreef", 
      "lonmin": 5.024658006254234, 
      "sanName": "vinkendreef", 
      "numOfAddr": 11, 
      "lonmax": 5.026321150296702, 
      "latmin": 51.31202113153074
    }, 
    {
      "latmax": 51.3195601221658, 
      "name": "Vlinderweg", 
      "lonmin": 5.014953684537994, 
      "sanName": "vlinderweg", 
      "numOfAddr": 25, 
      "lonmax": 5.018691015698182, 
      "latmin": 51.31613825089733
    }, 
    {
      "latmax": 51.35031076276975, 
      "name": "Voornweg", 
      "lonmin": 4.9711671363312355, 
      "sanName": "voornweg", 
      "numOfAddr": 14, 
      "lonmax": 4.972735861065511, 
      "latmin": 51.34956540275139
    }, 
    {
      "latmax": 51.321790660421165, 
      "name": "Vossenplein", 
      "lonmin": 5.020679578900008, 
      "sanName": "vossenplein", 
      "numOfAddr": 3, 
      "lonmax": 5.02118234460806, 
      "latmin": 51.32097753161493
    }, 
    {
      "latmax": 51.31154809828934, 
      "name": "Warande", 
      "lonmin": 5.007931428923234, 
      "sanName": "warande", 
      "numOfAddr": 18, 
      "lonmax": 5.0118891656349716, 
      "latmin": 51.30935755684626
    }, 
    {
      "latmax": 51.3170123890113, 
      "name": "Watermolen", 
      "lonmin": 4.974416222968329, 
      "sanName": "watermolen", 
      "numOfAddr": 5, 
      "lonmax": 4.974954132122334, 
      "latmin": 51.31674558286551
    }, 
    {
      "latmax": 51.3117833931625, 
      "name": "Waterstraat", 
      "lonmin": 5.033158795406379, 
      "sanName": "waterstraat", 
      "numOfAddr": 18, 
      "lonmax": 5.038239167796381, 
      "latmin": 51.306968604203306
    }, 
    {
      "latmax": 51.35094102391316, 
      "name": "Weilandstraat", 
      "lonmin": 4.965702313388269, 
      "sanName": "weilandstraat", 
      "numOfAddr": 16, 
      "lonmax": 4.96801629912795, 
      "latmin": 51.35047823236957
    }, 
    {
      "latmax": 51.352382180920195, 
      "name": "Werkendam", 
      "lonmin": 4.966085660639706, 
      "sanName": "werkendam", 
      "numOfAddr": 90, 
      "lonmax": 4.9780814903575745, 
      "latmin": 51.346936907207045
    }, 
    {
      "latmax": 51.33585593560413, 
      "name": "Wezelakkers", 
      "lonmin": 4.973560196831988, 
      "sanName": "wezelakkers", 
      "numOfAddr": 142, 
      "lonmax": 4.97995631553413, 
      "latmin": 51.332552981891475
    }, 
    {
      "latmax": 51.30235405216854, 
      "name": "Winterdreef", 
      "lonmin": 5.002305906311897, 
      "sanName": "winterdreef", 
      "numOfAddr": 24, 
      "lonmax": 5.006407212709841, 
      "latmin": 51.29795763292969
    }, 
    {
      "latmax": 51.31321461147541, 
      "name": "Witte Bremlaan", 
      "lonmin": 5.003657029591646, 
      "sanName": "wittebremlaan", 
      "numOfAddr": 12, 
      "lonmax": 5.007676822022564, 
      "latmin": 51.31024503656903
    }, 
    {
      "latmax": 51.31106295183883, 
      "name": "Wouter van Gierlestraat", 
      "lonmin": 4.9900808783309225, 
      "sanName": "woutervangierlestraat", 
      "numOfAddr": 10, 
      "lonmax": 4.9915449227610615, 
      "latmin": 51.31011186510582
    }, 
    {
      "latmax": 51.31023711331365, 
      "name": "Zandstraat", 
      "lonmin": 4.977901912731532, 
      "sanName": "zandstraat", 
      "numOfAddr": 23, 
      "lonmax": 4.98769901827677, 
      "latmin": 51.30861327902949
    }, 
    {
      "latmax": 51.30059541722268, 
      "name": "Zomerdreef", 
      "lonmin": 5.0067425489428725, 
      "sanName": "zomerdreef", 
      "numOfAddr": 8, 
      "lonmax": 5.008513944891703, 
      "latmin": 51.29856711605545
    }, 
    {
      "latmax": 51.308751272764134, 
      "name": "Zwanendreef", 
      "lonmin": 5.012570850661377, 
      "sanName": "zwanendreef", 
      "numOfAddr": 20, 
      "lonmax": 5.020137809422132, 
      "latmin": 51.30701500183554
    }, 
    {
      "latmax": 51.30798678179344, 
      "name": "Zwanevenstraat", 
      "lonmin": 5.0044752625986995, 
      "sanName": "zwanevenstraat", 
      "numOfAddr": 26, 
      "lonmax": 5.0068944300943095, 
      "latmin": 51.30578654163193
    }, 
    {
      "latmax": 51.314422940085045, 
      "name": "Zweepstraat", 
      "lonmin": 4.992057300492545, 
      "sanName": "zweepstraat", 
      "numOfAddr": 13, 
      "lonmax": 4.993736910299794, 
      "latmin": 51.31347453740229
    }
  ]
}