{
  "streets": [
    {
      "latmax": 51.127924030841534, 
      "name": "Aardbezienstraat", 
      "lonmin": 5.07160118821885, 
      "sanName": "aardbezienstraat", 
      "numOfAddr": 29, 
      "lonmax": 5.077135994602478, 
      "latmin": 51.12615809771179
    }, 
    {
      "latmax": 51.13212570829151, 
      "name": "Acaciaweg", 
      "lonmin": 5.110643677234533, 
      "sanName": "acaciaweg", 
      "numOfAddr": 4, 
      "lonmax": 5.112927783533208, 
      "latmin": 51.13112325224387
    }, 
    {
      "latmax": 51.13875233200881, 
      "name": "Alvinnenberg", 
      "lonmin": 5.025044509797002, 
      "sanName": "alvinnenberg", 
      "numOfAddr": 10, 
      "lonmax": 5.050871108022195, 
      "latmin": 51.13065446991708
    }, 
    {
      "latmax": 51.11750996160987, 
      "name": "Ambachtsstraat", 
      "lonmin": 5.0415812480349596, 
      "sanName": "ambachtsstraat", 
      "numOfAddr": 14, 
      "lonmax": 5.046305111292718, 
      "latmin": 51.11571522966474
    }, 
    {
      "latmax": 51.10202125478489, 
      "name": "Armenbeemd", 
      "lonmin": 5.045242315373804, 
      "sanName": "armenbeemd", 
      "numOfAddr": 1, 
      "lonmax": 5.045242315373804, 
      "latmin": 51.10202125478489
    }, 
    {
      "latmax": 51.120062057351284, 
      "name": "Baleman", 
      "lonmin": 5.050353644631668, 
      "sanName": "baleman", 
      "numOfAddr": 21, 
      "lonmax": 5.051854789099408, 
      "latmin": 51.1185491505224
    }, 
    {
      "latmax": 51.119275121681106, 
      "name": "Beekstraat", 
      "lonmin": 5.038309555540733, 
      "sanName": "beekstraat", 
      "numOfAddr": 2, 
      "lonmax": 5.038413552136165, 
      "latmin": 51.11905735423729
    }, 
    {
      "latmax": 51.1316136652513, 
      "name": "Beerstraat", 
      "lonmin": 5.075624456746645, 
      "sanName": "beerstraat", 
      "numOfAddr": 24, 
      "lonmax": 5.077077717537462, 
      "latmin": 51.13034189408216
    }, 
    {
      "latmax": 51.132396375458896, 
      "name": "Begonialaan", 
      "lonmin": 5.066582596117571, 
      "sanName": "begonialaan", 
      "numOfAddr": 24, 
      "lonmax": 5.067848856043388, 
      "latmin": 51.13008972685467
    }, 
    {
      "latmax": 51.12968095948106, 
      "name": "Bergakker", 
      "lonmin": 5.087516750086182, 
      "sanName": "bergakker", 
      "numOfAddr": 17, 
      "lonmax": 5.088099798838563, 
      "latmin": 51.128525325415744
    }, 
    {
      "latmax": 51.130673762013764, 
      "name": "Bergstraat", 
      "lonmin": 5.083866019235983, 
      "sanName": "bergstraat", 
      "numOfAddr": 21, 
      "lonmax": 5.084499335164831, 
      "latmin": 51.12792929426851
    }, 
    {
      "latmax": 51.13404590938523, 
      "name": "Berkenhof", 
      "lonmin": 5.0760531772320885, 
      "sanName": "berkenhof", 
      "numOfAddr": 3, 
      "lonmax": 5.07705349275702, 
      "latmin": 51.13384310977631
    }, 
    {
      "latmax": 51.1328450215975, 
      "name": "Berkenweg", 
      "lonmin": 5.109040298028818, 
      "sanName": "berkenweg", 
      "numOfAddr": 2, 
      "lonmax": 5.109801966786989, 
      "latmin": 51.13089763594616
    }, 
    {
      "latmax": 51.13020576246323, 
      "name": "Bevrijdingslaan", 
      "lonmin": 5.049772374460394, 
      "sanName": "bevrijdingslaan", 
      "numOfAddr": 193, 
      "lonmax": 5.0754678287146655, 
      "latmin": 51.12059956499075
    }, 
    {
      "latmax": 51.13063254155529, 
      "name": "Biesakkerlaan", 
      "lonmin": 5.07014518996128, 
      "sanName": "biesakkerlaan", 
      "numOfAddr": 51, 
      "lonmax": 5.072443513967014, 
      "latmin": 51.128953168481814
    }, 
    {
      "latmax": 51.10931610566467, 
      "name": "Biezenhoed", 
      "lonmin": 5.03885930976389, 
      "sanName": "biezenhoed", 
      "numOfAddr": 7, 
      "lonmax": 5.05439017433858, 
      "latmin": 51.104724089310444
    }, 
    {
      "latmax": 51.10931058275963, 
      "name": "Bijenpad", 
      "lonmin": 5.032991388178257, 
      "sanName": "bijenpad", 
      "numOfAddr": 16, 
      "lonmax": 5.035898950757697, 
      "latmin": 51.108113686662634
    }, 
    {
      "latmax": 51.0989238750462, 
      "name": "Bloemenwijk", 
      "lonmin": 5.107639805808267, 
      "sanName": "bloemenwijk", 
      "numOfAddr": 3, 
      "lonmax": 5.1084895443192115, 
      "latmin": 51.098788198606954
    }, 
    {
      "latmax": 51.12900063061571, 
      "name": "Boerenkrijglaan", 
      "lonmin": 5.078396532159363, 
      "sanName": "boerenkrijglaan", 
      "numOfAddr": 54, 
      "lonmax": 5.088597733313305, 
      "latmin": 51.127646065226706
    }, 
    {
      "latmax": 51.12863697386565, 
      "name": "Bokkenrode", 
      "lonmin": 5.094727590236762, 
      "sanName": "bokkenrode", 
      "numOfAddr": 25, 
      "lonmax": 5.101992575994694, 
      "latmin": 51.12509882897802
    }, 
    {
      "latmax": 51.12340316014979, 
      "name": "Borgerhout", 
      "lonmin": 5.080830631450586, 
      "sanName": "borgerhout", 
      "numOfAddr": 15, 
      "lonmax": 5.089562879000997, 
      "latmin": 51.12136198085435
    }, 
    {
      "latmax": 51.129590855616826, 
      "name": "Boslaan", 
      "lonmin": 5.0693345628224, 
      "sanName": "boslaan", 
      "numOfAddr": 31, 
      "lonmax": 5.071299005704149, 
      "latmin": 51.12796714942795
    }, 
    {
      "latmax": 51.1159038295904, 
      "name": "Bospad", 
      "lonmin": 5.036855885357239, 
      "sanName": "bospad", 
      "numOfAddr": 5, 
      "lonmax": 5.038339381296635, 
      "latmin": 51.114050965490556
    }, 
    {
      "latmax": 51.14339597100145, 
      "name": "Bredestraat", 
      "lonmin": 5.0349377752985225, 
      "sanName": "bredestraat", 
      "numOfAddr": 4, 
      "lonmax": 5.038456154919397, 
      "latmin": 51.13291258037044
    }, 
    {
      "latmax": 51.13169330829716, 
      "name": "Bremstraat", 
      "lonmin": 5.119213597250982, 
      "sanName": "bremstraat", 
      "numOfAddr": 1, 
      "lonmax": 5.119213597250982, 
      "latmin": 51.13169330829716
    }, 
    {
      "latmax": 51.146154300936075, 
      "name": "Brigandsstraat", 
      "lonmin": 5.088699150077346, 
      "sanName": "brigandsstraat", 
      "numOfAddr": 15, 
      "lonmax": 5.092357709686212, 
      "latmin": 51.141355856690986
    }, 
    {
      "latmax": 51.123816945027784, 
      "name": "Broekstraat", 
      "lonmin": 5.1038307004349655, 
      "sanName": "broekstraat", 
      "numOfAddr": 6, 
      "lonmax": 5.107452305679164, 
      "latmin": 51.12214927506151
    }, 
    {
      "latmax": 51.12972194777347, 
      "name": "Burgemeester Adriaensenlaan", 
      "lonmin": 5.088446272289487, 
      "sanName": "burgemeesteradriaensenlaan", 
      "numOfAddr": 78, 
      "lonmax": 5.0900293277822435, 
      "latmin": 51.1233608262689
    }, 
    {
      "latmax": 51.13245813110972, 
      "name": "Cardijnstraat", 
      "lonmin": 5.091636854273954, 
      "sanName": "cardijnstraat", 
      "numOfAddr": 8, 
      "lonmax": 5.092261683574746, 
      "latmin": 51.13186132660421
    }, 
    {
      "latmax": 51.14068887386725, 
      "name": "De Biezen", 
      "lonmin": 5.039541064417447, 
      "sanName": "debiezen", 
      "numOfAddr": 4, 
      "lonmax": 5.043094347508669, 
      "latmin": 51.136662371217874
    }, 
    {
      "latmax": 51.11400325206903, 
      "name": "De Donken", 
      "lonmin": 5.065121311781464, 
      "sanName": "dedonken", 
      "numOfAddr": 6, 
      "lonmax": 5.070204023543261, 
      "latmin": 51.11203783687016
    }, 
    {
      "latmax": 51.14449187159998, 
      "name": "De Hutten", 
      "lonmin": 5.049881886906645, 
      "sanName": "dehutten", 
      "numOfAddr": 7, 
      "lonmax": 5.052480756388176, 
      "latmin": 51.141350960864585
    }, 
    {
      "latmax": 51.13456057631991, 
      "name": "Del", 
      "lonmin": 5.065958247799422, 
      "sanName": "del", 
      "numOfAddr": 17, 
      "lonmax": 5.067096469846723, 
      "latmin": 51.13297129637321
    }, 
    {
      "latmax": 51.129387074376766, 
      "name": "De Meren", 
      "lonmin": 5.038966456965104, 
      "sanName": "demeren", 
      "numOfAddr": 2, 
      "lonmax": 5.041884078177986, 
      "latmin": 51.128738598027084
    }, 
    {
      "latmax": 51.11278249428308, 
      "name": "Dennenbos", 
      "lonmin": 5.044353349173807, 
      "sanName": "dennenbos", 
      "numOfAddr": 15, 
      "lonmax": 5.050643401689614, 
      "latmin": 51.10991139995566
    }, 
    {
      "latmax": 51.10644070592684, 
      "name": "Dievithoeve", 
      "lonmin": 5.107979480920031, 
      "sanName": "dievithoeve", 
      "numOfAddr": 4, 
      "lonmax": 5.109523615717623, 
      "latmin": 51.10623259462776
    }, 
    {
      "latmax": 51.10993550338294, 
      "name": "Dijkstraat", 
      "lonmin": 5.094956625873014, 
      "sanName": "dijkstraat", 
      "numOfAddr": 6, 
      "lonmax": 5.099298537760003, 
      "latmin": 51.10750369497911
    }, 
    {
      "latmax": 51.132444084410835, 
      "name": "Echelsven", 
      "lonmin": 5.067899297938404, 
      "sanName": "echelsven", 
      "numOfAddr": 25, 
      "lonmax": 5.07022627662253, 
      "latmin": 51.13129202742269
    }, 
    {
      "latmax": 51.108234434871505, 
      "name": "Eekhoornpad", 
      "lonmin": 5.040959702429666, 
      "sanName": "eekhoornpad", 
      "numOfAddr": 4, 
      "lonmax": 5.042749594717322, 
      "latmin": 51.1079358382194
    }, 
    {
      "latmax": 51.130394584292944, 
      "name": "Eikenboomlaan", 
      "lonmin": 5.0794105958132505, 
      "sanName": "eikenboomlaan", 
      "numOfAddr": 16, 
      "lonmax": 5.080654021135408, 
      "latmin": 51.12840476136693
    }, 
    {
      "latmax": 51.12894313242459, 
      "name": "Eindeke", 
      "lonmin": 5.089944524029234, 
      "sanName": "eindeke", 
      "numOfAddr": 7, 
      "lonmax": 5.090571767847023, 
      "latmin": 51.12882039214447
    }, 
    {
      "latmax": 51.12109659010887, 
      "name": "Eindhoutsebaan", 
      "lonmin": 5.0338021367819765, 
      "sanName": "eindhoutsebaan", 
      "numOfAddr": 47, 
      "lonmax": 5.048991460674548, 
      "latmin": 51.11607252247507
    }, 
    {
      "latmax": 51.13408659779827, 
      "name": "Engelse Hof", 
      "lonmin": 5.085103227790412, 
      "sanName": "engelsehof", 
      "numOfAddr": 32, 
      "lonmax": 5.087307740834178, 
      "latmin": 51.13185578706458
    }, 
    {
      "latmax": 51.131933499445275, 
      "name": "Engstraat", 
      "lonmin": 5.068054836071048, 
      "sanName": "engstraat", 
      "numOfAddr": 38, 
      "lonmax": 5.073822535503238, 
      "latmin": 51.12999381075246
    }, 
    {
      "latmax": 51.13623739486128, 
      "name": "Gasthuisstraat", 
      "lonmin": 5.075208359818486, 
      "sanName": "gasthuisstraat", 
      "numOfAddr": 37, 
      "lonmax": 5.0783595996633535, 
      "latmin": 51.132638195116705
    }, 
    {
      "latmax": 51.13630609457626, 
      "name": "Gebergte", 
      "lonmin": 5.052095172182133, 
      "sanName": "gebergte", 
      "numOfAddr": 15, 
      "lonmax": 5.063338534644192, 
      "latmin": 51.13125099695076
    }, 
    {
      "latmax": 51.12182981094608, 
      "name": "Genebroek", 
      "lonmin": 5.054271270487811, 
      "sanName": "genebroek", 
      "numOfAddr": 70, 
      "lonmax": 5.080215104820434, 
      "latmin": 51.10816960506474
    }, 
    {
      "latmax": 51.12097150592184, 
      "name": "Genelaar", 
      "lonmin": 5.07258296030772, 
      "sanName": "genelaar", 
      "numOfAddr": 32, 
      "lonmax": 5.083771358031148, 
      "latmin": 51.1061767960375
    }, 
    {
      "latmax": 51.1412508952511, 
      "name": "Genepas", 
      "lonmin": 5.060002382117401, 
      "sanName": "genepas", 
      "numOfAddr": 55, 
      "lonmax": 5.0745138817361575, 
      "latmin": 51.136107139357335
    }, 
    {
      "latmax": 51.13311831914073, 
      "name": "Gervoortstraat", 
      "lonmin": 5.12519781136546, 
      "sanName": "gervoortstraat", 
      "numOfAddr": 1, 
      "lonmax": 5.12519781136546, 
      "latmin": 51.13311831914073
    }, 
    {
      "latmax": 51.11299138836023, 
      "name": "Gestellaar", 
      "lonmin": 5.092705836393598, 
      "sanName": "gestellaar", 
      "numOfAddr": 20, 
      "lonmax": 5.095716009860676, 
      "latmin": 51.11179908208095
    }, 
    {
      "latmax": 51.12315143003358, 
      "name": "Gestelsesteenweg", 
      "lonmin": 5.090323080131996, 
      "sanName": "gestelsesteenweg", 
      "numOfAddr": 141, 
      "lonmax": 5.105273507360215, 
      "latmin": 51.10294894944141
    }, 
    {
      "latmax": 51.141441125331006, 
      "name": "Gewad", 
      "lonmin": 5.061316886092296, 
      "sanName": "gewad", 
      "numOfAddr": 4, 
      "lonmax": 5.0619915959078465, 
      "latmin": 51.13937444770904
    }, 
    {
      "latmax": 51.13313191539081, 
      "name": "Goorstraat", 
      "lonmin": 5.079118902057721, 
      "sanName": "goorstraat", 
      "numOfAddr": 20, 
      "lonmax": 5.080038015356566, 
      "latmin": 51.13208695176001
    }, 
    {
      "latmax": 51.11102881968631, 
      "name": "Grasheuvel", 
      "lonmin": 5.094875381015868, 
      "sanName": "grasheuvel", 
      "numOfAddr": 32, 
      "lonmax": 5.100500993886842, 
      "latmin": 51.10929743664138
    }, 
    {
      "latmax": 51.113788260506475, 
      "name": "Groenstraat", 
      "lonmin": 5.036115841503961, 
      "sanName": "groenstraat", 
      "numOfAddr": 15, 
      "lonmax": 5.0487229043316395, 
      "latmin": 51.11277277357397
    }, 
    {
      "latmax": 51.13793156924934, 
      "name": "Grote hoeve", 
      "lonmin": 5.078391655047127, 
      "sanName": "grotehoeve", 
      "numOfAddr": 1, 
      "lonmax": 5.078391655047127, 
      "latmin": 51.13793156924934
    }, 
    {
      "latmax": 51.130484670928475, 
      "name": "Haagstraat", 
      "lonmin": 5.112819379686677, 
      "sanName": "haagstraat", 
      "numOfAddr": 9, 
      "lonmax": 5.1195173207789795, 
      "latmin": 51.12743181030156
    }, 
    {
      "latmax": 51.13077511582236, 
      "name": "Hageland", 
      "lonmin": 5.084225918069217, 
      "sanName": "hageland", 
      "numOfAddr": 36, 
      "lonmax": 5.088641406250468, 
      "latmin": 51.12899520650594
    }, 
    {
      "latmax": 51.1410754157645, 
      "name": "Hagelweg", 
      "lonmin": 5.0191145845720335, 
      "sanName": "hagelweg", 
      "numOfAddr": 3, 
      "lonmax": 5.026717979941547, 
      "latmin": 51.138903009329965
    }, 
    {
      "latmax": 51.1096935908589, 
      "name": "Hakkenrode", 
      "lonmin": 5.03605017786768, 
      "sanName": "hakkenrode", 
      "numOfAddr": 8, 
      "lonmax": 5.038408317581141, 
      "latmin": 51.10699006449059
    }, 
    {
      "latmax": 51.1238563457484, 
      "name": "Halfweg", 
      "lonmin": 5.090487536273506, 
      "sanName": "halfweg", 
      "numOfAddr": 6, 
      "lonmax": 5.098531630617679, 
      "latmin": 51.123218747402746
    }, 
    {
      "latmax": 51.11008250735385, 
      "name": "Haverbroekstraat", 
      "lonmin": 5.09089265045615, 
      "sanName": "haverbroekstraat", 
      "numOfAddr": 7, 
      "lonmax": 5.094690808625536, 
      "latmin": 51.10802178027667
    }, 
    {
      "latmax": 51.11545735051001, 
      "name": "Haverdonkweg", 
      "lonmin": 5.083919989318211, 
      "sanName": "haverdonkweg", 
      "numOfAddr": 8, 
      "lonmax": 5.088540167678419, 
      "latmin": 51.114026963729906
    }, 
    {
      "latmax": 51.13176669625967, 
      "name": "Heesterweg", 
      "lonmin": 5.0958823574598515, 
      "sanName": "heesterweg", 
      "numOfAddr": 32, 
      "lonmax": 5.102032176980094, 
      "latmin": 51.130483684636125
    }, 
    {
      "latmax": 51.107715625795784, 
      "name": "Heibloemstraat", 
      "lonmin": 5.032640407838388, 
      "sanName": "heibloemstraat", 
      "numOfAddr": 7, 
      "lonmax": 5.036272776505056, 
      "latmin": 51.10656084094522
    }, 
    {
      "latmax": 51.1291708502506, 
      "name": "Heideweg", 
      "lonmin": 5.029333615901803, 
      "sanName": "heideweg", 
      "numOfAddr": 5, 
      "lonmax": 5.03146778640102, 
      "latmin": 51.12782184354482
    }, 
    {
      "latmax": 51.14570072896622, 
      "name": "Heikant", 
      "lonmin": 5.049372184559479, 
      "sanName": "heikant", 
      "numOfAddr": 34, 
      "lonmax": 5.064170422666603, 
      "latmin": 51.136836220083765
    }, 
    {
      "latmax": 51.11378193148036, 
      "name": "Heilige Geestbeemdenweg", 
      "lonmin": 5.090999733393405, 
      "sanName": "heiligegeestbeemdenweg", 
      "numOfAddr": 4, 
      "lonmax": 5.092571909982621, 
      "latmin": 51.112729451240014
    }, 
    {
      "latmax": 51.12645314663952, 
      "name": "Heistraat", 
      "lonmin": 5.099380200300155, 
      "sanName": "heistraat", 
      "numOfAddr": 10, 
      "lonmax": 5.102519946773604, 
      "latmin": 51.12587663981084
    }, 
    {
      "latmax": 51.10353302516846, 
      "name": "Hepmansbossen", 
      "lonmin": 5.098926729725202, 
      "sanName": "hepmansbossen", 
      "numOfAddr": 16, 
      "lonmax": 5.1065409925765985, 
      "latmin": 51.10006646171015
    }, 
    {
      "latmax": 51.12454015447261, 
      "name": "Hesemeer", 
      "lonmin": 5.0264988005108675, 
      "sanName": "hesemeer", 
      "numOfAddr": 13, 
      "lonmax": 5.047249778095809, 
      "latmin": 51.11993918056131
    }, 
    {
      "latmax": 51.11918021365611, 
      "name": "Heuvelstraat", 
      "lonmin": 5.09298885886745, 
      "sanName": "heuvelstraat", 
      "numOfAddr": 3, 
      "lonmax": 5.0944024276708015, 
      "latmin": 51.11913624390177
    }, 
    {
      "latmax": 51.11701374690407, 
      "name": "Hoekstraat", 
      "lonmin": 5.097819059100963, 
      "sanName": "hoekstraat", 
      "numOfAddr": 12, 
      "lonmax": 5.100322555210475, 
      "latmin": 51.11574953406908
    }, 
    {
      "latmax": 51.14629319846446, 
      "name": "Hoevendijk", 
      "lonmin": 5.079101841586391, 
      "sanName": "hoevendijk", 
      "numOfAddr": 16, 
      "lonmax": 5.085221285382904, 
      "latmin": 51.14264467656125
    }, 
    {
      "latmax": 51.13290936633156, 
      "name": "Hoflaan", 
      "lonmin": 5.08124713618741, 
      "sanName": "hoflaan", 
      "numOfAddr": 10, 
      "lonmax": 5.082966986716179, 
      "latmin": 51.132221774251256
    }, 
    {
      "latmax": 51.13199879031237, 
      "name": "Hoogstraat", 
      "lonmin": 5.089331253934933, 
      "sanName": "hoogstraat", 
      "numOfAddr": 27, 
      "lonmax": 5.094503864881521, 
      "latmin": 51.1312717363845
    }, 
    {
      "latmax": 51.11688796593519, 
      "name": "Hovesteenseweg", 
      "lonmin": 5.09910019614392, 
      "sanName": "hovesteenseweg", 
      "numOfAddr": 61, 
      "lonmax": 5.123730867063722, 
      "latmin": 51.11011802153189
    }, 
    {
      "latmax": 51.12638247459655, 
      "name": "Ijzerbergstraat", 
      "lonmin": 5.110813604222069, 
      "sanName": "ijzerbergstraat", 
      "numOfAddr": 4, 
      "lonmax": 5.113653299660253, 
      "latmin": 51.1251034640157
    }, 
    {
      "latmax": 51.133145513857656, 
      "name": "Jagersweg", 
      "lonmin": 5.0468563018219506, 
      "sanName": "jagersweg", 
      "numOfAddr": 89, 
      "lonmax": 5.072322973337789, 
      "latmin": 51.1230771854714
    }, 
    {
      "latmax": 51.12062607783986, 
      "name": "Juul Grietensstraat", 
      "lonmin": 5.054708001509103, 
      "sanName": "juulgrietensstraat", 
      "numOfAddr": 28, 
      "lonmax": 5.05734725962406, 
      "latmin": 51.11954464032625
    }, 
    {
      "latmax": 51.10631577798428, 
      "name": "Kanaalstraat", 
      "lonmin": 5.075094156853204, 
      "sanName": "kanaalstraat", 
      "numOfAddr": 11, 
      "lonmax": 5.0800500331844605, 
      "latmin": 51.10402277719431
    }, 
    {
      "latmax": 51.12790906244651, 
      "name": "Kapellestraat", 
      "lonmin": 5.075216721751384, 
      "sanName": "kapellestraat", 
      "numOfAddr": 57, 
      "lonmax": 5.085644041538981, 
      "latmin": 51.1252188943558
    }, 
    {
      "latmax": 51.13142436172057, 
      "name": "Kerkplein", 
      "lonmin": 5.090868659388516, 
      "sanName": "kerkplein", 
      "numOfAddr": 6, 
      "lonmax": 5.092344752100233, 
      "latmin": 51.13084036711808
    }, 
    {
      "latmax": 51.11454080182985, 
      "name": "Kerkstraat", 
      "lonmin": 5.0971502985450075, 
      "sanName": "kerkstraat", 
      "numOfAddr": 11, 
      "lonmax": 5.0990321036727915, 
      "latmin": 51.11299086658288
    }, 
    {
      "latmax": 51.134676005302396, 
      "name": "Kiezel", 
      "lonmin": 5.024553010649877, 
      "sanName": "kiezel", 
      "numOfAddr": 131, 
      "lonmax": 5.053206653880171, 
      "latmin": 51.10323847743447
    }, 
    {
      "latmax": 51.10882069923207, 
      "name": "Kinkhoornstraat", 
      "lonmin": 5.0336430424917475, 
      "sanName": "kinkhoornstraat", 
      "numOfAddr": 15, 
      "lonmax": 5.0380427321159384, 
      "latmin": 51.107568416176335
    }, 
    {
      "latmax": 51.13408477375709, 
      "name": "Kloosterstraat", 
      "lonmin": 5.078676343840238, 
      "sanName": "kloosterstraat", 
      "numOfAddr": 4, 
      "lonmax": 5.07894067042211, 
      "latmin": 51.13395047480662
    }, 
    {
      "latmax": 51.13418318978576, 
      "name": "Kluterstraat", 
      "lonmin": 5.037477551534517, 
      "sanName": "kluterstraat", 
      "numOfAddr": 13, 
      "lonmax": 5.040472400949059, 
      "latmin": 51.1270677672644
    }, 
    {
      "latmax": 51.122903705553306, 
      "name": "Koepoortstraat", 
      "lonmin": 5.049536719126117, 
      "sanName": "koepoortstraat", 
      "numOfAddr": 9, 
      "lonmax": 5.05181457360139, 
      "latmin": 51.12229895399594
    }, 
    {
      "latmax": 51.115592477021515, 
      "name": "Koestraat", 
      "lonmin": 5.104828818410848, 
      "sanName": "koestraat", 
      "numOfAddr": 3, 
      "lonmax": 5.110106496752733, 
      "latmin": 51.114995483246354
    }, 
    {
      "latmax": 51.138537539535605, 
      "name": "Korenbloemstraat", 
      "lonmin": 5.068077520657465, 
      "sanName": "korenbloemstraat", 
      "numOfAddr": 10, 
      "lonmax": 5.069566045710149, 
      "latmin": 51.136985495187716
    }, 
    {
      "latmax": 51.13353558443431, 
      "name": "Kortestraat", 
      "lonmin": 5.068625976140135, 
      "sanName": "kortestraat", 
      "numOfAddr": 4, 
      "lonmax": 5.069337308005146, 
      "latmin": 51.13317809378364
    }, 
    {
      "latmax": 51.13173820717112, 
      "name": "Krijthoek", 
      "lonmin": 5.0861195579038085, 
      "sanName": "krijthoek", 
      "numOfAddr": 18, 
      "lonmax": 5.088637235001921, 
      "latmin": 51.13128876296018
    }, 
    {
      "latmax": 51.13278249160296, 
      "name": "Kruisenpad", 
      "lonmin": 5.085045057368718, 
      "sanName": "kruisenpad", 
      "numOfAddr": 20, 
      "lonmax": 5.08573714764572, 
      "latmin": 51.13150196227961
    }, 
    {
      "latmax": 51.13973406598838, 
      "name": "Kwachtstraat", 
      "lonmin": 5.044023581003327, 
      "sanName": "kwachtstraat", 
      "numOfAddr": 5, 
      "lonmax": 5.046916576322489, 
      "latmin": 51.13415731149315
    }, 
    {
      "latmax": 51.13645475177417, 
      "name": "Laagland", 
      "lonmin": 5.069083233134713, 
      "sanName": "laagland", 
      "numOfAddr": 32, 
      "lonmax": 5.072890389411391, 
      "latmin": 51.13498730239584
    }, 
    {
      "latmax": 51.13758452726215, 
      "name": "Lemmekensdries", 
      "lonmin": 5.06851736934011, 
      "sanName": "lemmekensdries", 
      "numOfAddr": 24, 
      "lonmax": 5.071694137859516, 
      "latmin": 51.135869610311936
    }, 
    {
      "latmax": 51.11961513895831, 
      "name": "Lemmenshoefstraat", 
      "lonmin": 5.1031962202757475, 
      "sanName": "lemmenshoefstraat", 
      "numOfAddr": 15, 
      "lonmax": 5.122147904548258, 
      "latmin": 51.11650169037382
    }, 
    {
      "latmax": 51.124292858083315, 
      "name": "Lieve Vrouweweg", 
      "lonmin": 5.07162067104504, 
      "sanName": "lievevrouweweg", 
      "numOfAddr": 6, 
      "lonmax": 5.073025383617219, 
      "latmin": 51.123923430174095
    }, 
    {
      "latmax": 51.14138746705845, 
      "name": "Lijsterstraat", 
      "lonmin": 5.052199887621417, 
      "sanName": "lijsterstraat", 
      "numOfAddr": 5, 
      "lonmax": 5.053256344687462, 
      "latmin": 51.13506334532484
    }, 
    {
      "latmax": 51.14444792843914, 
      "name": "Lil", 
      "lonmin": 5.083363606182291, 
      "sanName": "lil", 
      "numOfAddr": 55, 
      "lonmax": 5.092055037830366, 
      "latmin": 51.137478215823656
    }, 
    {
      "latmax": 51.120788247427036, 
      "name": "Lindestraat", 
      "lonmin": 5.050197841146731, 
      "sanName": "lindestraat", 
      "numOfAddr": 46, 
      "lonmax": 5.054172151574828, 
      "latmin": 51.1156115206517
    }, 
    {
      "latmax": 51.132972066051536, 
      "name": "Markt", 
      "lonmin": 5.0762952757343776, 
      "sanName": "markt", 
      "numOfAddr": 40, 
      "lonmax": 5.0791518217769855, 
      "latmin": 51.131247679842545
    }, 
    {
      "latmax": 51.13839764581412, 
      "name": "Meiberg", 
      "lonmin": 5.064004890815322, 
      "sanName": "meiberg", 
      "numOfAddr": 71, 
      "lonmax": 5.068678878948909, 
      "latmin": 51.13385682253691
    }, 
    {
      "latmax": 51.130903911257654, 
      "name": "Meidoornstraat", 
      "lonmin": 5.0717975422553, 
      "sanName": "meidoornstraat", 
      "numOfAddr": 15, 
      "lonmax": 5.07295171024838, 
      "latmin": 51.1298698878673
    }, 
    {
      "latmax": 51.13562077827591, 
      "name": "Mgr. Cruysberghslaan", 
      "lonmin": 5.082711876948069, 
      "sanName": "mgrcruysberghslaan", 
      "numOfAddr": 44, 
      "lonmax": 5.089356507185123, 
      "latmin": 51.13271756003604
    }, 
    {
      "latmax": 51.13147464683959, 
      "name": "Mispad", 
      "lonmin": 5.0800316375406185, 
      "sanName": "mispad", 
      "numOfAddr": 12, 
      "lonmax": 5.081121253155207, 
      "latmin": 51.130815217718734
    }, 
    {
      "latmax": 51.12267466796391, 
      "name": "Moenstraat", 
      "lonmin": 5.034710102131214, 
      "sanName": "moenstraat", 
      "numOfAddr": 34, 
      "lonmax": 5.046345087760092, 
      "latmin": 51.11506578589058
    }, 
    {
      "latmax": 51.13423914068149, 
      "name": "Molenberg", 
      "lonmin": 5.068943801401935, 
      "sanName": "molenberg", 
      "numOfAddr": 60, 
      "lonmax": 5.075931756898743, 
      "latmin": 51.13208236059486
    }, 
    {
      "latmax": 51.13428833253098, 
      "name": "Molenpad", 
      "lonmin": 5.0806362931885936, 
      "sanName": "molenpad", 
      "numOfAddr": 6, 
      "lonmax": 5.081291319620908, 
      "latmin": 51.13357981376875
    }, 
    {
      "latmax": 51.136688937508126, 
      "name": "Molenstraat", 
      "lonmin": 5.078871016718248, 
      "sanName": "molenstraat", 
      "numOfAddr": 69, 
      "lonmax": 5.082558839358392, 
      "latmin": 51.133314973368385
    }, 
    {
      "latmax": 51.13472370537812, 
      "name": "Molenveld", 
      "lonmin": 5.080239804944323, 
      "sanName": "molenveld", 
      "numOfAddr": 31, 
      "lonmax": 5.084788512642634, 
      "latmin": 51.13238836505724
    }, 
    {
      "latmax": 51.15649789578906, 
      "name": "Molsebaan", 
      "lonmin": 5.084059533288553, 
      "sanName": "molsebaan", 
      "numOfAddr": 45, 
      "lonmax": 5.096977123888472, 
      "latmin": 51.138727372426445
    }, 
    {
      "latmax": 51.130926600854586, 
      "name": "Neerstraat", 
      "lonmin": 5.088098173436848, 
      "sanName": "neerstraat", 
      "numOfAddr": 34, 
      "lonmax": 5.094757861022159, 
      "latmin": 51.13022893232232
    }, 
    {
      "latmax": 51.13190516061787, 
      "name": "Netelaan", 
      "lonmin": 5.08846292119532, 
      "sanName": "netelaan", 
      "numOfAddr": 6, 
      "lonmax": 5.089440755546542, 
      "latmin": 51.13089760022874
    }, 
    {
      "latmax": 51.123582192165834, 
      "name": "Nieuwstraat", 
      "lonmin": 5.053044314594451, 
      "sanName": "nieuwstraat", 
      "numOfAddr": 39, 
      "lonmax": 5.058708529991615, 
      "latmin": 51.12249033079915
    }, 
    {
      "latmax": 51.116964935555075, 
      "name": "Nijverheidsweg", 
      "lonmin": 5.028931334798334, 
      "sanName": "nijverheidsweg", 
      "numOfAddr": 5, 
      "lonmax": 5.032883459716114, 
      "latmin": 51.11357671180326
    }, 
    {
      "latmax": 51.09852317467355, 
      "name": "Nikelaan", 
      "lonmin": 5.096571741462671, 
      "sanName": "nikelaan", 
      "numOfAddr": 1, 
      "lonmax": 5.096571741462671, 
      "latmin": 51.09852317467355
    }, 
    {
      "latmax": 51.131185781233555, 
      "name": "Notenboomstraat", 
      "lonmin": 5.072964834784202, 
      "sanName": "notenboomstraat", 
      "numOfAddr": 8, 
      "lonmax": 5.074528755177096, 
      "latmin": 51.13035968236803
    }, 
    {
      "latmax": 51.134312846162565, 
      "name": "Olmsebaan", 
      "lonmin": 5.089209861136282, 
      "sanName": "olmsebaan", 
      "numOfAddr": 211, 
      "lonmax": 5.124839839267254, 
      "latmin": 51.12845261457309
    }, 
    {
      "latmax": 51.12287954321115, 
      "name": "Oude Baan", 
      "lonmin": 5.10132836530513, 
      "sanName": "oudebaan", 
      "numOfAddr": 48, 
      "lonmax": 5.1074333289571765, 
      "latmin": 51.10645922198587
    }, 
    {
      "latmax": 51.12910089434074, 
      "name": "Oude Vorstsebaan", 
      "lonmin": 5.073290222036566, 
      "sanName": "oudevorstsebaan", 
      "numOfAddr": 42, 
      "lonmax": 5.076453887544393, 
      "latmin": 51.12214930996654
    }, 
    {
      "latmax": 51.1337361679144, 
      "name": "Oud-Strijdersstraat", 
      "lonmin": 5.079951396777924, 
      "sanName": "oudstrijdersstraat", 
      "numOfAddr": 19, 
      "lonmax": 5.082287777955339, 
      "latmin": 51.13295314104779
    }, 
    {
      "latmax": 51.13684725954864, 
      "name": "Palet", 
      "lonmin": 5.068563262175636, 
      "sanName": "palet", 
      "numOfAddr": 4, 
      "lonmax": 5.069502212949339, 
      "latmin": 51.13646914621584
    }, 
    {
      "latmax": 51.132626600067844, 
      "name": "Pastoor Van Haechtplein", 
      "lonmin": 5.07585699080569, 
      "sanName": "pastoorvanhaechtplein", 
      "numOfAddr": 12, 
      "lonmax": 5.076784887438376, 
      "latmin": 51.13198692866655
    }, 
    {
      "latmax": 51.11972189248764, 
      "name": "Pater Van Cl\u0082-straat", 
      "lonmin": 5.0545622455634565, 
      "sanName": "patervanclstraat", 
      "numOfAddr": 11, 
      "lonmax": 5.056280880795231, 
      "latmin": 51.1186981675601
    }, 
    {
      "latmax": 51.13254859767732, 
      "name": "Peerdsstraat", 
      "lonmin": 5.070589189232391, 
      "sanName": "peerdsstraat", 
      "numOfAddr": 9, 
      "lonmax": 5.072038819602558, 
      "latmin": 51.13156832789662
    }, 
    {
      "latmax": 51.129181205094575, 
      "name": "Prinskensmolenweg", 
      "lonmin": 5.089478144585001, 
      "sanName": "prinskensmolenweg", 
      "numOfAddr": 6, 
      "lonmax": 5.090979511493493, 
      "latmin": 51.12772749868776
    }, 
    {
      "latmax": 51.13284602173405, 
      "name": "Processiestraat", 
      "lonmin": 5.073039545383193, 
      "sanName": "processiestraat", 
      "numOfAddr": 23, 
      "lonmax": 5.07568248477207, 
      "latmin": 51.13177251617087
    }, 
    {
      "latmax": 51.13145225628862, 
      "name": "Rodedriesstraat", 
      "lonmin": 5.087282526347869, 
      "sanName": "rodedriesstraat", 
      "numOfAddr": 5, 
      "lonmax": 5.087675392898891, 
      "latmin": 51.13069406799123
    }, 
    {
      "latmax": 51.13143982914787, 
      "name": "Rode Kruislaan", 
      "lonmin": 5.093397556991518, 
      "sanName": "rodekruislaan", 
      "numOfAddr": 7, 
      "lonmax": 5.093998428610121, 
      "latmin": 51.130784862431724
    }, 
    {
      "latmax": 51.13673182619941, 
      "name": "Rooiaarde", 
      "lonmin": 5.0942857293238335, 
      "sanName": "rooiaarde", 
      "numOfAddr": 44, 
      "lonmax": 5.112956795750821, 
      "latmin": 51.129309316924996
    }, 
    {
      "latmax": 51.13314737171666, 
      "name": "Roosterputstraat", 
      "lonmin": 5.0894487622350235, 
      "sanName": "roosterputstraat", 
      "numOfAddr": 33, 
      "lonmax": 5.094257698003064, 
      "latmin": 51.132228871678606
    }, 
    {
      "latmax": 51.11763185614046, 
      "name": "Schaffenberg", 
      "lonmin": 5.090580595530945, 
      "sanName": "schaffenberg", 
      "numOfAddr": 13, 
      "lonmax": 5.092562276300376, 
      "latmin": 51.116777392310816
    }, 
    {
      "latmax": 51.122504869389935, 
      "name": "Schans", 
      "lonmin": 5.05205368258079, 
      "sanName": "schans", 
      "numOfAddr": 13, 
      "lonmax": 5.054088398498928, 
      "latmin": 51.121392989898
    }, 
    {
      "latmax": 51.13027650687282, 
      "name": "Schoolstraat", 
      "lonmin": 5.076492013977023, 
      "sanName": "schoolstraat", 
      "numOfAddr": 103, 
      "lonmax": 5.080922337892054, 
      "latmin": 51.121882162244475
    }, 
    {
      "latmax": 51.12036761713663, 
      "name": "Sint-Bavoweg", 
      "lonmin": 5.0516852877262375, 
      "sanName": "sintbavoweg", 
      "numOfAddr": 5, 
      "lonmax": 5.05219152500812, 
      "latmin": 51.120108675792004
    }, 
    {
      "latmax": 51.1380559524957, 
      "name": "Smissestraat", 
      "lonmin": 5.07241031426217, 
      "sanName": "smissestraat", 
      "numOfAddr": 37, 
      "lonmax": 5.075402525408207, 
      "latmin": 51.133376904757256
    }, 
    {
      "latmax": 51.13003856044423, 
      "name": "Speeltuinstraat", 
      "lonmin": 5.052667005663269, 
      "sanName": "speeltuinstraat", 
      "numOfAddr": 5, 
      "lonmax": 5.059172812461236, 
      "latmin": 51.12348672167328
    }, 
    {
      "latmax": 51.129673069777425, 
      "name": "Sportlaan", 
      "lonmin": 5.0673719704025375, 
      "sanName": "sportlaan", 
      "numOfAddr": 11, 
      "lonmax": 5.070367228798535, 
      "latmin": 51.127582094747986
    }, 
    {
      "latmax": 51.11516396885221, 
      "name": "St.Barbarastraat", 
      "lonmin": 5.096270678779711, 
      "sanName": "stbarbarastraat", 
      "numOfAddr": 38, 
      "lonmax": 5.100182870752447, 
      "latmin": 51.11261441093458
    }, 
    {
      "latmax": 51.12040664312088, 
      "name": "Steenheuvel", 
      "lonmin": 5.055010665414507, 
      "sanName": "steenheuvel", 
      "numOfAddr": 2, 
      "lonmax": 5.055189977598998, 
      "latmin": 51.11454390460858
    }, 
    {
      "latmax": 51.11147761048042, 
      "name": "St.-Jorisstraat", 
      "lonmin": 5.096338659319801, 
      "sanName": "stjorisstraat", 
      "numOfAddr": 21, 
      "lonmax": 5.098577659042542, 
      "latmin": 51.11034442956333
    }, 
    {
      "latmax": 51.13050494460078, 
      "name": "St. Jozeflaan", 
      "lonmin": 5.091074733495601, 
      "sanName": "stjozeflaan", 
      "numOfAddr": 8, 
      "lonmax": 5.092012209515869, 
      "latmin": 51.12966134035861
    }, 
    {
      "latmax": 51.10878259522156, 
      "name": "St.-Niklaasstraat", 
      "lonmin": 5.038699396071696, 
      "sanName": "stniklaasstraat", 
      "numOfAddr": 22, 
      "lonmax": 5.041262007912103, 
      "latmin": 51.105765203102
    }, 
    {
      "latmax": 51.13059982031677, 
      "name": "St.Trudoweg", 
      "lonmin": 5.07734157186755, 
      "sanName": "sttrudoweg", 
      "numOfAddr": 3, 
      "lonmax": 5.077864409165921, 
      "latmin": 51.130493751314745
    }, 
    {
      "latmax": 51.14583633167234, 
      "name": "'t Steen", 
      "lonmin": 5.028674578400718, 
      "sanName": "tsteen", 
      "numOfAddr": 3, 
      "lonmax": 5.03603463130755, 
      "latmin": 51.14496632770252
    }, 
    {
      "latmax": 51.114227181814805, 
      "name": "Turkenhof", 
      "lonmin": 5.100579555796703, 
      "sanName": "turkenhof", 
      "numOfAddr": 48, 
      "lonmax": 5.102535209478968, 
      "latmin": 51.11303754499936
    }, 
    {
      "latmax": 51.12648967770666, 
      "name": "Vaalstraat", 
      "lonmin": 5.091768617996865, 
      "sanName": "vaalstraat", 
      "numOfAddr": 1, 
      "lonmax": 5.091768617996865, 
      "latmin": 51.12648967770666
    }, 
    {
      "latmax": 51.11625935038221, 
      "name": "Vaartstraat", 
      "lonmin": 5.036956493154283, 
      "sanName": "vaartstraat", 
      "numOfAddr": 7, 
      "lonmax": 5.040255902822645, 
      "latmin": 51.114062379716685
    }, 
    {
      "latmax": 51.10724223062868, 
      "name": "Veedijk", 
      "lonmin": 5.037608182523139, 
      "sanName": "veedijk", 
      "numOfAddr": 15, 
      "lonmax": 5.050480116492463, 
      "latmin": 51.104536294971275
    }, 
    {
      "latmax": 51.109682048318355, 
      "name": "Veestraat", 
      "lonmin": 5.03074922536213, 
      "sanName": "veestraat", 
      "numOfAddr": 9, 
      "lonmax": 5.031773214373292, 
      "latmin": 51.10609152152724
    }, 
    {
      "latmax": 51.13232867816212, 
      "name": "Veldstraat", 
      "lonmin": 5.078702404555767, 
      "sanName": "veldstraat", 
      "numOfAddr": 71, 
      "lonmax": 5.083512473680401, 
      "latmin": 51.13090279268446
    }, 
    {
      "latmax": 51.112058073891966, 
      "name": "Vennestraat", 
      "lonmin": 5.100386608797541, 
      "sanName": "vennestraat", 
      "numOfAddr": 12, 
      "lonmax": 5.1022495225720395, 
      "latmin": 51.11110414542709
    }, 
    {
      "latmax": 51.11288486609557, 
      "name": "Vestpad", 
      "lonmin": 5.09885976024799, 
      "sanName": "vestpad", 
      "numOfAddr": 2, 
      "lonmax": 5.098897323786334, 
      "latmin": 51.1127932293472
    }, 
    {
      "latmax": 51.133210730922585, 
      "name": "Violetstraat", 
      "lonmin": 5.0783393746472845, 
      "sanName": "violetstraat", 
      "numOfAddr": 13, 
      "lonmax": 5.079082608605253, 
      "latmin": 51.132662101522044
    }, 
    {
      "latmax": 51.12889198501457, 
      "name": "Vlasstraat", 
      "lonmin": 5.0970436860506, 
      "sanName": "vlasstraat", 
      "numOfAddr": 32, 
      "lonmax": 5.100650710515054, 
      "latmin": 51.12673563425833
    }, 
    {
      "latmax": 51.11825695290767, 
      "name": "Vlessenstraat", 
      "lonmin": 5.093425007272909, 
      "sanName": "vlessenstraat", 
      "numOfAddr": 2, 
      "lonmax": 5.094020583680675, 
      "latmin": 51.118146318385996
    }, 
    {
      "latmax": 51.13386850507307, 
      "name": "Vloei", 
      "lonmin": 5.08568439532621, 
      "sanName": "vloei", 
      "numOfAddr": 33, 
      "lonmax": 5.088407110389582, 
      "latmin": 51.131208820493384
    }, 
    {
      "latmax": 51.10410778480695, 
      "name": "Vogelspoel", 
      "lonmin": 5.031184626711935, 
      "sanName": "vogelspoel", 
      "numOfAddr": 2, 
      "lonmax": 5.039407180080429, 
      "latmin": 51.09970943608083
    }, 
    {
      "latmax": 51.15388005637262, 
      "name": "Volmolenweg", 
      "lonmin": 5.086181796525002, 
      "sanName": "volmolenweg", 
      "numOfAddr": 23, 
      "lonmax": 5.088570023898306, 
      "latmin": 51.144879333976085
    }, 
    {
      "latmax": 51.10521563595531, 
      "name": "Voortbossen", 
      "lonmin": 5.107173750788515, 
      "sanName": "voortbossen", 
      "numOfAddr": 9, 
      "lonmax": 5.113121088464296, 
      "latmin": 51.09980015860994
    }, 
    {
      "latmax": 51.13502981005416, 
      "name": "Vuurkruisenstraat", 
      "lonmin": 5.081902176550993, 
      "sanName": "vuurkruisenstraat", 
      "numOfAddr": 21, 
      "lonmax": 5.083669582204711, 
      "latmin": 51.1334311301005
    }, 
    {
      "latmax": 51.13673263572453, 
      "name": "Watermolen", 
      "lonmin": 5.082431928378026, 
      "sanName": "watermolen", 
      "numOfAddr": 6, 
      "lonmax": 5.0837083681425295, 
      "latmin": 51.13581757197166
    }, 
    {
      "latmax": 51.115863297846104, 
      "name": "Waterstraat", 
      "lonmin": 5.09497474485156, 
      "sanName": "waterstraat", 
      "numOfAddr": 30, 
      "lonmax": 5.099518804541513, 
      "latmin": 51.114461941653396
    }, 
    {
      "latmax": 51.12840589393477, 
      "name": "Watertorenstraat", 
      "lonmin": 5.0918243318088985, 
      "sanName": "watertorenstraat", 
      "numOfAddr": 5, 
      "lonmax": 5.092528078668595, 
      "latmin": 51.12783476990439
    }, 
    {
      "latmax": 51.13492119191729, 
      "name": "Weegbreestraat", 
      "lonmin": 5.0700922464832825, 
      "sanName": "weegbreestraat", 
      "numOfAddr": 19, 
      "lonmax": 5.071681515518903, 
      "latmin": 51.13403399402537
    }, 
    {
      "latmax": 51.11843277969622, 
      "name": "Weerstandersstraat", 
      "lonmin": 5.075723932860136, 
      "sanName": "weerstandersstraat", 
      "numOfAddr": 1, 
      "lonmax": 5.075723932860136, 
      "latmin": 51.11843277969622
    }, 
    {
      "latmax": 51.1256808329225, 
      "name": "Weidestraat", 
      "lonmin": 5.027057005838401, 
      "sanName": "weidestraat", 
      "numOfAddr": 16, 
      "lonmax": 5.039290095665752, 
      "latmin": 51.12113525139655
    }, 
    {
      "latmax": 51.11178842737559, 
      "name": "Weierstraat", 
      "lonmin": 5.117517213483813, 
      "sanName": "weierstraat", 
      "numOfAddr": 3, 
      "lonmax": 5.126049125796073, 
      "latmin": 51.11123352940327
    }, 
    {
      "latmax": 51.13162646402132, 
      "name": "Weversberg", 
      "lonmin": 5.084029986890412, 
      "sanName": "weversberg", 
      "numOfAddr": 87, 
      "lonmax": 5.0890857126901885, 
      "latmin": 51.12966923259076
    }, 
    {
      "latmax": 51.110520322728824, 
      "name": "Weversdries", 
      "lonmin": 5.054447013116241, 
      "sanName": "weversdries", 
      "numOfAddr": 1, 
      "lonmax": 5.054447013116241, 
      "latmin": 51.110520322728824
    }, 
    {
      "latmax": 51.1377722997967, 
      "name": "Weversstraat", 
      "lonmin": 5.115390952987294, 
      "sanName": "weversstraat", 
      "numOfAddr": 15, 
      "lonmax": 5.122150436046589, 
      "latmin": 51.13474282070827
    }, 
    {
      "latmax": 51.13495097340939, 
      "name": "Wipstraat", 
      "lonmin": 5.048690230043528, 
      "sanName": "wipstraat", 
      "numOfAddr": 3, 
      "lonmax": 5.05136810748828, 
      "latmin": 51.13437626193852
    }, 
    {
      "latmax": 51.11006713394478, 
      "name": "Wuytswinkel", 
      "lonmin": 5.111423727339893, 
      "sanName": "wuytswinkel", 
      "numOfAddr": 7, 
      "lonmax": 5.112800113665792, 
      "latmin": 51.108416800618905
    }, 
    {
      "latmax": 51.114340726594975, 
      "name": "Zandstraat", 
      "lonmin": 5.052193822169224, 
      "sanName": "zandstraat", 
      "numOfAddr": 10, 
      "lonmax": 5.059927716735418, 
      "latmin": 51.11354014175333
    }, 
    {
      "latmax": 51.11276423012999, 
      "name": "Zandstreep", 
      "lonmin": 5.084196227524356, 
      "sanName": "zandstreep", 
      "numOfAddr": 32, 
      "lonmax": 5.0965646772270405, 
      "latmin": 51.10935710802483
    }, 
    {
      "latmax": 51.1402213276545, 
      "name": "Zavelberg", 
      "lonmin": 5.055031927511264, 
      "sanName": "zavelberg", 
      "numOfAddr": 5, 
      "lonmax": 5.056506430372952, 
      "latmin": 51.139774174404515
    }, 
    {
      "latmax": 51.114377977815245, 
      "name": "Zeggeman", 
      "lonmin": 5.044234505035773, 
      "sanName": "zeggeman", 
      "numOfAddr": 2, 
      "lonmax": 5.044869390534012, 
      "latmin": 51.114263591647415
    }, 
    {
      "latmax": 51.12725942293746, 
      "name": "Zijstraat", 
      "lonmin": 5.091225876133028, 
      "sanName": "zijstraat", 
      "numOfAddr": 45, 
      "lonmax": 5.098945966772835, 
      "latmin": 51.12363480839075
    }, 
    {
      "latmax": 51.13128804092136, 
      "name": "Zilderij", 
      "lonmin": 5.0858845698063755, 
      "sanName": "zilderij", 
      "numOfAddr": 15, 
      "lonmax": 5.08756772765106, 
      "latmin": 51.13085288952457
    }
  ]
}