{
  "streets": [
    {
      "latmax": 51.24124390607119, 
      "name": "Acacialaan", 
      "lonmin": 4.975802332188859, 
      "sanName": "acacialaan", 
      "numOfAddr": 24, 
      "lonmax": 4.977866883183852, 
      "latmin": 51.23769194283794
    }, 
    {
      "latmax": 51.226462846616414, 
      "name": "Achterlee", 
      "lonmin": 4.8787361052609715, 
      "sanName": "achterlee", 
      "numOfAddr": 21, 
      "lonmax": 4.8924730496220485, 
      "latmin": 51.22386203050695
    }, 
    {
      "latmax": 51.24877926250106, 
      "name": "Akkerstraat", 
      "lonmin": 4.967035442843345, 
      "sanName": "akkerstraat", 
      "numOfAddr": 60, 
      "lonmax": 4.972848971136046, 
      "latmin": 51.24539858975761
    }, 
    {
      "latmax": 51.246910112145166, 
      "name": "Amberlaan", 
      "lonmin": 4.975155077129928, 
      "sanName": "amberlaan", 
      "numOfAddr": 18, 
      "lonmax": 4.9767263726324265, 
      "latmin": 51.24546421809461
    }, 
    {
      "latmax": 51.22857805823835, 
      "name": "Anjerlaan", 
      "lonmin": 4.906414561287628, 
      "sanName": "anjerlaan", 
      "numOfAddr": 18, 
      "lonmax": 4.910110868903831, 
      "latmin": 51.227571987808076
    }, 
    {
      "latmax": 51.21395733730844, 
      "name": "Arkstraat", 
      "lonmin": 4.9321950581460845, 
      "sanName": "arkstraat", 
      "numOfAddr": 4, 
      "lonmax": 4.9375447896411115, 
      "latmin": 51.209417402468425
    }, 
    {
      "latmax": 51.25615754564497, 
      "name": "Asberg", 
      "lonmin": 4.96054685577754, 
      "sanName": "asberg", 
      "numOfAddr": 2, 
      "lonmax": 4.960910478356926, 
      "latmin": 51.255735646831575
    }, 
    {
      "latmax": 51.20918767453904, 
      "name": "Bakenstraat", 
      "lonmin": 4.902458896336414, 
      "sanName": "bakenstraat", 
      "numOfAddr": 24, 
      "lonmax": 4.905890042209583, 
      "latmin": 51.20800827534308
    }, 
    {
      "latmax": 51.254736479336756, 
      "name": "Balderij", 
      "lonmin": 4.919257398893312, 
      "sanName": "balderij", 
      "numOfAddr": 1, 
      "lonmax": 4.919257398893312, 
      "latmin": 51.254736479336756
    }, 
    {
      "latmax": 51.25361060874048, 
      "name": "Bareelstraat", 
      "lonmin": 4.899156611602631, 
      "sanName": "bareelstraat", 
      "numOfAddr": 20, 
      "lonmax": 4.904081675261068, 
      "latmin": 51.24654441827241
    }, 
    {
      "latmax": 51.247792289462566, 
      "name": "Baron Van der Grachtlaan", 
      "lonmin": 4.981991414780726, 
      "sanName": "baronvandergrachtlaan", 
      "numOfAddr": 34, 
      "lonmax": 4.988910492840825, 
      "latmin": 51.24406439452947
    }, 
    {
      "latmax": 51.22795746892821, 
      "name": "Begonialaan", 
      "lonmin": 4.9106073644182295, 
      "sanName": "begonialaan", 
      "numOfAddr": 11, 
      "lonmax": 4.912392434362677, 
      "latmin": 51.2274192072883
    }, 
    {
      "latmax": 51.21137527877533, 
      "name": "Bekenbaan", 
      "lonmin": 4.902145882359453, 
      "sanName": "bekenbaan", 
      "numOfAddr": 21, 
      "lonmax": 4.9105069959973715, 
      "latmin": 51.20893805429348
    }, 
    {
      "latmax": 51.25894227247578, 
      "name": "Bendeakkers", 
      "lonmin": 4.952834058785005, 
      "sanName": "bendeakkers", 
      "numOfAddr": 3, 
      "lonmax": 4.954073868745562, 
      "latmin": 51.25853574233671
    }, 
    {
      "latmax": 51.265638476238465, 
      "name": "Bergakkers", 
      "lonmin": 4.964753997360217, 
      "sanName": "bergakkers", 
      "numOfAddr": 1, 
      "lonmax": 4.964753997360217, 
      "latmin": 51.265638476238465
    }, 
    {
      "latmax": 51.23944280935561, 
      "name": "Berkenlaan", 
      "lonmin": 4.970740918785285, 
      "sanName": "berkenlaan", 
      "numOfAddr": 41, 
      "lonmax": 4.980761135088324, 
      "latmin": 51.23706932993391
    }, 
    {
      "latmax": 51.24539284432062, 
      "name": "Berthoutstraat", 
      "lonmin": 4.891590144056559, 
      "sanName": "berthoutstraat", 
      "numOfAddr": 11, 
      "lonmax": 4.892905045793182, 
      "latmin": 51.24445791272365
    }, 
    {
      "latmax": 51.24617246473434, 
      "name": "Beukendreef", 
      "lonmin": 4.9548255661354705, 
      "sanName": "beukendreef", 
      "numOfAddr": 17, 
      "lonmax": 4.957793709750694, 
      "latmin": 51.24377891952579
    }, 
    {
      "latmax": 51.25083740517994, 
      "name": "Biezenveld", 
      "lonmin": 4.9585154453140055, 
      "sanName": "biezenveld", 
      "numOfAddr": 10, 
      "lonmax": 4.961984613977327, 
      "latmin": 51.248417608988085
    }, 
    {
      "latmax": 51.242043130314215, 
      "name": "Binnenpad", 
      "lonmin": 4.968506248314754, 
      "sanName": "binnenpad", 
      "numOfAddr": 1, 
      "lonmax": 4.968506248314754, 
      "latmin": 51.242043130314215
    }, 
    {
      "latmax": 51.248915410600816, 
      "name": "Boekweitbaan", 
      "lonmin": 4.979969334058248, 
      "sanName": "boekweitbaan", 
      "numOfAddr": 26, 
      "lonmax": 4.982962265796617, 
      "latmin": 51.24351953428535
    }, 
    {
      "latmax": 51.22366542175843, 
      "name": "Boervenneweg", 
      "lonmin": 4.906790563210989, 
      "sanName": "boervenneweg", 
      "numOfAddr": 5, 
      "lonmax": 4.907682809442391, 
      "latmin": 51.223415651834955
    }, 
    {
      "latmax": 51.23755072895389, 
      "name": "Bosakkers", 
      "lonmin": 4.964846423685114, 
      "sanName": "bosakkers", 
      "numOfAddr": 31, 
      "lonmax": 4.9691045402623155, 
      "latmin": 51.23504794906132
    }, 
    {
      "latmax": 51.244447722323976, 
      "name": "Bos Dellen", 
      "lonmin": 5.0135888318849595, 
      "sanName": "bosdellen", 
      "numOfAddr": 7, 
      "lonmax": 5.016255871693567, 
      "latmin": 51.24323050890407
    }, 
    {
      "latmax": 51.258916098294414, 
      "name": "Bos en Bremdreef", 
      "lonmin": 5.026408955359796, 
      "sanName": "bosenbremdreef", 
      "numOfAddr": 1, 
      "lonmax": 5.026408955359796, 
      "latmin": 51.258916098294414
    }, 
    {
      "latmax": 51.226004099594846, 
      "name": "Boshof", 
      "lonmin": 4.950684505796532, 
      "sanName": "boshof", 
      "numOfAddr": 10, 
      "lonmax": 4.954147607832693, 
      "latmin": 51.22451494293349
    }, 
    {
      "latmax": 51.236375184251116, 
      "name": "Boskabouterpad", 
      "lonmin": 4.941592122261519, 
      "sanName": "boskabouterpad", 
      "numOfAddr": 2, 
      "lonmax": 4.94162818315011, 
      "latmin": 51.235073629879
    }, 
    {
      "latmax": 51.21937701653986, 
      "name": "Boskant", 
      "lonmin": 4.910638883453054, 
      "sanName": "boskant", 
      "numOfAddr": 48, 
      "lonmax": 4.921176718613238, 
      "latmin": 51.21675508614936
    }, 
    {
      "latmax": 51.23780681564558, 
      "name": "Boslaan", 
      "lonmin": 4.964979054967986, 
      "sanName": "boslaan", 
      "numOfAddr": 14, 
      "lonmax": 4.965764123531431, 
      "latmin": 51.23601792832608
    }, 
    {
      "latmax": 51.22810445167846, 
      "name": "Boterbloemlaan", 
      "lonmin": 4.904214107400432, 
      "sanName": "boterbloemlaan", 
      "numOfAddr": 29, 
      "lonmax": 4.906114699339956, 
      "latmin": 51.227246299819875
    }, 
    {
      "latmax": 51.249019425669715, 
      "name": "Breemakkers", 
      "lonmin": 4.90002364001549, 
      "sanName": "breemakkers", 
      "numOfAddr": 51, 
      "lonmax": 4.904279879647741, 
      "latmin": 51.24581036316373
    }, 
    {
      "latmax": 51.227208790565506, 
      "name": "Breevensedijk", 
      "lonmin": 4.977694215158017, 
      "sanName": "breevensedijk", 
      "numOfAddr": 2, 
      "lonmax": 4.978504097241966, 
      "latmin": 51.22709602600233
    }, 
    {
      "latmax": 51.248604541715615, 
      "name": "Bremstraat", 
      "lonmin": 4.981938750824948, 
      "sanName": "bremstraat", 
      "numOfAddr": 31, 
      "lonmax": 4.988581752481762, 
      "latmin": 51.245780321797014
    }, 
    {
      "latmax": 51.24052060676472, 
      "name": "Broekstraat", 
      "lonmin": 4.890617262021641, 
      "sanName": "broekstraat", 
      "numOfAddr": 54, 
      "lonmax": 4.898257692783411, 
      "latmin": 51.2376805620723
    }, 
    {
      "latmax": 51.242608610398946, 
      "name": "Brouwerijstraat", 
      "lonmin": 4.902999038177547, 
      "sanName": "brouwerijstraat", 
      "numOfAddr": 22, 
      "lonmax": 4.90546735206488, 
      "latmin": 51.24103760382305
    }, 
    {
      "latmax": 51.25083951383229, 
      "name": "Bushagen", 
      "lonmin": 4.994386107082498, 
      "sanName": "bushagen", 
      "numOfAddr": 32, 
      "lonmax": 5.000547215892871, 
      "latmin": 51.24498703109193
    }, 
    {
      "latmax": 51.24920146423589, 
      "name": "Busschoten", 
      "lonmin": 4.941065212315336, 
      "sanName": "busschoten", 
      "numOfAddr": 1, 
      "lonmax": 4.941065212315336, 
      "latmin": 51.24920146423589
    }, 
    {
      "latmax": 51.245695003739016, 
      "name": "Campfortstraat", 
      "lonmin": 4.906318533537781, 
      "sanName": "campfortstraat", 
      "numOfAddr": 4, 
      "lonmax": 4.907815307597886, 
      "latmin": 51.244618148807
    }, 
    {
      "latmax": 51.22813990317359, 
      "name": "Caseryke", 
      "lonmin": 4.891027410355244, 
      "sanName": "caseryke", 
      "numOfAddr": 1, 
      "lonmax": 4.891027410355244, 
      "latmin": 51.22813990317359
    }, 
    {
      "latmax": 51.22743916208031, 
      "name": "Cawinkel", 
      "lonmin": 4.877518581525229, 
      "sanName": "cawinkel", 
      "numOfAddr": 2, 
      "lonmax": 4.877851314914543, 
      "latmin": 51.22657104119747
    }, 
    {
      "latmax": 51.22120559113252, 
      "name": "Corneliuspad", 
      "lonmin": 4.925080340173645, 
      "sanName": "corneliuspad", 
      "numOfAddr": 2, 
      "lonmax": 4.928247841831668, 
      "latmin": 51.219994954677034
    }, 
    {
      "latmax": 51.223008114419855, 
      "name": "D'Akkeren", 
      "lonmin": 4.91776024752239, 
      "sanName": "dakkeren", 
      "numOfAddr": 36, 
      "lonmax": 4.918855101763493, 
      "latmin": 51.22225750007667
    }, 
    {
      "latmax": 51.25051489898065, 
      "name": "Daslander", 
      "lonmin": 4.933078931020573, 
      "sanName": "daslander", 
      "numOfAddr": 1, 
      "lonmax": 4.933078931020573, 
      "latmin": 51.25051489898065
    }, 
    {
      "latmax": 51.2269093605714, 
      "name": "De Bergen", 
      "lonmin": 4.905290590459581, 
      "sanName": "debergen", 
      "numOfAddr": 76, 
      "lonmax": 4.915194918733703, 
      "latmin": 51.22522106160262
    }, 
    {
      "latmax": 51.225618292898034, 
      "name": "De Dalen", 
      "lonmin": 4.893126060446994, 
      "sanName": "dedalen", 
      "numOfAddr": 3, 
      "lonmax": 4.89376957983004, 
      "latmin": 51.22517894753364
    }, 
    {
      "latmax": 51.27942688317096, 
      "name": "De Hese", 
      "lonmin": 4.971043227124036, 
      "sanName": "dehese", 
      "numOfAddr": 29, 
      "lonmax": 4.983320740602395, 
      "latmin": 51.27262509831417
    }, 
    {
      "latmax": 51.23039620679706, 
      "name": "De Leykens", 
      "lonmin": 4.90875514496742, 
      "sanName": "deleykens", 
      "numOfAddr": 27, 
      "lonmax": 4.911833071550876, 
      "latmin": 51.22900928163631
    }, 
    {
      "latmax": 51.24260632356274, 
      "name": "De Maneschijn", 
      "lonmin": 4.981461056694931, 
      "sanName": "demaneschijn", 
      "numOfAddr": 27, 
      "lonmax": 4.984430910161602, 
      "latmin": 51.23797339858795
    }, 
    {
      "latmax": 51.25691495390501, 
      "name": "De Meere", 
      "lonmin": 4.96647951683148, 
      "sanName": "demeere", 
      "numOfAddr": 25, 
      "lonmax": 4.971429993877256, 
      "latmin": 51.254579705827375
    }, 
    {
      "latmax": 51.22493851604872, 
      "name": "Den Halt", 
      "lonmin": 4.875009546912171, 
      "sanName": "denhalt", 
      "numOfAddr": 2, 
      "lonmax": 4.87566285849563, 
      "latmin": 51.22458474168136
    }, 
    {
      "latmax": 51.22168280949468, 
      "name": "Dennenlaan", 
      "lonmin": 4.914073139141615, 
      "sanName": "dennenlaan", 
      "numOfAddr": 20, 
      "lonmax": 4.915220121974756, 
      "latmin": 51.21927956929876
    }, 
    {
      "latmax": 51.240204930922246, 
      "name": "Desselsebaan", 
      "lonmin": 5.003424933817179, 
      "sanName": "desselsebaan", 
      "numOfAddr": 7, 
      "lonmax": 5.010991912943734, 
      "latmin": 51.237178925202876
    }, 
    {
      "latmax": 51.24436486881551, 
      "name": "De Vloeyen", 
      "lonmin": 4.870242071649524, 
      "sanName": "devloeyen", 
      "numOfAddr": 1, 
      "lonmax": 4.870242071649524, 
      "latmin": 51.24436486881551
    }, 
    {
      "latmax": 51.24729622845914, 
      "name": "de Willaert", 
      "lonmin": 4.884989661754827, 
      "sanName": "dewillaert", 
      "numOfAddr": 38, 
      "lonmax": 4.89343668225138, 
      "latmin": 51.24140712721018
    }, 
    {
      "latmax": 51.25688536656484, 
      "name": "De Wingerd", 
      "lonmin": 4.967502789407905, 
      "sanName": "dewingerd", 
      "numOfAddr": 4, 
      "lonmax": 4.968766576727925, 
      "latmin": 51.25682924336004
    }, 
    {
      "latmax": 51.224189556834084, 
      "name": "Diestweg", 
      "lonmin": 4.871200702619171, 
      "sanName": "diestweg", 
      "numOfAddr": 5, 
      "lonmax": 4.903171167878853, 
      "latmin": 51.20812516074868
    }, 
    {
      "latmax": 51.24944510233329, 
      "name": "Dijkstraat", 
      "lonmin": 4.966934983660018, 
      "sanName": "dijkstraat", 
      "numOfAddr": 66, 
      "lonmax": 4.9812204883399, 
      "latmin": 51.24441311955727
    }, 
    {
      "latmax": 51.25678187923576, 
      "name": "Dijkvoorten", 
      "lonmin": 4.981821420870909, 
      "sanName": "dijkvoorten", 
      "numOfAddr": 2, 
      "lonmax": 4.982386555884383, 
      "latmin": 51.25528432754021
    }, 
    {
      "latmax": 51.23322251510193, 
      "name": "Doornboom", 
      "lonmin": 4.972252066960027, 
      "sanName": "doornboom", 
      "numOfAddr": 25, 
      "lonmax": 4.9766770063249615, 
      "latmin": 51.23005424444217
    }, 
    {
      "latmax": 51.24496336602811, 
      "name": "Dreef", 
      "lonmin": 4.98671469474123, 
      "sanName": "dreef", 
      "numOfAddr": 2, 
      "lonmax": 4.987575385882713, 
      "latmin": 51.2445208466848
    }, 
    {
      "latmax": 51.230279839079834, 
      "name": "Dressenstraat", 
      "lonmin": 4.923586303049977, 
      "sanName": "dressenstraat", 
      "numOfAddr": 16, 
      "lonmax": 4.928274849832952, 
      "latmin": 51.22952014926594
    }, 
    {
      "latmax": 51.2366126974501, 
      "name": "Driesstraat", 
      "lonmin": 4.915076356497431, 
      "sanName": "driesstraat", 
      "numOfAddr": 7, 
      "lonmax": 4.919411348272526, 
      "latmin": 51.235325886573406
    }, 
    {
      "latmax": 51.24186562157334, 
      "name": "Dr. Jan Van Gorpstraat", 
      "lonmin": 4.961059585750666, 
      "sanName": "drjanvangorpstraat", 
      "numOfAddr": 17, 
      "lonmax": 4.9621861514013235, 
      "latmin": 51.240580228143095
    }, 
    {
      "latmax": 51.2384712371249, 
      "name": "Duineneind", 
      "lonmin": 4.970292058791215, 
      "sanName": "duineneind", 
      "numOfAddr": 16, 
      "lonmax": 4.976915307253486, 
      "latmin": 51.23608022049754
    }, 
    {
      "latmax": 51.247471105366195, 
      "name": "Dungenen", 
      "lonmin": 5.005106723370917, 
      "sanName": "dungenen", 
      "numOfAddr": 5, 
      "lonmax": 5.005763351576067, 
      "latmin": 51.246622514209434
    }, 
    {
      "latmax": 51.2353325204969, 
      "name": "Eekhoornstraat", 
      "lonmin": 4.966359395306758, 
      "sanName": "eekhoornstraat", 
      "numOfAddr": 16, 
      "lonmax": 4.968977605172734, 
      "latmin": 51.23426006418196
    }, 
    {
      "latmax": 51.20852036519355, 
      "name": "Eerselingenstraat", 
      "lonmin": 4.905783646826046, 
      "sanName": "eerselingenstraat", 
      "numOfAddr": 25, 
      "lonmax": 4.9241880229599735, 
      "latmin": 51.20226281554967
    }, 
    {
      "latmax": 51.25836577268631, 
      "name": "Eersels", 
      "lonmin": 4.992674352919758, 
      "sanName": "eersels", 
      "numOfAddr": 1, 
      "lonmax": 4.992674352919758, 
      "latmin": 51.25836577268631
    }, 
    {
      "latmax": 51.249867779806145, 
      "name": "Eigenaarsstraat", 
      "lonmin": 4.905662518212466, 
      "sanName": "eigenaarsstraat", 
      "numOfAddr": 50, 
      "lonmax": 4.908059698873007, 
      "latmin": 51.24744783366824
    }, 
    {
      "latmax": 51.25722432057509, 
      "name": "Eikenlaan", 
      "lonmin": 4.962984379361212, 
      "sanName": "eikenlaan", 
      "numOfAddr": 4, 
      "lonmax": 4.9646431773656, 
      "latmin": 51.25676066732134
    }, 
    {
      "latmax": 51.22456506953507, 
      "name": "Eindeke", 
      "lonmin": 4.881095814487568, 
      "sanName": "eindeke", 
      "numOfAddr": 16, 
      "lonmax": 4.88501347847565, 
      "latmin": 51.221093278124584
    }, 
    {
      "latmax": 51.24550188037937, 
      "name": "Elzenlaan", 
      "lonmin": 4.973508282357912, 
      "sanName": "elzenlaan", 
      "numOfAddr": 18, 
      "lonmax": 4.975150452808345, 
      "latmin": 51.244078225447346
    }, 
    {
      "latmax": 51.24198291039547, 
      "name": "Engakkers", 
      "lonmin": 4.900942751890701, 
      "sanName": "engakkers", 
      "numOfAddr": 39, 
      "lonmax": 4.9039682500229125, 
      "latmin": 51.23933056390246
    }, 
    {
      "latmax": 51.2213709634902, 
      "name": "Esdoornlaan", 
      "lonmin": 4.911822372861705, 
      "sanName": "esdoornlaan", 
      "numOfAddr": 28, 
      "lonmax": 4.914511434697209, 
      "latmin": 51.21845460891595
    }, 
    {
      "latmax": 51.24219762792711, 
      "name": "Evenhofstraat", 
      "lonmin": 4.884428004574555, 
      "sanName": "evenhofstraat", 
      "numOfAddr": 5, 
      "lonmax": 4.8905376219934436, 
      "latmin": 51.241806875931786
    }, 
    {
      "latmax": 51.255501319975565, 
      "name": "Galerijke", 
      "lonmin": 4.899763700505246, 
      "sanName": "galerijke", 
      "numOfAddr": 2, 
      "lonmax": 4.902323962172269, 
      "latmin": 51.25504212486808
    }, 
    {
      "latmax": 51.24191737493889, 
      "name": "Ganzenpad", 
      "lonmin": 4.996218270535221, 
      "sanName": "ganzenpad", 
      "numOfAddr": 1, 
      "lonmax": 4.996218270535221, 
      "latmin": 51.24191737493889
    }, 
    {
      "latmax": 51.24026968799327, 
      "name": "Geelsebaan", 
      "lonmin": 4.9675734189460625, 
      "sanName": "geelsebaan", 
      "numOfAddr": 117, 
      "lonmax": 4.9751059321366276, 
      "latmin": 51.22113741635931
    }, 
    {
      "latmax": 51.223644173325205, 
      "name": "Gemeentestraat", 
      "lonmin": 4.914183699612939, 
      "sanName": "gemeentestraat", 
      "numOfAddr": 7, 
      "lonmax": 4.914676773498011, 
      "latmin": 51.222690567273716
    }, 
    {
      "latmax": 51.25415356144559, 
      "name": "Gierlebaan", 
      "lonmin": 4.880918559244136, 
      "sanName": "gierlebaan", 
      "numOfAddr": 94, 
      "lonmax": 4.896268015926409, 
      "latmin": 51.243548953628896
    }, 
    {
      "latmax": 51.226515482734996, 
      "name": "Goor", 
      "lonmin": 4.942268410125375, 
      "sanName": "goor", 
      "numOfAddr": 26, 
      "lonmax": 4.951265958457284, 
      "latmin": 51.22222227462062
    }, 
    {
      "latmax": 51.26977949792803, 
      "name": "Goorkens", 
      "lonmin": 4.950953652250428, 
      "sanName": "goorkens", 
      "numOfAddr": 3, 
      "lonmax": 4.955786236352293, 
      "latmin": 51.26628161358588
    }, 
    {
      "latmax": 51.22679050343828, 
      "name": "Goorseweg", 
      "lonmin": 4.949886533466039, 
      "sanName": "goorseweg", 
      "numOfAddr": 6, 
      "lonmax": 4.950990575848771, 
      "latmin": 51.22615521778943
    }, 
    {
      "latmax": 51.262858757055135, 
      "name": "Graanakkers", 
      "lonmin": 4.894803387084069, 
      "sanName": "graanakkers", 
      "numOfAddr": 3, 
      "lonmax": 4.898449837100602, 
      "latmin": 51.26014508644775
    }, 
    {
      "latmax": 51.26217507419823, 
      "name": "Grasheide", 
      "lonmin": 5.024034858213246, 
      "sanName": "grasheide", 
      "numOfAddr": 3, 
      "lonmax": 5.024944540976017, 
      "latmin": 51.26160427637238
    }, 
    {
      "latmax": 51.27742132243544, 
      "name": "Grootrees", 
      "lonmin": 4.97054711662192, 
      "sanName": "grootrees", 
      "numOfAddr": 41, 
      "lonmax": 4.9773146244938795, 
      "latmin": 51.26666615820349
    }, 
    {
      "latmax": 51.25517862163193, 
      "name": "Grootreesdijk", 
      "lonmin": 4.965125185299079, 
      "sanName": "grootreesdijk", 
      "numOfAddr": 41, 
      "lonmax": 4.971259913843439, 
      "latmin": 51.250961720801946
    }, 
    {
      "latmax": 51.258372337937864, 
      "name": "Grune Weg", 
      "lonmin": 5.008812906585206, 
      "sanName": "gruneweg", 
      "numOfAddr": 1, 
      "lonmax": 5.008812906585206, 
      "latmin": 51.258372337937864
    }, 
    {
      "latmax": 51.274742040346524, 
      "name": "Haagscheuten", 
      "lonmin": 4.977752335598619, 
      "sanName": "haagscheuten", 
      "numOfAddr": 7, 
      "lonmax": 4.990028782553779, 
      "latmin": 51.263679181210634
    }, 
    {
      "latmax": 51.25207660025306, 
      "name": "Haverland", 
      "lonmin": 4.90229537572841, 
      "sanName": "haverland", 
      "numOfAddr": 33, 
      "lonmax": 4.9042437989599525, 
      "latmin": 51.250051169900644
    }, 
    {
      "latmax": 51.27534619377116, 
      "name": "Hazendonk", 
      "lonmin": 4.957061781680952, 
      "sanName": "hazendonk", 
      "numOfAddr": 5, 
      "lonmax": 4.962995148011899, 
      "latmin": 51.2681969174026
    }, 
    {
      "latmax": 51.245905628644174, 
      "name": "Heesakkers", 
      "lonmin": 4.971357848902262, 
      "sanName": "heesakkers", 
      "numOfAddr": 27, 
      "lonmax": 4.974288115667894, 
      "latmin": 51.243391503964936
    }, 
    {
      "latmax": 51.230995449928834, 
      "name": "Heiblok", 
      "lonmin": 4.967144642684106, 
      "sanName": "heiblok", 
      "numOfAddr": 35, 
      "lonmax": 4.970483148603217, 
      "latmin": 51.228933930205145
    }, 
    {
      "latmax": 51.213516175018405, 
      "name": "Heidestraat", 
      "lonmin": 4.902576469243393, 
      "sanName": "heidestraat", 
      "numOfAddr": 37, 
      "lonmax": 4.9212578018049555, 
      "latmin": 51.2068777938014
    }, 
    {
      "latmax": 51.21014539236524, 
      "name": "Heidriesstraat", 
      "lonmin": 4.918646388229714, 
      "sanName": "heidriesstraat", 
      "numOfAddr": 2, 
      "lonmax": 4.919689359646503, 
      "latmin": 51.20761938607504
    }, 
    {
      "latmax": 51.250938236205855, 
      "name": "Heipad", 
      "lonmin": 4.900367143031088, 
      "sanName": "heipad", 
      "numOfAddr": 2, 
      "lonmax": 4.900724772522184, 
      "latmin": 51.2508766565236
    }, 
    {
      "latmax": 51.24894604971662, 
      "name": "Hellebos", 
      "lonmin": 4.99341280771512, 
      "sanName": "hellebos", 
      "numOfAddr": 3, 
      "lonmax": 4.99453560838891, 
      "latmin": 51.24857815380737
    }, 
    {
      "latmax": 51.242383994223836, 
      "name": "Hemelrijk", 
      "lonmin": 4.871455933265277, 
      "sanName": "hemelrijk", 
      "numOfAddr": 2, 
      "lonmax": 4.872415012505169, 
      "latmin": 51.24145084673899
    }, 
    {
      "latmax": 51.2239320891899, 
      "name": "Herentalsesteenweg", 
      "lonmin": 4.886493501888479, 
      "sanName": "herentalsesteenweg", 
      "numOfAddr": 86, 
      "lonmax": 4.913285911829732, 
      "latmin": 51.20637667111166
    }, 
    {
      "latmax": 51.26827581852441, 
      "name": "Hesstraat", 
      "lonmin": 4.962422027553255, 
      "sanName": "hesstraat", 
      "numOfAddr": 3, 
      "lonmax": 4.964077409783737, 
      "latmin": 51.26751625971947
    }, 
    {
      "latmax": 51.25690635663125, 
      "name": "Heultjens", 
      "lonmin": 5.000212436494188, 
      "sanName": "heultjens", 
      "numOfAddr": 1, 
      "lonmax": 5.000212436494188, 
      "latmin": 51.25690635663125
    }, 
    {
      "latmax": 51.25227234307747, 
      "name": "Heynsbergstraat", 
      "lonmin": 4.903226742562284, 
      "sanName": "heynsbergstraat", 
      "numOfAddr": 25, 
      "lonmax": 4.906385612849864, 
      "latmin": 51.249752729870025
    }, 
    {
      "latmax": 51.22899345666507, 
      "name": "Hinghoeven", 
      "lonmin": 4.973989306850527, 
      "sanName": "hinghoeven", 
      "numOfAddr": 9, 
      "lonmax": 4.975570352647142, 
      "latmin": 51.22791525306654
    }, 
    {
      "latmax": 51.230888687972694, 
      "name": "Hinnekensbergen", 
      "lonmin": 4.98082045301938, 
      "sanName": "hinnekensbergen", 
      "numOfAddr": 5, 
      "lonmax": 4.98753896367683, 
      "latmin": 51.226266932388214
    }, 
    {
      "latmax": 51.22963225187897, 
      "name": "Hoebenschot", 
      "lonmin": 4.893304698005569, 
      "sanName": "hoebenschot", 
      "numOfAddr": 24, 
      "lonmax": 4.902324195362439, 
      "latmin": 51.22660278160943
    }, 
    {
      "latmax": 51.24347262094386, 
      "name": "Hoek", 
      "lonmin": 4.878015258621566, 
      "sanName": "hoek", 
      "numOfAddr": 38, 
      "lonmax": 4.889783485392179, 
      "latmin": 51.238026498813376
    }, 
    {
      "latmax": 51.2687452661822, 
      "name": "Hoeven", 
      "lonmin": 5.017036296136034, 
      "sanName": "hoeven", 
      "numOfAddr": 19, 
      "lonmax": 5.025639414487528, 
      "latmin": 51.25655757912161
    }, 
    {
      "latmax": 51.22674178317233, 
      "name": "Hoevestraat", 
      "lonmin": 4.919890687905348, 
      "sanName": "hoevestraat", 
      "numOfAddr": 15, 
      "lonmax": 4.920621626172513, 
      "latmin": 51.22545163028354
    }, 
    {
      "latmax": 51.25030999961949, 
      "name": "Hofdreef", 
      "lonmin": 4.894310737185023, 
      "sanName": "hofdreef", 
      "numOfAddr": 53, 
      "lonmax": 4.90186372127425, 
      "latmin": 51.24432615175958
    }, 
    {
      "latmax": 51.24620082949482, 
      "name": "Hofstraat", 
      "lonmin": 4.966455936659, 
      "sanName": "hofstraat", 
      "numOfAddr": 61, 
      "lonmax": 4.975589307524266, 
      "latmin": 51.2430739058472
    }, 
    {
      "latmax": 51.20606071148095, 
      "name": "Hof ter Heidedreef", 
      "lonmin": 4.895516014693323, 
      "sanName": "hofterheidedreef", 
      "numOfAddr": 4, 
      "lonmax": 4.896109878078383, 
      "latmin": 51.2054825156256
    }, 
    {
      "latmax": 51.24330395256778, 
      "name": "Hof van Loostraat", 
      "lonmin": 4.989172431796632, 
      "sanName": "hofvanloostraat", 
      "numOfAddr": 3, 
      "lonmax": 4.991580555315587, 
      "latmin": 51.241663354019664
    }, 
    {
      "latmax": 51.21486776727084, 
      "name": "Hoge Bergweg", 
      "lonmin": 4.903201451688999, 
      "sanName": "hogebergweg", 
      "numOfAddr": 3, 
      "lonmax": 4.906141042738241, 
      "latmin": 51.21406935619918
    }, 
    {
      "latmax": 51.21392404786363, 
      "name": "Hogenberg heiken", 
      "lonmin": 4.901312237185159, 
      "sanName": "hogenbergheiken", 
      "numOfAddr": 7, 
      "lonmax": 4.906941667099462, 
      "latmin": 51.21187149008016
    }, 
    {
      "latmax": 51.248215051536896, 
      "name": "Hoge Rielen", 
      "lonmin": 4.928070796079572, 
      "sanName": "hogerielen", 
      "numOfAddr": 33, 
      "lonmax": 4.947734043239, 
      "latmin": 51.24633204493628
    }, 
    {
      "latmax": 51.227735930839934, 
      "name": "Hoge Weg", 
      "lonmin": 4.945751499572136, 
      "sanName": "hogeweg", 
      "numOfAddr": 2, 
      "lonmax": 4.9463125720826, 
      "latmin": 51.22751952874431
    }, 
    {
      "latmax": 51.23220028241791, 
      "name": "Holle weg", 
      "lonmin": 4.941676318614771, 
      "sanName": "holleweg", 
      "numOfAddr": 7, 
      "lonmax": 4.94975863481144, 
      "latmin": 51.226634145199334
    }, 
    {
      "latmax": 51.24298533183581, 
      "name": "Hoogblok", 
      "lonmin": 4.995215905945848, 
      "sanName": "hoogblok", 
      "numOfAddr": 20, 
      "lonmax": 5.000369280792116, 
      "latmin": 51.24231918347267
    }, 
    {
      "latmax": 51.23906059728044, 
      "name": "Hoogland", 
      "lonmin": 4.9782356431159, 
      "sanName": "hoogland", 
      "numOfAddr": 32, 
      "lonmax": 4.98010701374424, 
      "latmin": 51.23762334212578
    }, 
    {
      "latmax": 51.229757828286225, 
      "name": "Hoogstraat", 
      "lonmin": 4.922631980056291, 
      "sanName": "hoogstraat", 
      "numOfAddr": 51, 
      "lonmax": 4.930914716469681, 
      "latmin": 51.22827033603107
    }, 
    {
      "latmax": 51.25386846472943, 
      "name": "Hortensiadreef", 
      "lonmin": 4.966772280000792, 
      "sanName": "hortensiadreef", 
      "numOfAddr": 9, 
      "lonmax": 4.968952838272791, 
      "latmin": 51.25211248421006
    }, 
    {
      "latmax": 51.236851428679856, 
      "name": "Houtum", 
      "lonmin": 4.975036628407706, 
      "sanName": "houtum", 
      "numOfAddr": 48, 
      "lonmax": 4.980802831976996, 
      "latmin": 51.227408465390425
    }, 
    {
      "latmax": 51.22092555816881, 
      "name": "Hukkelbergseweg", 
      "lonmin": 4.933828100309954, 
      "sanName": "hukkelbergseweg", 
      "numOfAddr": 24, 
      "lonmax": 4.938789067179453, 
      "latmin": 51.21780097200825
    }, 
    {
      "latmax": 51.24894491811594, 
      "name": "Hulst", 
      "lonmin": 4.966342258263173, 
      "sanName": "hulst", 
      "numOfAddr": 24, 
      "lonmax": 4.970639241702507, 
      "latmin": 51.24771448516173
    }, 
    {
      "latmax": 51.25157876996178, 
      "name": "Isschot", 
      "lonmin": 4.980631110874495, 
      "sanName": "isschot", 
      "numOfAddr": 31, 
      "lonmax": 4.990528708440714, 
      "latmin": 51.24791941664711
    }, 
    {
      "latmax": 51.23284768546671, 
      "name": "Kabouterstraat", 
      "lonmin": 4.966326009642337, 
      "sanName": "kabouterstraat", 
      "numOfAddr": 21, 
      "lonmax": 4.971102383886551, 
      "latmin": 51.23077732107136
    }, 
    {
      "latmax": 51.24642899814412, 
      "name": "Kaliebaan", 
      "lonmin": 4.90824371183653, 
      "sanName": "kaliebaan", 
      "numOfAddr": 13, 
      "lonmax": 4.912156357122895, 
      "latmin": 51.245129423583606
    }, 
    {
      "latmax": 51.229895022239056, 
      "name": "Kapelhof", 
      "lonmin": 4.902744317256584, 
      "sanName": "kapelhof", 
      "numOfAddr": 63, 
      "lonmax": 4.905010853751258, 
      "latmin": 51.22469617455064
    }, 
    {
      "latmax": 51.243363906875324, 
      "name": "Kapelstraat", 
      "lonmin": 4.95909431037836, 
      "sanName": "kapelstraat", 
      "numOfAddr": 26, 
      "lonmax": 4.964986059235867, 
      "latmin": 51.24087786633574
    }, 
    {
      "latmax": 51.24382117568719, 
      "name": "Karekietstraat", 
      "lonmin": 4.968593644823826, 
      "sanName": "karekietstraat", 
      "numOfAddr": 41, 
      "lonmax": 4.972405221767643, 
      "latmin": 51.242088303790105
    }, 
    {
      "latmax": 51.21724518505633, 
      "name": "Kastanjelaan", 
      "lonmin": 4.909087052732256, 
      "sanName": "kastanjelaan", 
      "numOfAddr": 25, 
      "lonmax": 4.918203223991774, 
      "latmin": 51.21557939458749
    }, 
    {
      "latmax": 51.247098739089715, 
      "name": "Kasteeldreef", 
      "lonmin": 4.893482524624447, 
      "sanName": "kasteeldreef", 
      "numOfAddr": 18, 
      "lonmax": 4.895637176946071, 
      "latmin": 51.245047978178334
    }, 
    {
      "latmax": 51.23086705164341, 
      "name": "Kasterleesteenweg", 
      "lonmin": 4.924924212032398, 
      "sanName": "kasterleesteenweg", 
      "numOfAddr": 68, 
      "lonmax": 4.937387504889734, 
      "latmin": 51.225570619358315
    }, 
    {
      "latmax": 51.258867804443184, 
      "name": "Kattenberg", 
      "lonmin": 4.964384863489887, 
      "sanName": "kattenberg", 
      "numOfAddr": 82, 
      "lonmax": 4.967372692324256, 
      "latmin": 51.242055764373006
    }, 
    {
      "latmax": 51.22313444450159, 
      "name": "Kattenhagenstraat", 
      "lonmin": 4.905014907764468, 
      "sanName": "kattenhagenstraat", 
      "numOfAddr": 13, 
      "lonmax": 4.911122985867002, 
      "latmin": 51.21961650928425
    }, 
    {
      "latmax": 51.24281655468678, 
      "name": "Kauwelsbergen", 
      "lonmin": 5.004865992677809, 
      "sanName": "kauwelsbergen", 
      "numOfAddr": 3, 
      "lonmax": 5.0055595911472315, 
      "latmin": 51.242379085012686
    }, 
    {
      "latmax": 51.247083728172896, 
      "name": "Kazernestraat", 
      "lonmin": 4.9091324656743005, 
      "sanName": "kazernestraat", 
      "numOfAddr": 3, 
      "lonmax": 4.909692175949549, 
      "latmin": 51.246770756903516
    }, 
    {
      "latmax": 51.2387263933978, 
      "name": "Kempenstraat", 
      "lonmin": 4.957937621013617, 
      "sanName": "kempenstraat", 
      "numOfAddr": 42, 
      "lonmax": 4.964351493765436, 
      "latmin": 51.23410571741335
    }, 
    {
      "latmax": 51.23590374881907, 
      "name": "Kerkendijk", 
      "lonmin": 4.971557704225842, 
      "sanName": "kerkendijk", 
      "numOfAddr": 4, 
      "lonmax": 4.971962211459021, 
      "latmin": 51.23525964187341
    }, 
    {
      "latmax": 51.2424667562456, 
      "name": "Kerkenheide", 
      "lonmin": 4.958586778996954, 
      "sanName": "kerkenheide", 
      "numOfAddr": 33, 
      "lonmax": 4.961296851685111, 
      "latmin": 51.23987574424276
    }, 
    {
      "latmax": 51.250621703268884, 
      "name": "Kerkstraat", 
      "lonmin": 4.898636026815756, 
      "sanName": "kerkstraat", 
      "numOfAddr": 130, 
      "lonmax": 4.910312119765188, 
      "latmin": 51.24133015459339
    }, 
    {
      "latmax": 51.20573913700904, 
      "name": "Kievitstraat", 
      "lonmin": 4.9093451720102985, 
      "sanName": "kievitstraat", 
      "numOfAddr": 6, 
      "lonmax": 4.910645930083112, 
      "latmin": 51.20435674961384
    }, 
    {
      "latmax": 51.24389690855796, 
      "name": "Klein Beeldekensplein", 
      "lonmin": 4.892503760625015, 
      "sanName": "kleinbeeldekensplein", 
      "numOfAddr": 16, 
      "lonmax": 4.893747206345325, 
      "latmin": 51.24306678219183
    }, 
    {
      "latmax": 51.24360963652912, 
      "name": "Klein Broek", 
      "lonmin": 4.903811026083479, 
      "sanName": "kleinbroek", 
      "numOfAddr": 29, 
      "lonmax": 4.907511708765475, 
      "latmin": 51.24058649122069
    }, 
    {
      "latmax": 51.26614804563277, 
      "name": "Kleine Winkel", 
      "lonmin": 4.931992461912364, 
      "sanName": "kleinewinkel", 
      "numOfAddr": 7, 
      "lonmax": 4.93903718588941, 
      "latmin": 51.26020045092645
    }, 
    {
      "latmax": 51.25434356671847, 
      "name": "Kleinheiken", 
      "lonmin": 4.893754389895043, 
      "sanName": "kleinheiken", 
      "numOfAddr": 17, 
      "lonmax": 4.8964197753685665, 
      "latmin": 51.25287334884219
    }, 
    {
      "latmax": 51.26168989089288, 
      "name": "Klein Hoeven", 
      "lonmin": 5.027902034968412, 
      "sanName": "kleinhoeven", 
      "numOfAddr": 6, 
      "lonmax": 5.029829523922123, 
      "latmin": 51.26065716041971
    }, 
    {
      "latmax": 51.2291963711636, 
      "name": "Klein Plaats", 
      "lonmin": 4.921031648145875, 
      "sanName": "kleinplaats", 
      "numOfAddr": 17, 
      "lonmax": 4.923028245715384, 
      "latmin": 51.22729364797537
    }, 
    {
      "latmax": 51.27027122007369, 
      "name": "Kleinrees", 
      "lonmin": 4.960174229477656, 
      "sanName": "kleinrees", 
      "numOfAddr": 24, 
      "lonmax": 4.965791725594461, 
      "latmin": 51.2656764874303
    }, 
    {
      "latmax": 51.22434979348461, 
      "name": "Kloosterstraat", 
      "lonmin": 4.92110642121072, 
      "sanName": "kloosterstraat", 
      "numOfAddr": 59, 
      "lonmax": 4.925250420109063, 
      "latmin": 51.218086942049545
    }, 
    {
      "latmax": 51.26757705349099, 
      "name": "Kluis", 
      "lonmin": 4.988010696407673, 
      "sanName": "kluis", 
      "numOfAddr": 28, 
      "lonmax": 4.9940200624426785, 
      "latmin": 51.251888619101706
    }, 
    {
      "latmax": 51.26011052838722, 
      "name": "Kluisberg", 
      "lonmin": 4.9891078360973315, 
      "sanName": "kluisberg", 
      "numOfAddr": 1, 
      "lonmax": 4.9891078360973315, 
      "latmin": 51.26011052838722
    }, 
    {
      "latmax": 51.26415307330509, 
      "name": "Kluizemans", 
      "lonmin": 4.931856067160109, 
      "sanName": "kluizemans", 
      "numOfAddr": 3, 
      "lonmax": 4.933370462562953, 
      "latmin": 51.26271551023753
    }, 
    {
      "latmax": 51.22278923501186, 
      "name": "Koboweg", 
      "lonmin": 4.879152306409784, 
      "sanName": "koboweg", 
      "numOfAddr": 1, 
      "lonmax": 4.879152306409784, 
      "latmin": 51.22278923501186
    }, 
    {
      "latmax": 51.20516080767451, 
      "name": "Koekoekstraat", 
      "lonmin": 4.9030651787619055, 
      "sanName": "koekoekstraat", 
      "numOfAddr": 11, 
      "lonmax": 4.904311639583872, 
      "latmin": 51.2020020598799
    }, 
    {
      "latmax": 51.22830155736369, 
      "name": "Koningsbos", 
      "lonmin": 4.938498875526747, 
      "sanName": "koningsbos", 
      "numOfAddr": 2, 
      "lonmax": 4.945770899454962, 
      "latmin": 51.22818086327746
    }, 
    {
      "latmax": 51.226320399874034, 
      "name": "Koningshof", 
      "lonmin": 4.948651433751513, 
      "sanName": "koningshof", 
      "numOfAddr": 18, 
      "lonmax": 4.950499735019899, 
      "latmin": 51.222273012570604
    }, 
    {
      "latmax": 51.22962883424036, 
      "name": "Korenbloemlaan", 
      "lonmin": 4.907791356721581, 
      "sanName": "korenbloemlaan", 
      "numOfAddr": 33, 
      "lonmax": 4.91448286007686, 
      "latmin": 51.227410219701746
    }, 
    {
      "latmax": 51.243327294162285, 
      "name": "Korte Kapelstraat", 
      "lonmin": 4.962530645427035, 
      "sanName": "kortekapelstraat", 
      "numOfAddr": 13, 
      "lonmax": 4.964074089094692, 
      "latmin": 51.242480643163745
    }, 
    {
      "latmax": 51.27388833000164, 
      "name": "Kraanschot", 
      "lonmin": 4.898881693111065, 
      "sanName": "kraanschot", 
      "numOfAddr": 9, 
      "lonmax": 4.905691486152465, 
      "latmin": 51.26706816580532
    }, 
    {
      "latmax": 51.229605522363784, 
      "name": "Krokuslaan", 
      "lonmin": 4.9031963991139005, 
      "sanName": "krokuslaan", 
      "numOfAddr": 94, 
      "lonmax": 4.90928868871825, 
      "latmin": 51.226622854178544
    }, 
    {
      "latmax": 51.242398197703544, 
      "name": "Krombrakenstraat", 
      "lonmin": 4.987806245077159, 
      "sanName": "krombrakenstraat", 
      "numOfAddr": 14, 
      "lonmax": 4.992198508392613, 
      "latmin": 51.24071173268055
    }, 
    {
      "latmax": 51.258072360151424, 
      "name": "Lage Rielen", 
      "lonmin": 4.935597513433334, 
      "sanName": "lagerielen", 
      "numOfAddr": 42, 
      "lonmax": 4.949824647315083, 
      "latmin": 51.2539655882119
    }, 
    {
      "latmax": 51.228210319994446, 
      "name": "Lamstraat", 
      "lonmin": 4.915106479033193, 
      "sanName": "lamstraat", 
      "numOfAddr": 10, 
      "lonmax": 4.917697284599211, 
      "latmin": 51.22738621209843
    }, 
    {
      "latmax": 51.24034950533604, 
      "name": "Landekes", 
      "lonmin": 4.878182618843685, 
      "sanName": "landekes", 
      "numOfAddr": 10, 
      "lonmax": 4.883228901891115, 
      "latmin": 51.23848211745479
    }, 
    {
      "latmax": 51.24299371833443, 
      "name": "Landerij", 
      "lonmin": 4.906820543140182, 
      "sanName": "landerij", 
      "numOfAddr": 5, 
      "lonmax": 4.907697645568624, 
      "latmin": 51.242348477547374
    }, 
    {
      "latmax": 51.221176872831826, 
      "name": "Langen Aart", 
      "lonmin": 4.970686564801842, 
      "sanName": "langenaart", 
      "numOfAddr": 2, 
      "lonmax": 4.973832958983812, 
      "latmin": 51.21825877434745
    }, 
    {
      "latmax": 51.21597994025762, 
      "name": "Langenberg", 
      "lonmin": 4.926233616870989, 
      "sanName": "langenberg", 
      "numOfAddr": 12, 
      "lonmax": 4.935131626774529, 
      "latmin": 51.21073209575422
    }, 
    {
      "latmax": 51.24639082293983, 
      "name": "Langendries", 
      "lonmin": 4.901936470411047, 
      "sanName": "langendries", 
      "numOfAddr": 20, 
      "lonmax": 4.904574832336416, 
      "latmin": 51.24532773230648
    }, 
    {
      "latmax": 51.21611709248691, 
      "name": "Larikslaan", 
      "lonmin": 4.908986060928372, 
      "sanName": "larikslaan", 
      "numOfAddr": 16, 
      "lonmax": 4.911234345491891, 
      "latmin": 51.214447718953345
    }, 
    {
      "latmax": 51.248797262157986, 
      "name": "Laurierstraat", 
      "lonmin": 4.899672154012328, 
      "sanName": "laurierstraat", 
      "numOfAddr": 22, 
      "lonmax": 4.9020038451477905, 
      "latmin": 51.246975596351916
    }, 
    {
      "latmax": 51.236595282104574, 
      "name": "Leempoelen", 
      "lonmin": 4.983412442531501, 
      "sanName": "leempoelen", 
      "numOfAddr": 1, 
      "lonmax": 4.983412442531501, 
      "latmin": 51.236595282104574
    }, 
    {
      "latmax": 51.22576075174804, 
      "name": "Leistraat", 
      "lonmin": 4.913401506212745, 
      "sanName": "leistraat", 
      "numOfAddr": 104, 
      "lonmax": 4.9244652513884954, 
      "latmin": 51.22356640471377
    }, 
    {
      "latmax": 51.22775263653776, 
      "name": "Lelielaan", 
      "lonmin": 4.910928609851539, 
      "sanName": "lelielaan", 
      "numOfAddr": 21, 
      "lonmax": 4.913158897182557, 
      "latmin": 51.226750221776044
    }, 
    {
      "latmax": 51.225367962946095, 
      "name": "Lentestraat", 
      "lonmin": 4.918920997487182, 
      "sanName": "lentestraat", 
      "numOfAddr": 9, 
      "lonmax": 4.920528828499259, 
      "latmin": 51.22519362977251
    }, 
    {
      "latmax": 51.239951886005535, 
      "name": "Lichtaartsebaan", 
      "lonmin": 4.94114045371394, 
      "sanName": "lichtaartsebaan", 
      "numOfAddr": 42, 
      "lonmax": 4.962244489319183, 
      "latmin": 51.234054174402026
    }, 
    {
      "latmax": 51.22563639824789, 
      "name": "Lievevrouwestraat", 
      "lonmin": 4.904730226734448, 
      "sanName": "lievevrouwestraat", 
      "numOfAddr": 11, 
      "lonmax": 4.907893509009537, 
      "latmin": 51.22420854073638
    }, 
    {
      "latmax": 51.24819295877069, 
      "name": "Liezendries", 
      "lonmin": 4.902796428759756, 
      "sanName": "liezendries", 
      "numOfAddr": 29, 
      "lonmax": 4.905762282668177, 
      "latmin": 51.24617006182013
    }, 
    {
      "latmax": 51.2785777308368, 
      "name": "Lijskens", 
      "lonmin": 4.975630134873194, 
      "sanName": "lijskens", 
      "numOfAddr": 2, 
      "lonmax": 4.979870038504449, 
      "latmin": 51.278125346835346
    }, 
    {
      "latmax": 51.23897596728009, 
      "name": "Lijsterstraat", 
      "lonmin": 4.961267387581164, 
      "sanName": "lijsterstraat", 
      "numOfAddr": 22, 
      "lonmax": 4.963645025984374, 
      "latmin": 51.2373295960929
    }, 
    {
      "latmax": 51.22088694419398, 
      "name": "Lindekes", 
      "lonmin": 4.947844617309098, 
      "sanName": "lindekes", 
      "numOfAddr": 1, 
      "lonmax": 4.947844617309098, 
      "latmin": 51.22088694419398
    }, 
    {
      "latmax": 51.24820826394749, 
      "name": "Lindenlaan", 
      "lonmin": 4.97480946890281, 
      "sanName": "lindenlaan", 
      "numOfAddr": 78, 
      "lonmax": 4.979274190737988, 
      "latmin": 51.24439877684225
    }, 
    {
      "latmax": 51.2332419584157, 
      "name": "Lisseweg", 
      "lonmin": 4.888264404174224, 
      "sanName": "lisseweg", 
      "numOfAddr": 12, 
      "lonmax": 4.893267510760221, 
      "latmin": 51.22667454338445
    }, 
    {
      "latmax": 51.2498549865028, 
      "name": "Looiven", 
      "lonmin": 4.990481067022005, 
      "sanName": "looiven", 
      "numOfAddr": 31, 
      "lonmax": 4.9957363778493376, 
      "latmin": 51.24663716264309
    }, 
    {
      "latmax": 51.24186580263048, 
      "name": "Loopstraat", 
      "lonmin": 4.887393962467703, 
      "sanName": "loopstraat", 
      "numOfAddr": 39, 
      "lonmax": 4.891796108305736, 
      "latmin": 51.23984322171812
    }, 
    {
      "latmax": 51.25040723651088, 
      "name": "Loozijde", 
      "lonmin": 4.87928167039308, 
      "sanName": "loozijde", 
      "numOfAddr": 44, 
      "lonmax": 4.885759865269876, 
      "latmin": 51.243727471087155
    }, 
    {
      "latmax": 51.22145772054479, 
      "name": "Luciapad", 
      "lonmin": 4.925088096207182, 
      "sanName": "luciapad", 
      "numOfAddr": 3, 
      "lonmax": 4.925376076266869, 
      "latmin": 51.22131516950712
    }, 
    {
      "latmax": 51.2271807642523, 
      "name": "Margrietlaan", 
      "lonmin": 4.9057007960838295, 
      "sanName": "margrietlaan", 
      "numOfAddr": 15, 
      "lonmax": 4.906530807126885, 
      "latmin": 51.226629163320716
    }, 
    {
      "latmax": 51.24163633500171, 
      "name": "Markt", 
      "lonmin": 2.306689562140502, 
      "sanName": "markt", 
      "numOfAddr": 37, 
      "lonmax": 4.968953947911367, 
      "latmin": 49.293335165093566
    }, 
    {
      "latmax": 51.23065754064903, 
      "name": "Masereeldijk", 
      "lonmin": 4.966513882892151, 
      "sanName": "masereeldijk", 
      "numOfAddr": 4, 
      "lonmax": 4.969338442483543, 
      "latmin": 51.226651262813675
    }, 
    {
      "latmax": 51.239628139365365, 
      "name": "Mastenlaan", 
      "lonmin": 4.974862792301236, 
      "sanName": "mastenlaan", 
      "numOfAddr": 14, 
      "lonmax": 4.9760418486093165, 
      "latmin": 51.23822816840413
    }, 
    {
      "latmax": 51.26553887321183, 
      "name": "Mazel", 
      "lonmin": 4.889943584444639, 
      "sanName": "mazel", 
      "numOfAddr": 32, 
      "lonmax": 4.8973343943563625, 
      "latmin": 51.255152391309984
    }, 
    {
      "latmax": 51.250784676761796, 
      "name": "Meere Goor", 
      "lonmin": 4.966125668307236, 
      "sanName": "meeregoor", 
      "numOfAddr": 42, 
      "lonmax": 4.969406774370979, 
      "latmin": 51.24856848015238
    }, 
    {
      "latmax": 51.20391591779402, 
      "name": "Meeuwendreef", 
      "lonmin": 4.901625643364363, 
      "sanName": "meeuwendreef", 
      "numOfAddr": 1, 
      "lonmax": 4.901625643364363, 
      "latmin": 51.20391591779402
    }, 
    {
      "latmax": 51.22840602703475, 
      "name": "Meibloemlaan", 
      "lonmin": 4.904541905003916, 
      "sanName": "meibloemlaan", 
      "numOfAddr": 79, 
      "lonmax": 4.907978769941617, 
      "latmin": 51.226187579344135
    }, 
    {
      "latmax": 51.24465964345094, 
      "name": "Melkerijpad", 
      "lonmin": 4.892298459855957, 
      "sanName": "melkerijpad", 
      "numOfAddr": 13, 
      "lonmax": 4.894170811190414, 
      "latmin": 51.243749152738
    }, 
    {
      "latmax": 51.24082273937451, 
      "name": "Melkstraat", 
      "lonmin": 4.968566702500809, 
      "sanName": "melkstraat", 
      "numOfAddr": 33, 
      "lonmax": 4.971170126396347, 
      "latmin": 51.23929137890077
    }, 
    {
      "latmax": 51.24831912951138, 
      "name": "Merellaan", 
      "lonmin": 4.969624185061007, 
      "sanName": "merellaan", 
      "numOfAddr": 20, 
      "lonmax": 4.970859446449904, 
      "latmin": 51.24662567150542
    }, 
    {
      "latmax": 51.25523996031124, 
      "name": "Mertenhof", 
      "lonmin": 4.963326617241886, 
      "sanName": "mertenhof", 
      "numOfAddr": 7, 
      "lonmax": 4.964458453601873, 
      "latmin": 51.25365595770826
    }, 
    {
      "latmax": 51.20849507106021, 
      "name": "Mezenstraat", 
      "lonmin": 4.9029878092248875, 
      "sanName": "mezenstraat", 
      "numOfAddr": 14, 
      "lonmax": 4.9117573978048155, 
      "latmin": 51.20512637801005
    }, 
    {
      "latmax": 51.23977452826763, 
      "name": "Mgr. Cardijnstraat", 
      "lonmin": 4.962992621954578, 
      "sanName": "mgrcardijnstraat", 
      "numOfAddr": 25, 
      "lonmax": 4.967306817753638, 
      "latmin": 51.239276487596534
    }, 
    {
      "latmax": 51.24013583091174, 
      "name": "Mgr. Heylenstraat", 
      "lonmin": 4.961728799592155, 
      "sanName": "mgrheylenstraat", 
      "numOfAddr": 45, 
      "lonmax": 4.966207508917533, 
      "latmin": 51.23555297969805
    }, 
    {
      "latmax": 51.2477185900189, 
      "name": "Mgr. Miertsstraat", 
      "lonmin": 4.969748932514208, 
      "sanName": "mgrmiertsstraat", 
      "numOfAddr": 103, 
      "lonmax": 4.980329733108916, 
      "latmin": 51.241309008423016
    }, 
    {
      "latmax": 51.25087627690921, 
      "name": "Molenberg", 
      "lonmin": 4.903958400916896, 
      "sanName": "molenberg", 
      "numOfAddr": 47, 
      "lonmax": 4.90932651793015, 
      "latmin": 51.246721584821415
    }, 
    {
      "latmax": 51.222386419901454, 
      "name": "Molenspoor", 
      "lonmin": 4.9162171477979255, 
      "sanName": "molenspoor", 
      "numOfAddr": 36, 
      "lonmax": 4.917196627701497, 
      "latmin": 51.218964596780296
    }, 
    {
      "latmax": 51.24359117635778, 
      "name": "Molenstraat", 
      "lonmin": 4.914660261953783, 
      "sanName": "molenstraat", 
      "numOfAddr": 81, 
      "lonmax": 4.924771262417513, 
      "latmin": 51.228035836336424
    }, 
    {
      "latmax": 51.227044623584355, 
      "name": "Molheide", 
      "lonmin": 4.95608982427848, 
      "sanName": "molheide", 
      "numOfAddr": 1, 
      "lonmax": 4.95608982427848, 
      "latmin": 51.227044623584355
    }, 
    {
      "latmax": 51.270891106014055, 
      "name": "Mosten", 
      "lonmin": 4.9752672122972035, 
      "sanName": "mosten", 
      "numOfAddr": 5, 
      "lonmax": 4.978239991752866, 
      "latmin": 51.265437764242435
    }, 
    {
      "latmax": 51.23865385516952, 
      "name": "Nachtegaalstraat", 
      "lonmin": 4.96530250394228, 
      "sanName": "nachtegaalstraat", 
      "numOfAddr": 25, 
      "lonmax": 4.968169416428544, 
      "latmin": 51.23739282254262
    }, 
    {
      "latmax": 51.2281929897631, 
      "name": "Narcislaan", 
      "lonmin": 4.909879058957969, 
      "sanName": "narcislaan", 
      "numOfAddr": 14, 
      "lonmax": 4.911247987818427, 
      "latmin": 51.22635963499867
    }, 
    {
      "latmax": 51.24418016308509, 
      "name": "Neerzijde", 
      "lonmin": 4.993738797406705, 
      "sanName": "neerzijde", 
      "numOfAddr": 14, 
      "lonmax": 4.996360678229879, 
      "latmin": 51.24138623789408
    }, 
    {
      "latmax": 51.23707440473513, 
      "name": "Netestraat", 
      "lonmin": 4.977470878268254, 
      "sanName": "netestraat", 
      "numOfAddr": 9, 
      "lonmax": 4.978280519860995, 
      "latmin": 51.23584075787841
    }, 
    {
      "latmax": 51.245868728408986, 
      "name": "Nieuwstraat", 
      "lonmin": 4.897048130455916, 
      "sanName": "nieuwstraat", 
      "numOfAddr": 39, 
      "lonmax": 4.899454871574719, 
      "latmin": 51.243164232930816
    }, 
    {
      "latmax": 51.20864168116249, 
      "name": "Olensteenweg", 
      "lonmin": 4.900765023427478, 
      "sanName": "olensteenweg", 
      "numOfAddr": 34, 
      "lonmax": 4.906918563174558, 
      "latmin": 51.19889362647543
    }, 
    {
      "latmax": 51.2161484047541, 
      "name": "Olmenlaan", 
      "lonmin": 4.907846773824275, 
      "sanName": "olmenlaan", 
      "numOfAddr": 46, 
      "lonmax": 4.915426456070668, 
      "latmin": 51.213122965505306
    }, 
    {
      "latmax": 51.24142799455589, 
      "name": "Oostbergen", 
      "lonmin": 4.972484852489556, 
      "sanName": "oostbergen", 
      "numOfAddr": 51, 
      "lonmax": 4.982552605276831, 
      "latmin": 51.24022542132547
    }, 
    {
      "latmax": 51.240334645082065, 
      "name": "Oosteneind", 
      "lonmin": 4.981469456487484, 
      "sanName": "oosteneind", 
      "numOfAddr": 25, 
      "lonmax": 4.988693723150607, 
      "latmin": 51.23699803848966
    }, 
    {
      "latmax": 51.22223446923317, 
      "name": "Oosthukkel", 
      "lonmin": 4.936447176495083, 
      "sanName": "oosthukkel", 
      "numOfAddr": 23, 
      "lonmax": 4.941403987699505, 
      "latmin": 51.22056622106255
    }, 
    {
      "latmax": 51.24520863786731, 
      "name": "Opstal", 
      "lonmin": 4.901876453421107, 
      "sanName": "opstal", 
      "numOfAddr": 24, 
      "lonmax": 4.9056232687937085, 
      "latmin": 51.243147365077434
    }, 
    {
      "latmax": 51.241711197132986, 
      "name": "Ortolaanstraat", 
      "lonmin": 4.989953348472651, 
      "sanName": "ortolaanstraat", 
      "numOfAddr": 6, 
      "lonmax": 4.991191835227032, 
      "latmin": 51.240933054750805
    }, 
    {
      "latmax": 51.238899230208084, 
      "name": "Ossengoor", 
      "lonmin": 4.952487351999763, 
      "sanName": "ossengoor", 
      "numOfAddr": 7, 
      "lonmax": 4.953633997008993, 
      "latmin": 51.237582727201136
    }, 
    {
      "latmax": 51.2536460809166, 
      "name": "Otterschalen", 
      "lonmin": 4.973594746429648, 
      "sanName": "otterschalen", 
      "numOfAddr": 2, 
      "lonmax": 4.975279963600494, 
      "latmin": 51.251032391265895
    }, 
    {
      "latmax": 51.24747460498402, 
      "name": "Oude Melkerij", 
      "lonmin": 4.964805666282154, 
      "sanName": "oudemelkerij", 
      "numOfAddr": 5, 
      "lonmax": 4.9659555845417955, 
      "latmin": 51.24696976476685
    }, 
    {
      "latmax": 51.24799091439168, 
      "name": "Paradijsstraat", 
      "lonmin": 4.887980837740928, 
      "sanName": "paradijsstraat", 
      "numOfAddr": 8, 
      "lonmax": 4.889193906067648, 
      "latmin": 51.2474843395642
    }, 
    {
      "latmax": 51.22417830653716, 
      "name": "Pastoor Dergentstraat", 
      "lonmin": 4.92531955929628, 
      "sanName": "pastoordergentstraat", 
      "numOfAddr": 2, 
      "lonmax": 4.927146973128921, 
      "latmin": 51.22365310374963
    }, 
    {
      "latmax": 51.24065825718935, 
      "name": "Pastorijstraat", 
      "lonmin": 4.9572770057417435, 
      "sanName": "pastorijstraat", 
      "numOfAddr": 52, 
      "lonmax": 4.965593645737219, 
      "latmin": 51.23826848418799
    }, 
    {
      "latmax": 51.2364420695679, 
      "name": "Pater Damiaanstraat", 
      "lonmin": 4.962913718724747, 
      "sanName": "paterdamiaanstraat", 
      "numOfAddr": 42, 
      "lonmax": 4.972042936680103, 
      "latmin": 51.23018781978245
    }, 
    {
      "latmax": 51.24446360639048, 
      "name": "Pellemanstraat", 
      "lonmin": 4.955881612412464, 
      "sanName": "pellemanstraat", 
      "numOfAddr": 72, 
      "lonmax": 4.964761079957949, 
      "latmin": 51.242092002843506
    }, 
    {
      "latmax": 51.24807438311408, 
      "name": "Pittersbos", 
      "lonmin": 5.003343825921035, 
      "sanName": "pittersbos", 
      "numOfAddr": 11, 
      "lonmax": 5.004598208350377, 
      "latmin": 51.24689987249301
    }, 
    {
      "latmax": 51.228006751666356, 
      "name": "Plaats", 
      "lonmin": 4.9157238675640595, 
      "sanName": "plaats", 
      "numOfAddr": 53, 
      "lonmax": 4.9240671857614675, 
      "latmin": 51.22584564931711
    }, 
    {
      "latmax": 51.252961241601795, 
      "name": "Pleintje", 
      "lonmin": 4.896681674361573, 
      "sanName": "pleintje", 
      "numOfAddr": 37, 
      "lonmax": 4.902832884640232, 
      "latmin": 51.24891871107775
    }, 
    {
      "latmax": 51.226659877875, 
      "name": "Poederleesteenweg", 
      "lonmin": 4.873907810796028, 
      "sanName": "poederleesteenweg", 
      "numOfAddr": 143, 
      "lonmax": 4.913379447949876, 
      "latmin": 51.22324539699951
    }, 
    {
      "latmax": 51.22214411700799, 
      "name": "Poeleweg", 
      "lonmin": 4.917333169204877, 
      "sanName": "poeleweg", 
      "numOfAddr": 42, 
      "lonmax": 4.92028550021242, 
      "latmin": 51.21956106417542
    }, 
    {
      "latmax": 51.23009872352526, 
      "name": "Polderken", 
      "lonmin": 4.97026657865162, 
      "sanName": "polderken", 
      "numOfAddr": 23, 
      "lonmax": 4.971583381094988, 
      "latmin": 51.22836274430718
    }, 
    {
      "latmax": 51.258178219133214, 
      "name": "Populierenlaan", 
      "lonmin": 4.964171725555802, 
      "sanName": "populierenlaan", 
      "numOfAddr": 19, 
      "lonmax": 4.966632174614979, 
      "latmin": 51.25522864604403
    }, 
    {
      "latmax": 51.256242987713925, 
      "name": "Prijstraat", 
      "lonmin": 4.886088964317583, 
      "sanName": "prijstraat", 
      "numOfAddr": 43, 
      "lonmax": 4.898762513831406, 
      "latmin": 51.2508968926656
    }, 
    {
      "latmax": 51.22766935684467, 
      "name": "Reffenakkers", 
      "lonmin": 4.927422328595412, 
      "sanName": "reffenakkers", 
      "numOfAddr": 2, 
      "lonmax": 4.927742502879014, 
      "latmin": 51.22722236603348
    }, 
    {
      "latmax": 51.255541725512806, 
      "name": "Retiesebaan", 
      "lonmin": 4.969051805008242, 
      "sanName": "retiesebaan", 
      "numOfAddr": 207, 
      "lonmax": 5.028918170939987, 
      "latmin": 51.24051534971055
    }, 
    {
      "latmax": 51.25376383111297, 
      "name": "Reties heike", 
      "lonmin": 5.011685343785166, 
      "sanName": "retiesheike", 
      "numOfAddr": 6, 
      "lonmax": 5.016385030941501, 
      "latmin": 51.24981200180785
    }, 
    {
      "latmax": 51.254434200825926, 
      "name": "Rielenven", 
      "lonmin": 4.952557551061066, 
      "sanName": "rielenven", 
      "numOfAddr": 1, 
      "lonmax": 4.952557551061066, 
      "latmin": 51.254434200825926
    }, 
    {
      "latmax": 51.24873099582867, 
      "name": "Rielenweg", 
      "lonmin": 4.937166856940132, 
      "sanName": "rielenweg", 
      "numOfAddr": 6, 
      "lonmax": 4.940484451624272, 
      "latmin": 51.24787334033573
    }, 
    {
      "latmax": 51.24529497215277, 
      "name": "Rietakkers", 
      "lonmin": 4.8913664407851885, 
      "sanName": "rietakkers", 
      "numOfAddr": 4, 
      "lonmax": 4.892401048046105, 
      "latmin": 51.245045965005005
    }, 
    {
      "latmax": 51.25667069387026, 
      "name": "Robbenwijk", 
      "lonmin": 4.904271008930623, 
      "sanName": "robbenwijk", 
      "numOfAddr": 5, 
      "lonmax": 4.90560510868278, 
      "latmin": 51.25573322465168
    }, 
    {
      "latmax": 51.246588914074145, 
      "name": "Rode Akkers", 
      "lonmin": 4.991405532585747, 
      "sanName": "rodeakkers", 
      "numOfAddr": 5, 
      "lonmax": 4.993440338632176, 
      "latmin": 51.24550783561445
    }, 
    {
      "latmax": 51.250839081527886, 
      "name": "Rode loop", 
      "lonmin": 4.99707073342837, 
      "sanName": "rodeloop", 
      "numOfAddr": 1, 
      "lonmax": 4.99707073342837, 
      "latmin": 51.250839081527886
    }, 
    {
      "latmax": 51.24650248175408, 
      "name": "Rozenwijk", 
      "lonmin": 4.88375048335896, 
      "sanName": "rozenwijk", 
      "numOfAddr": 68, 
      "lonmax": 4.886858202313633, 
      "latmin": 51.24519411562581
    }, 
    {
      "latmax": 51.24143977587767, 
      "name": "Rulakker", 
      "lonmin": 4.957205542531335, 
      "sanName": "rulakker", 
      "numOfAddr": 14, 
      "lonmax": 4.959848839569588, 
      "latmin": 51.24050471775534
    }, 
    {
      "latmax": 51.242146659460005, 
      "name": "Rulloop", 
      "lonmin": 4.955983883945838, 
      "sanName": "rulloop", 
      "numOfAddr": 31, 
      "lonmax": 4.959602538090616, 
      "latmin": 51.239609021394294
    }, 
    {
      "latmax": 51.24393873868195, 
      "name": "Schaarstraat", 
      "lonmin": 4.898414174997573, 
      "sanName": "schaarstraat", 
      "numOfAddr": 8, 
      "lonmax": 4.899037350613275, 
      "latmin": 51.243333774422005
    }, 
    {
      "latmax": 51.22478404008336, 
      "name": "Schoolstraat", 
      "lonmin": 4.912086472510299, 
      "sanName": "schoolstraat", 
      "numOfAddr": 29, 
      "lonmax": 4.922088918329128, 
      "latmin": 51.221514041046596
    }, 
    {
      "latmax": 51.277200354109894, 
      "name": "Schooterij", 
      "lonmin": 4.981656435684152, 
      "sanName": "schooterij", 
      "numOfAddr": 1, 
      "lonmax": 4.981656435684152, 
      "latmin": 51.277200354109894
    }, 
    {
      "latmax": 51.22545448693984, 
      "name": "Schransstraat", 
      "lonmin": 4.9244467053931675, 
      "sanName": "schransstraat", 
      "numOfAddr": 11, 
      "lonmax": 4.9268985255509765, 
      "latmin": 51.22396811505727
    }, 
    {
      "latmax": 51.240985600211104, 
      "name": "Schuttersstraat", 
      "lonmin": 4.971447834777653, 
      "sanName": "schuttersstraat", 
      "numOfAddr": 6, 
      "lonmax": 4.972283916468423, 
      "latmin": 51.24025839229609
    }, 
    {
      "latmax": 51.205645669958464, 
      "name": "Sijzenstraat", 
      "lonmin": 4.908231489390306, 
      "sanName": "sijzenstraat", 
      "numOfAddr": 5, 
      "lonmax": 4.909130660457926, 
      "latmin": 51.20296207701017
    }, 
    {
      "latmax": 51.237352692655534, 
      "name": "Sint-Jozefstraat", 
      "lonmin": 4.959827144956198, 
      "sanName": "sintjozefstraat", 
      "numOfAddr": 14, 
      "lonmax": 4.963224189721898, 
      "latmin": 51.235940339189334
    }, 
    {
      "latmax": 51.23334680291239, 
      "name": "Sint-Lutgardispad", 
      "lonmin": 4.941578893633721, 
      "sanName": "sintlutgardispad", 
      "numOfAddr": 1, 
      "lonmax": 4.941578893633721, 
      "latmin": 51.23334680291239
    }, 
    {
      "latmax": 51.22290007774795, 
      "name": "Sint-Rochusstraat", 
      "lonmin": 4.919512082861062, 
      "sanName": "sintrochusstraat", 
      "numOfAddr": 59, 
      "lonmax": 4.923017830922896, 
      "latmin": 51.21514124261498
    }, 
    {
      "latmax": 51.24302859401636, 
      "name": "Slagmolenstraat", 
      "lonmin": 4.899725644392037, 
      "sanName": "slagmolenstraat", 
      "numOfAddr": 22, 
      "lonmax": 4.903399577833677, 
      "latmin": 51.24157071382331
    }, 
    {
      "latmax": 51.24478895773317, 
      "name": "Sleedoornlaan", 
      "lonmin": 4.973898517715395, 
      "sanName": "sleedoornlaan", 
      "numOfAddr": 7, 
      "lonmax": 4.9746107478809956, 
      "latmin": 51.24419379088209
    }, 
    {
      "latmax": 51.22775708197778, 
      "name": "Slekkestraat", 
      "lonmin": 4.884163362527126, 
      "sanName": "slekkestraat", 
      "numOfAddr": 16, 
      "lonmax": 4.885654930098391, 
      "latmin": 51.22538096490658
    }, 
    {
      "latmax": 51.20504244034635, 
      "name": "Snepkenshof", 
      "lonmin": 4.86908209210271, 
      "sanName": "snepkenshof", 
      "numOfAddr": 40, 
      "lonmax": 4.873605137474374, 
      "latmin": 51.20145007772141
    }, 
    {
      "latmax": 51.240129792703755, 
      "name": "Sparrenlaan", 
      "lonmin": 4.977608116623055, 
      "sanName": "sparrenlaan", 
      "numOfAddr": 16, 
      "lonmax": 4.979600180969392, 
      "latmin": 51.238995063019544
    }, 
    {
      "latmax": 51.20528928956445, 
      "name": "Spechtendreef", 
      "lonmin": 4.898372848509244, 
      "sanName": "spechtendreef", 
      "numOfAddr": 9, 
      "lonmax": 4.9009499497862965, 
      "latmin": 51.20460553007371
    }, 
    {
      "latmax": 51.25283301831814, 
      "name": "Spekstraat", 
      "lonmin": 4.904265850590945, 
      "sanName": "spekstraat", 
      "numOfAddr": 15, 
      "lonmax": 4.905503641484442, 
      "latmin": 51.251176357439924
    }, 
    {
      "latmax": 51.25513800261955, 
      "name": "Spoorwegstraat", 
      "lonmin": 4.890257307787522, 
      "sanName": "spoorwegstraat", 
      "numOfAddr": 62, 
      "lonmax": 4.902583217536777, 
      "latmin": 51.238346944740684
    }, 
    {
      "latmax": 51.24227442017137, 
      "name": "Stationsplein", 
      "lonmin": 4.894578377714232, 
      "sanName": "stationsplein", 
      "numOfAddr": 12, 
      "lonmax": 4.895901482628413, 
      "latmin": 51.24144222972266
    }, 
    {
      "latmax": 51.23075611945054, 
      "name": "Steendrukstraat", 
      "lonmin": 4.969105900899467, 
      "sanName": "steendrukstraat", 
      "numOfAddr": 10, 
      "lonmax": 4.970325987064962, 
      "latmin": 51.22906050560347
    }, 
    {
      "latmax": 51.210371252266306, 
      "name": "Steenfortstraat", 
      "lonmin": 4.912890293033034, 
      "sanName": "steenfortstraat", 
      "numOfAddr": 10, 
      "lonmax": 4.9153457475342615, 
      "latmin": 51.20616453160981
    }, 
    {
      "latmax": 51.21680856037793, 
      "name": "Stenenstraat", 
      "lonmin": 4.921287513652017, 
      "sanName": "stenenstraat", 
      "numOfAddr": 53, 
      "lonmax": 4.927795519027354, 
      "latmin": 51.21055742669178
    }, 
    {
      "latmax": 51.26136633857952, 
      "name": "Straaleind", 
      "lonmin": 5.002799467462207, 
      "sanName": "straaleind", 
      "numOfAddr": 18, 
      "lonmax": 5.013033340152634, 
      "latmin": 51.2543169170322
    }, 
    {
      "latmax": 51.25368776076308, 
      "name": "Straaleindsvelden", 
      "lonmin": 5.006804673354488, 
      "sanName": "straaleindsvelden", 
      "numOfAddr": 2, 
      "lonmax": 5.008728287612007, 
      "latmin": 51.24854265341714
    }, 
    {
      "latmax": 51.27302376844896, 
      "name": "Strepkens", 
      "lonmin": 4.973706820834033, 
      "sanName": "strepkens", 
      "numOfAddr": 5, 
      "lonmax": 4.974538548017448, 
      "latmin": 51.272314444628954
    }, 
    {
      "latmax": 51.223958907775305, 
      "name": "Ten Horst", 
      "lonmin": 4.878176851322092, 
      "sanName": "tenhorst", 
      "numOfAddr": 16, 
      "lonmax": 4.882360641159156, 
      "latmin": 51.222884568409675
    }, 
    {
      "latmax": 51.244520683526446, 
      "name": "Terlo", 
      "lonmin": 4.983327272237458, 
      "sanName": "terlo", 
      "numOfAddr": 24, 
      "lonmax": 4.999776793651743, 
      "latmin": 51.242790286585
    }, 
    {
      "latmax": 51.243443427468925, 
      "name": "Tielendorp", 
      "lonmin": 4.895817890788441, 
      "sanName": "tielendorp", 
      "numOfAddr": 59, 
      "lonmax": 4.901343481936293, 
      "latmin": 51.239208381633176
    }, 
    {
      "latmax": 51.25676726026275, 
      "name": "Tielenheide", 
      "lonmin": 4.900868481569569, 
      "sanName": "tielenheide", 
      "numOfAddr": 21, 
      "lonmax": 4.908275856806232, 
      "latmin": 51.250733577249434
    }, 
    {
      "latmax": 51.23368029984203, 
      "name": "Tielensteenweg", 
      "lonmin": 4.907848140699682, 
      "sanName": "tielensteenweg", 
      "numOfAddr": 80, 
      "lonmax": 4.917289743849737, 
      "latmin": 51.22486618319419
    }, 
    {
      "latmax": 51.24178543122122, 
      "name": "Torenplein", 
      "lonmin": 4.964221599692154, 
      "sanName": "torenplein", 
      "numOfAddr": 8, 
      "lonmax": 4.965296327195348, 
      "latmin": 51.24127583795214
    }, 
    {
      "latmax": 51.24768560304807, 
      "name": "Torfbergen", 
      "lonmin": 4.967154850555734, 
      "sanName": "torfbergen", 
      "numOfAddr": 16, 
      "lonmax": 4.9693080842767205, 
      "latmin": 51.246986642982606
    }, 
    {
      "latmax": 51.22581707049017, 
      "name": "Tuinstraat", 
      "lonmin": 4.918661604547492, 
      "sanName": "tuinstraat", 
      "numOfAddr": 8, 
      "lonmax": 4.919596036799185, 
      "latmin": 51.22564057418665
    }, 
    {
      "latmax": 51.22692616041187, 
      "name": "Tulpenlaan", 
      "lonmin": 4.909062135626176, 
      "sanName": "tulpenlaan", 
      "numOfAddr": 8, 
      "lonmax": 4.910376104725306, 
      "latmin": 51.226316062185205
    }, 
    {
      "latmax": 51.243527586453965, 
      "name": "Turfakkers", 
      "lonmin": 4.987312443159561, 
      "sanName": "turfakkers", 
      "numOfAddr": 16, 
      "lonmax": 4.991495602872362, 
      "latmin": 51.242483245320095
    }, 
    {
      "latmax": 51.274157549285434, 
      "name": "Turnhoutsebaan", 
      "lonmin": 4.95507243338171, 
      "sanName": "turnhoutsebaan", 
      "numOfAddr": 169, 
      "lonmax": 4.966326516149975, 
      "latmin": 51.24099232548167
    }, 
    {
      "latmax": 51.226936388925736, 
      "name": "t Zand", 
      "lonmin": 4.952793012930082, 
      "sanName": "tzand", 
      "numOfAddr": 1, 
      "lonmax": 4.952793012930082, 
      "latmin": 51.226936388925736
    }, 
    {
      "latmax": 51.258446204359124, 
      "name": "Vekemans", 
      "lonmin": 4.952254194515464, 
      "sanName": "vekemans", 
      "numOfAddr": 1, 
      "lonmax": 4.952254194515464, 
      "latmin": 51.258446204359124
    }, 
    {
      "latmax": 51.22693324385571, 
      "name": "Veldstraat", 
      "lonmin": 4.916832157619317, 
      "sanName": "veldstraat", 
      "numOfAddr": 32, 
      "lonmax": 4.919703603506557, 
      "latmin": 51.22575069235268
    }, 
    {
      "latmax": 51.248635356328215, 
      "name": "Venakkers", 
      "lonmin": 4.941326792850133, 
      "sanName": "venakkers", 
      "numOfAddr": 1, 
      "lonmax": 4.941326792850133, 
      "latmin": 51.248635356328215
    }, 
    {
      "latmax": 51.23269972843015, 
      "name": "Venheide", 
      "lonmin": 4.967195178351023, 
      "sanName": "venheide", 
      "numOfAddr": 20, 
      "lonmax": 4.971322492913471, 
      "latmin": 51.231166983016756
    }, 
    {
      "latmax": 51.217055567662705, 
      "name": "Vennepad", 
      "lonmin": 4.881169347305244, 
      "sanName": "vennepad", 
      "numOfAddr": 1, 
      "lonmax": 4.881169347305244, 
      "latmin": 51.217055567662705
    }, 
    {
      "latmax": 51.220548222867585, 
      "name": "Verbindingsstraat", 
      "lonmin": 4.922513440830025, 
      "sanName": "verbindingsstraat", 
      "numOfAddr": 4, 
      "lonmax": 4.923184532698403, 
      "latmin": 51.22009811567159
    }, 
    {
      "latmax": 51.24981062056361, 
      "name": "Verbrande Hoeven", 
      "lonmin": 4.912346554336022, 
      "sanName": "verbrandehoeven", 
      "numOfAddr": 2, 
      "lonmax": 4.912436596914623, 
      "latmin": 51.24980231596474
    }, 
    {
      "latmax": 51.2440745282108, 
      "name": "Vier Dagmaelen", 
      "lonmin": 5.014636726329215, 
      "sanName": "vierdagmaelen", 
      "numOfAddr": 15, 
      "lonmax": 5.0219841592728365, 
      "latmin": 51.241551874720784
    }, 
    {
      "latmax": 51.22392916151242, 
      "name": "Viertjens", 
      "lonmin": 4.950726599289895, 
      "sanName": "viertjens", 
      "numOfAddr": 5, 
      "lonmax": 4.952380223098568, 
      "latmin": 51.222956600925116
    }, 
    {
      "latmax": 51.24615645579048, 
      "name": "Vijverstraat", 
      "lonmin": 4.959313068428058, 
      "sanName": "vijverstraat", 
      "numOfAddr": 30, 
      "lonmax": 4.96379856626153, 
      "latmin": 51.24417101877016
    }, 
    {
      "latmax": 51.205793980812636, 
      "name": "Villapark", 
      "lonmin": 4.902945388978001, 
      "sanName": "villapark", 
      "numOfAddr": 31, 
      "lonmax": 4.915666093035195, 
      "latmin": 51.20307427507964
    }, 
    {
      "latmax": 51.206293805430256, 
      "name": "Vinkendreef", 
      "lonmin": 4.896362571381891, 
      "sanName": "vinkendreef", 
      "numOfAddr": 11, 
      "lonmax": 4.90082749594806, 
      "latmin": 51.205408493555254
    }, 
    {
      "latmax": 51.24029209437051, 
      "name": "Vogelzang", 
      "lonmin": 4.972758036745207, 
      "sanName": "vogelzang", 
      "numOfAddr": 18, 
      "lonmax": 4.975481422564517, 
      "latmin": 51.239263392416646
    }, 
    {
      "latmax": 51.2620509625089, 
      "name": "Volkers", 
      "lonmin": 4.921111587706901, 
      "sanName": "volkers", 
      "numOfAddr": 5, 
      "lonmax": 4.928737889616397, 
      "latmin": 51.25848198083802
    }, 
    {
      "latmax": 51.256390564877556, 
      "name": "Vonderstraat", 
      "lonmin": 4.8812200764212665, 
      "sanName": "vonderstraat", 
      "numOfAddr": 5, 
      "lonmax": 4.88944355600691, 
      "latmin": 51.253864835469116
    }, 
    {
      "latmax": 51.263781878678415, 
      "name": "Vorsel", 
      "lonmin": 4.996380420040767, 
      "sanName": "vorsel", 
      "numOfAddr": 27, 
      "lonmax": 5.002608370556903, 
      "latmin": 51.25127254433709
    }, 
    {
      "latmax": 51.223389732530926, 
      "name": "Vosberg", 
      "lonmin": 4.874804558795736, 
      "sanName": "vosberg", 
      "numOfAddr": 2, 
      "lonmax": 4.875297584969882, 
      "latmin": 51.222819812768726
    }, 
    {
      "latmax": 51.25721677770593, 
      "name": "Vossenhaag", 
      "lonmin": 4.985185342902439, 
      "sanName": "vossenhaag", 
      "numOfAddr": 1, 
      "lonmax": 4.985185342902439, 
      "latmin": 51.25721677770593
    }, 
    {
      "latmax": 51.232298125743654, 
      "name": "Vreebeemden", 
      "lonmin": 4.917161772213025, 
      "sanName": "vreebeemden", 
      "numOfAddr": 1, 
      "lonmax": 4.917161772213025, 
      "latmin": 51.232298125743654
    }, 
    {
      "latmax": 51.23552553118785, 
      "name": "Waaiberg", 
      "lonmin": 4.972834062633908, 
      "sanName": "waaiberg", 
      "numOfAddr": 20, 
      "lonmax": 4.9777915770359105, 
      "latmin": 51.2333973939543
    }, 
    {
      "latmax": 51.24388727696751, 
      "name": "Walravens", 
      "lonmin": 4.8654707888071576, 
      "sanName": "walravens", 
      "numOfAddr": 13, 
      "lonmax": 4.877049242399856, 
      "latmin": 51.240418397026815
    }, 
    {
      "latmax": 51.24880645820395, 
      "name": "Watermolenstraat", 
      "lonmin": 4.875769685667214, 
      "sanName": "watermolenstraat", 
      "numOfAddr": 7, 
      "lonmax": 4.883076349394667, 
      "latmin": 51.24656611026489
    }, 
    {
      "latmax": 51.240135701359314, 
      "name": "Watertorenlaan", 
      "lonmin": 4.979353181440784, 
      "sanName": "watertorenlaan", 
      "numOfAddr": 14, 
      "lonmax": 4.980690104976992, 
      "latmin": 51.23803752815137
    }, 
    {
      "latmax": 51.2395977030125, 
      "name": "Wespedongen", 
      "lonmin": 4.868740444128084, 
      "sanName": "wespedongen", 
      "numOfAddr": 2, 
      "lonmax": 4.8693461124642115, 
      "latmin": 51.2386886449544
    }, 
    {
      "latmax": 51.21954627919645, 
      "name": "Westhukkel", 
      "lonmin": 4.927971765531231, 
      "sanName": "westhukkel", 
      "numOfAddr": 23, 
      "lonmax": 4.936273972451386, 
      "latmin": 51.216905561195965
    }, 
    {
      "latmax": 51.230168853212795, 
      "name": "Weverstraat", 
      "lonmin": 4.9730954502381595, 
      "sanName": "weverstraat", 
      "numOfAddr": 18, 
      "lonmax": 4.976236493825592, 
      "latmin": 51.22865758194078
    }, 
    {
      "latmax": 51.21834961532063, 
      "name": "Weygerberg", 
      "lonmin": 4.916534579203414, 
      "sanName": "weygerberg", 
      "numOfAddr": 11, 
      "lonmax": 4.919739073718296, 
      "latmin": 51.216600987341764
    }, 
    {
      "latmax": 51.21608985044429, 
      "name": "Wilgorenstraat", 
      "lonmin": 4.922464012075617, 
      "sanName": "wilgorenstraat", 
      "numOfAddr": 20, 
      "lonmax": 4.931730575948928, 
      "latmin": 51.21407259326675
    }, 
    {
      "latmax": 51.23738813095537, 
      "name": "Withagen", 
      "lonmin": 4.993785312612667, 
      "sanName": "withagen", 
      "numOfAddr": 1, 
      "lonmax": 4.993785312612667, 
      "latmin": 51.23738813095537
    }, 
    {
      "latmax": 51.22598951518745, 
      "name": "Zaardenstraat", 
      "lonmin": 4.96799266651173, 
      "sanName": "zaardenstraat", 
      "numOfAddr": 14, 
      "lonmax": 4.973250586123832, 
      "latmin": 51.22330999641351
    }, 
    {
      "latmax": 51.224340408103416, 
      "name": "Zagerijstraat", 
      "lonmin": 4.916797216918904, 
      "sanName": "zagerijstraat", 
      "numOfAddr": 11, 
      "lonmax": 4.918194490147446, 
      "latmin": 51.22342221978279
    }, 
    {
      "latmax": 51.26115118655971, 
      "name": "Zandhoef", 
      "lonmin": 4.950813851701463, 
      "sanName": "zandhoef", 
      "numOfAddr": 18, 
      "lonmax": 4.9593536017228335, 
      "latmin": 51.25590402577166
    }, 
    {
      "latmax": 51.25603274201252, 
      "name": "Zandhoefheide", 
      "lonmin": 4.952462722481526, 
      "sanName": "zandhoefheide", 
      "numOfAddr": 1, 
      "lonmax": 4.952462722481526, 
      "latmin": 51.25603274201252
    }, 
    {
      "latmax": 51.2514756394738, 
      "name": "Zandkot", 
      "lonmin": 4.937942240867263, 
      "sanName": "zandkot", 
      "numOfAddr": 1, 
      "lonmax": 4.937942240867263, 
      "latmin": 51.2514756394738
    }, 
    {
      "latmax": 51.22560992500842, 
      "name": "Zandstraat", 
      "lonmin": 4.907254322054279, 
      "sanName": "zandstraat", 
      "numOfAddr": 15, 
      "lonmax": 4.91051236466964, 
      "latmin": 51.22460542118289
    }, 
    {
      "latmax": 51.215339536798155, 
      "name": "Zavel", 
      "lonmin": 4.928222743374621, 
      "sanName": "zavel", 
      "numOfAddr": 4, 
      "lonmax": 4.93042580654076, 
      "latmin": 51.21394077833493
    }, 
    {
      "latmax": 51.24623492664487, 
      "name": "Zavelduin", 
      "lonmin": 4.978516215947579, 
      "sanName": "zavelduin", 
      "numOfAddr": 10, 
      "lonmax": 4.980697762110498, 
      "latmin": 51.244708523709335
    }, 
    {
      "latmax": 51.24440962722698, 
      "name": "Zellekens", 
      "lonmin": 4.892300054476563, 
      "sanName": "zellekens", 
      "numOfAddr": 8, 
      "lonmax": 4.8929366028361105, 
      "latmin": 51.24401893663386
    }, 
    {
      "latmax": 51.26578509275358, 
      "name": "Zevendonkseweg", 
      "lonmin": 4.909614519641457, 
      "sanName": "zevendonkseweg", 
      "numOfAddr": 8, 
      "lonmax": 4.918860885953046, 
      "latmin": 51.25100915757612
    }, 
    {
      "latmax": 51.226157010659, 
      "name": "Zomerplein", 
      "lonmin": 4.920656956045475, 
      "sanName": "zomerplein", 
      "numOfAddr": 13, 
      "lonmax": 4.922062479959676, 
      "latmin": 51.225507036376236
    }, 
    {
      "latmax": 51.24010735442355, 
      "name": "Zonnedauw", 
      "lonmin": 4.980478889326981, 
      "sanName": "zonnedauw", 
      "numOfAddr": 11, 
      "lonmax": 4.981358011150874, 
      "latmin": 51.23881662319442
    }, 
    {
      "latmax": 51.20719889071653, 
      "name": "Zwaluwendreef", 
      "lonmin": 4.896627691028059, 
      "sanName": "zwaluwendreef", 
      "numOfAddr": 16, 
      "lonmax": 4.900260874441884, 
      "latmin": 51.20641656629802
    }, 
    {
      "latmax": 51.26549468734452, 
      "name": "Zwepenstraat", 
      "lonmin": 4.897520738315936, 
      "sanName": "zwepenstraat", 
      "numOfAddr": 15, 
      "lonmax": 4.899938772025781, 
      "latmin": 51.25363528835743
    }
  ]
}