{
  "streets": [
    {
      "latmax": 51.181708813958636, 
      "name": "Abelebaan", 
      "lonmin": 4.5715735965267, 
      "sanName": "abelebaan", 
      "numOfAddr": 66, 
      "lonmax": 4.59322304045296, 
      "latmin": 51.178941335497456
    }, 
    {
      "latmax": 51.185452078614844, 
      "name": "Achterlo", 
      "lonmin": 4.578110898970303, 
      "sanName": "achterlo", 
      "numOfAddr": 16, 
      "lonmax": 4.586771228395398, 
      "latmin": 51.181778075216364
    }, 
    {
      "latmax": 51.21127098922553, 
      "name": "Achterstraat", 
      "lonmin": 4.5921583008276485, 
      "sanName": "achterstraat", 
      "numOfAddr": 74, 
      "lonmax": 4.599977721971555, 
      "latmin": 51.2100121033869
    }, 
    {
      "latmax": 51.153645377199275, 
      "name": "Alliers", 
      "lonmin": 4.571304257329996, 
      "sanName": "alliers", 
      "numOfAddr": 15, 
      "lonmax": 4.5727692825267185, 
      "latmin": 51.15227752203623
    }, 
    {
      "latmax": 51.18792010611873, 
      "name": "Antwerpsesteenweg", 
      "lonmin": 4.57808625097842, 
      "sanName": "antwerpsesteenweg", 
      "numOfAddr": 102, 
      "lonmax": 4.594534184053182, 
      "latmin": 51.181842027528745
    }, 
    {
      "latmax": 51.195615273091754, 
      "name": "Asbroek", 
      "lonmin": 4.579227521346429, 
      "sanName": "asbroek", 
      "numOfAddr": 2, 
      "lonmax": 4.579446162137997, 
      "latmin": 51.1956038890402
    }, 
    {
      "latmax": 51.21020142674944, 
      "name": "Baron Holvoetlaan", 
      "lonmin": 4.609908490340032, 
      "sanName": "baronholvoetlaan", 
      "numOfAddr": 6, 
      "lonmax": 4.610732078215318, 
      "latmin": 51.209758191469135
    }, 
    {
      "latmax": 51.22078498426287, 
      "name": "Beeldekensstraat", 
      "lonmin": 4.618597400737419, 
      "sanName": "beeldekensstraat", 
      "numOfAddr": 3, 
      "lonmax": 4.6191006538559005, 
      "latmin": 51.21742913770183
    }, 
    {
      "latmax": 51.1870078828041, 
      "name": "Beemdenstraat", 
      "lonmin": 4.619291471788566, 
      "sanName": "beemdenstraat", 
      "numOfAddr": 15, 
      "lonmax": 4.621787802247576, 
      "latmin": 51.1838466371939
    }, 
    {
      "latmax": 51.190938121716954, 
      "name": "Begonialaan", 
      "lonmin": 4.564017984501672, 
      "sanName": "begonialaan", 
      "numOfAddr": 14, 
      "lonmax": 4.565862308710838, 
      "latmin": 51.19018970007079
    }, 
    {
      "latmax": 51.19300972967037, 
      "name": "Bergsehoeven", 
      "lonmin": 4.6168262932293125, 
      "sanName": "bergsehoeven", 
      "numOfAddr": 6, 
      "lonmax": 4.6225680686502475, 
      "latmin": 51.189062970338014
    }, 
    {
      "latmax": 51.19314089756073, 
      "name": "Berkenlaan", 
      "lonmin": 4.553435521610643, 
      "sanName": "berkenlaan", 
      "numOfAddr": 74, 
      "lonmax": 4.559460175563163, 
      "latmin": 51.190012456765274
    }, 
    {
      "latmax": 51.15551155353309, 
      "name": "Beukendreef", 
      "lonmin": 4.581745926722425, 
      "sanName": "beukendreef", 
      "numOfAddr": 11, 
      "lonmax": 4.58330094307777, 
      "latmin": 51.15457178618267
    }, 
    {
      "latmax": 51.179391147400764, 
      "name": "Bieslooklaan", 
      "lonmin": 4.594057915595712, 
      "sanName": "bieslooklaan", 
      "numOfAddr": 21, 
      "lonmax": 4.597247218561399, 
      "latmin": 51.17867313805056
    }, 
    {
      "latmax": 51.197792281832, 
      "name": "Bijlstraat", 
      "lonmin": 4.546796367605488, 
      "sanName": "bijlstraat", 
      "numOfAddr": 5, 
      "lonmax": 4.547427129442567, 
      "latmin": 51.19728560045192
    }, 
    {
      "latmax": 51.21138501913423, 
      "name": "Binnenweg", 
      "lonmin": 4.598412952524736, 
      "sanName": "binnenweg", 
      "numOfAddr": 9, 
      "lonmax": 4.599556870076764, 
      "latmin": 51.21102224317091
    }, 
    {
      "latmax": 51.18945710990599, 
      "name": "Bistweg", 
      "lonmin": 4.575078403870529, 
      "sanName": "bistweg", 
      "numOfAddr": 47, 
      "lonmax": 4.620896987523153, 
      "latmin": 51.18696785229832
    }, 
    {
      "latmax": 51.18165525404516, 
      "name": "Boekweitlaan", 
      "lonmin": 4.563530347680339, 
      "sanName": "boekweitlaan", 
      "numOfAddr": 28, 
      "lonmax": 4.566448476123185, 
      "latmin": 51.18072969888118
    }, 
    {
      "latmax": 51.19694074141674, 
      "name": "Boerenkrijglaan", 
      "lonmin": 4.549644373511727, 
      "sanName": "boerenkrijglaan", 
      "numOfAddr": 2, 
      "lonmax": 4.551721599363985, 
      "latmin": 51.19396062931543
    }, 
    {
      "latmax": 51.208777972434305, 
      "name": "Bolkerhoeveweg", 
      "lonmin": 4.6023096356917845, 
      "sanName": "bolkerhoeveweg", 
      "numOfAddr": 11, 
      "lonmax": 4.604584894184953, 
      "latmin": 51.206497738807236
    }, 
    {
      "latmax": 51.16474234370615, 
      "name": "Bollaakdijk", 
      "lonmin": 4.6087244536057135, 
      "sanName": "bollaakdijk", 
      "numOfAddr": 5, 
      "lonmax": 4.618773128754593, 
      "latmin": 51.15896216326113
    }, 
    {
      "latmax": 51.17847059698868, 
      "name": "Boomgaardweg", 
      "lonmin": 4.590897554280799, 
      "sanName": "boomgaardweg", 
      "numOfAddr": 17, 
      "lonmax": 4.592585109562831, 
      "latmin": 51.17802661115002
    }, 
    {
      "latmax": 51.16144172337808, 
      "name": "Bosstraat", 
      "lonmin": 4.603129703255697, 
      "sanName": "bosstraat", 
      "numOfAddr": 12, 
      "lonmax": 4.6045656315835, 
      "latmin": 51.16050912912118
    }, 
    {
      "latmax": 51.195764039207425, 
      "name": "Boswijk", 
      "lonmin": 4.560132347637411, 
      "sanName": "boswijk", 
      "numOfAddr": 44, 
      "lonmax": 4.562912250772323, 
      "latmin": 51.19353642592468
    }, 
    {
      "latmax": 51.22592859906316, 
      "name": "Bredabaan", 
      "lonmin": 4.5756645721040305, 
      "sanName": "bredabaan", 
      "numOfAddr": 20, 
      "lonmax": 4.593969631693625, 
      "latmin": 51.215438508210944
    }, 
    {
      "latmax": 51.17272395655112, 
      "name": "Bremstraat", 
      "lonmin": 4.593380499306906, 
      "sanName": "bremstraat", 
      "numOfAddr": 31, 
      "lonmax": 4.6002136514670235, 
      "latmin": 51.17153030505702
    }, 
    {
      "latmax": 51.184889584217586, 
      "name": "Breughellaan", 
      "lonmin": 4.592390979975592, 
      "sanName": "breughellaan", 
      "numOfAddr": 44, 
      "lonmax": 4.595697257040357, 
      "latmin": 51.18294123189371
    }, 
    {
      "latmax": 51.18106215491836, 
      "name": "Broddestraat", 
      "lonmin": 4.596981494500826, 
      "sanName": "broddestraat", 
      "numOfAddr": 43, 
      "lonmax": 4.600458736028894, 
      "latmin": 51.173637089815664
    }, 
    {
      "latmax": 51.19645574898871, 
      "name": "Broechemhof", 
      "lonmin": 4.604202988231527, 
      "sanName": "broechemhof", 
      "numOfAddr": 10, 
      "lonmax": 4.624414793060712, 
      "latmin": 51.192236510280885
    }, 
    {
      "latmax": 51.1881378120877, 
      "name": "Broechemlei", 
      "lonmin": 4.5645274282012505, 
      "sanName": "broechemlei", 
      "numOfAddr": 73, 
      "lonmax": 4.5781340346254265, 
      "latmin": 51.18607646193489
    }, 
    {
      "latmax": 51.18156744786697, 
      "name": "Broechemsesteenweg", 
      "lonmin": 4.590234968030164, 
      "sanName": "broechemsesteenweg", 
      "numOfAddr": 134, 
      "lonmax": 4.594813896400275, 
      "latmin": 51.15926802334768
    }, 
    {
      "latmax": 51.189260115580964, 
      "name": "Broederlozestraat", 
      "lonmin": 4.531960821518099, 
      "sanName": "broederlozestraat", 
      "numOfAddr": 4, 
      "lonmax": 4.533806366543297, 
      "latmin": 51.18747439820949
    }, 
    {
      "latmax": 51.181654575925805, 
      "name": "Burgemeester Louis Pittoorslaan", 
      "lonmin": 4.56176914589407, 
      "sanName": "burgemeesterlouispittoorslaan", 
      "numOfAddr": 12, 
      "lonmax": 4.563727010423272, 
      "latmin": 51.1806856003898
    }, 
    {
      "latmax": 51.18880380339793, 
      "name": "Cijnshoevenweg", 
      "lonmin": 4.544782567026445, 
      "sanName": "cijnshoevenweg", 
      "numOfAddr": 9, 
      "lonmax": 4.546886304548066, 
      "latmin": 51.188239394683066
    }, 
    {
      "latmax": 51.19623906101078, 
      "name": "Crauwelsveld", 
      "lonmin": 4.539461816164299, 
      "sanName": "crauwelsveld", 
      "numOfAddr": 15, 
      "lonmax": 4.540906445268827, 
      "latmin": 51.195022012222864
    }, 
    {
      "latmax": 51.21652211787995, 
      "name": "Creyboschlaan", 
      "lonmin": 4.578042658595191, 
      "sanName": "creyboschlaan", 
      "numOfAddr": 23, 
      "lonmax": 4.580692047139181, 
      "latmin": 51.214756264235525
    }, 
    {
      "latmax": 51.215472471671156, 
      "name": "Cruyenveldenbaan", 
      "lonmin": 4.550556627772868, 
      "sanName": "cruyenveldenbaan", 
      "numOfAddr": 2, 
      "lonmax": 4.5506173713989035, 
      "latmin": 51.21519589369619
    }, 
    {
      "latmax": 51.217436060145886, 
      "name": "de Fraulalaan", 
      "lonmin": 4.587876339894024, 
      "sanName": "defraulalaan", 
      "numOfAddr": 38, 
      "lonmax": 4.59017738289046, 
      "latmin": 51.21494770456073
    }, 
    {
      "latmax": 51.16069767110838, 
      "name": "D'Enge", 
      "lonmin": 4.587369554835508, 
      "sanName": "denge", 
      "numOfAddr": 4, 
      "lonmax": 4.58823581043049, 
      "latmin": 51.15994863574447
    }, 
    {
      "latmax": 51.193385411245835, 
      "name": "Dennenlaan", 
      "lonmin": 4.55450486019622, 
      "sanName": "dennenlaan", 
      "numOfAddr": 48, 
      "lonmax": 4.559643748509538, 
      "latmin": 51.19164844512559
    }, 
    {
      "latmax": 51.1628949760158, 
      "name": "De Voortstraat", 
      "lonmin": 4.606945964575293, 
      "sanName": "devoortstraat", 
      "numOfAddr": 25, 
      "lonmax": 4.609273752157081, 
      "latmin": 51.16155639508822
    }, 
    {
      "latmax": 51.15769216728052, 
      "name": "De Winkelhaak", 
      "lonmin": 4.580318076589478, 
      "sanName": "dewinkelhaak", 
      "numOfAddr": 9, 
      "lonmax": 4.581757154060534, 
      "latmin": 51.156871695049674
    }, 
    {
      "latmax": 51.18921058653819, 
      "name": "Doggenhoutstraat", 
      "lonmin": 4.557823900449701, 
      "sanName": "doggenhoutstraat", 
      "numOfAddr": 48, 
      "lonmax": 4.563653110581213, 
      "latmin": 51.18753749935852
    }, 
    {
      "latmax": 51.19274276291627, 
      "name": "Donkereweg", 
      "lonmin": 4.568485948679874, 
      "sanName": "donkereweg", 
      "numOfAddr": 14, 
      "lonmax": 4.575108551303146, 
      "latmin": 51.189955425332634
    }, 
    {
      "latmax": 51.22078347178482, 
      "name": "Doornbaan", 
      "lonmin": 4.629007260025372, 
      "sanName": "doornbaan", 
      "numOfAddr": 6, 
      "lonmax": 4.632334034843081, 
      "latmin": 51.21527342119029
    }, 
    {
      "latmax": 51.18568232969166, 
      "name": "Doornboomweg", 
      "lonmin": 4.601864594388877, 
      "sanName": "doornboomweg", 
      "numOfAddr": 2, 
      "lonmax": 4.602100657841539, 
      "latmin": 51.185297331979086
    }, 
    {
      "latmax": 51.16525743310869, 
      "name": "Dorpstraat", 
      "lonmin": 4.592186991115829, 
      "sanName": "dorpstraat", 
      "numOfAddr": 158, 
      "lonmax": 4.611187276684553, 
      "latmin": 51.158896555201075
    }, 
    {
      "latmax": 51.198186930809136, 
      "name": "Driepikkelhoeveweg", 
      "lonmin": 4.563110504542299, 
      "sanName": "driepikkelhoeveweg", 
      "numOfAddr": 1, 
      "lonmax": 4.563110504542299, 
      "latmin": 51.198186930809136
    }, 
    {
      "latmax": 51.19295814487287, 
      "name": "Dullaard", 
      "lonmin": 4.569161041736291, 
      "sanName": "dullaard", 
      "numOfAddr": 28, 
      "lonmax": 4.571299366388454, 
      "latmin": 51.18898180939662
    }, 
    {
      "latmax": 51.18760738669064, 
      "name": "Eksterlaan", 
      "lonmin": 4.5541093730557805, 
      "sanName": "eksterlaan", 
      "numOfAddr": 27, 
      "lonmax": 4.554991105724543, 
      "latmin": 51.185132191167355
    }, 
    {
      "latmax": 51.15926492742935, 
      "name": "Elzenweg", 
      "lonmin": 4.576319923748244, 
      "sanName": "elzenweg", 
      "numOfAddr": 23, 
      "lonmax": 4.579157514604566, 
      "latmin": 51.158537093386784
    }, 
    {
      "latmax": 51.17927316321474, 
      "name": "Emblemseweg", 
      "lonmin": 4.597270270921923, 
      "sanName": "emblemseweg", 
      "numOfAddr": 86, 
      "lonmax": 4.607661061468375, 
      "latmin": 51.164871577936076
    }, 
    {
      "latmax": 51.21093253019705, 
      "name": "Europalaan", 
      "lonmin": 4.610303710784673, 
      "sanName": "europalaan", 
      "numOfAddr": 26, 
      "lonmax": 4.611719302562269, 
      "latmin": 51.20901114579692
    }, 
    {
      "latmax": 51.215170104340984, 
      "name": "Everhoek", 
      "lonmin": 4.579694624870699, 
      "sanName": "everhoek", 
      "numOfAddr": 5, 
      "lonmax": 4.58211665744894, 
      "latmin": 51.214594179069536
    }, 
    {
      "latmax": 51.21697602050015, 
      "name": "Fazantenstraat", 
      "lonmin": 4.60302026520878, 
      "sanName": "fazantenstraat", 
      "numOfAddr": 29, 
      "lonmax": 4.605720321376847, 
      "latmin": 51.21449656815248
    }, 
    {
      "latmax": 51.17051235369185, 
      "name": "Fransehoeveweg", 
      "lonmin": 4.592847385063353, 
      "sanName": "fransehoeveweg", 
      "numOfAddr": 29, 
      "lonmax": 4.595923630416755, 
      "latmin": 51.166448000912844
    }, 
    {
      "latmax": 51.156709398395016, 
      "name": "Fruithoflaan", 
      "lonmin": 4.583689139829393, 
      "sanName": "fruithoflaan", 
      "numOfAddr": 22, 
      "lonmax": 4.585761562608004, 
      "latmin": 51.15538114779337
    }, 
    {
      "latmax": 51.19048555742979, 
      "name": "Gasthuisstraat", 
      "lonmin": 4.557772191521352, 
      "sanName": "gasthuisstraat", 
      "numOfAddr": 34, 
      "lonmax": 4.560807529491637, 
      "latmin": 51.18881962278681
    }, 
    {
      "latmax": 51.18289283269172, 
      "name": "Gemeenteplein", 
      "lonmin": 4.60063081563209, 
      "sanName": "gemeenteplein", 
      "numOfAddr": 27, 
      "lonmax": 4.602310259635372, 
      "latmin": 51.180968150175296
    }, 
    {
      "latmax": 51.18247826491395, 
      "name": "Gerstelaan", 
      "lonmin": 4.56464881411198, 
      "sanName": "gerstelaan", 
      "numOfAddr": 17, 
      "lonmax": 4.56634600325511, 
      "latmin": 51.1818376839359
    }, 
    {
      "latmax": 51.22835982985106, 
      "name": "Gescheurde heide", 
      "lonmin": 4.616688395194171, 
      "sanName": "gescheurdeheide", 
      "numOfAddr": 2, 
      "lonmax": 4.617002684664045, 
      "latmin": 51.22816049890826
    }, 
    {
      "latmax": 51.21021941172747, 
      "name": "Ginnegemveld", 
      "lonmin": 4.568789822758019, 
      "sanName": "ginnegemveld", 
      "numOfAddr": 11, 
      "lonmax": 4.575519856632978, 
      "latmin": 51.20916138820994
    }, 
    {
      "latmax": 51.22806926642409, 
      "name": "Goorstraat", 
      "lonmin": 4.598320194646179, 
      "sanName": "goorstraat", 
      "numOfAddr": 8, 
      "lonmax": 4.61197886717539, 
      "latmin": 51.22545436754951
    }, 
    {
      "latmax": 51.19032438419403, 
      "name": "Goudbloemlaan", 
      "lonmin": 4.565024171639352, 
      "sanName": "goudbloemlaan", 
      "numOfAddr": 10, 
      "lonmax": 4.565932232613639, 
      "latmin": 51.18963964803075
    }, 
    {
      "latmax": 51.152117894329805, 
      "name": "Grensweg", 
      "lonmin": 4.572601860014893, 
      "sanName": "grensweg", 
      "numOfAddr": 11, 
      "lonmax": 4.573594147997233, 
      "latmin": 51.151098202716504
    }, 
    {
      "latmax": 51.163911162527086, 
      "name": "Grimmarastraat", 
      "lonmin": 4.608460773988127, 
      "sanName": "grimmarastraat", 
      "numOfAddr": 6, 
      "lonmax": 4.609587847214626, 
      "latmin": 51.1633031342869
    }, 
    {
      "latmax": 51.186331529353616, 
      "name": "Groenenbroekstraat", 
      "lonmin": 4.538913027270103, 
      "sanName": "groenenbroekstraat", 
      "numOfAddr": 2, 
      "lonmax": 4.539646395644119, 
      "latmin": 51.18506287207467
    }, 
    {
      "latmax": 51.18974568060618, 
      "name": "Groenlaan", 
      "lonmin": 4.566462765439675, 
      "sanName": "groenlaan", 
      "numOfAddr": 4, 
      "lonmax": 4.566915065449888, 
      "latmin": 51.18903580793237
    }, 
    {
      "latmax": 51.18157995746329, 
      "name": "Gustaaf Peetersstraat", 
      "lonmin": 4.602433140468323, 
      "sanName": "gustaafpeetersstraat", 
      "numOfAddr": 70, 
      "lonmax": 4.607109345645981, 
      "latmin": 51.17944662616946
    }, 
    {
      "latmax": 51.15447220289947, 
      "name": "Haegenbroekseweg", 
      "lonmin": 4.570440896461891, 
      "sanName": "haegenbroekseweg", 
      "numOfAddr": 19, 
      "lonmax": 4.5724743698399015, 
      "latmin": 51.15349244408065
    }, 
    {
      "latmax": 51.22528229089306, 
      "name": "Hallebaan", 
      "lonmin": 4.615745830509442, 
      "sanName": "hallebaan", 
      "numOfAddr": 35, 
      "lonmax": 4.633610212141031, 
      "latmin": 51.21483358459828
    }, 
    {
      "latmax": 51.15914006764314, 
      "name": "Handboogweg", 
      "lonmin": 4.569798289806262, 
      "sanName": "handboogweg", 
      "numOfAddr": 19, 
      "lonmax": 4.574691337745807, 
      "latmin": 51.15709953600039
    }, 
    {
      "latmax": 51.181764509611384, 
      "name": "Haverlaan", 
      "lonmin": 4.562046887655787, 
      "sanName": "haverlaan", 
      "numOfAddr": 11, 
      "lonmax": 4.563092839487187, 
      "latmin": 51.18122292384724
    }, 
    {
      "latmax": 51.21654358992957, 
      "name": "Hazenstraat", 
      "lonmin": 4.603828077892702, 
      "sanName": "hazenstraat", 
      "numOfAddr": 28, 
      "lonmax": 4.6057408581701305, 
      "latmin": 51.215003503674
    }, 
    {
      "latmax": 51.21221587143083, 
      "name": "Heesterbos", 
      "lonmin": 4.616682971699027, 
      "sanName": "heesterbos", 
      "numOfAddr": 15, 
      "lonmax": 4.620559402880068, 
      "latmin": 51.21046990854836
    }, 
    {
      "latmax": 51.210563092094006, 
      "name": "Heggestraat", 
      "lonmin": 4.608394704292721, 
      "sanName": "heggestraat", 
      "numOfAddr": 5, 
      "lonmax": 4.608555302398159, 
      "latmin": 51.20995990876027
    }, 
    {
      "latmax": 51.17202403425346, 
      "name": "Heidestraat", 
      "lonmin": 4.581096131207075, 
      "sanName": "heidestraat", 
      "numOfAddr": 55, 
      "lonmax": 4.592349111363177, 
      "latmin": 51.165173655322484
    }, 
    {
      "latmax": 51.154308032496765, 
      "name": "Heiken", 
      "lonmin": 4.574451760232817, 
      "sanName": "heiken", 
      "numOfAddr": 37, 
      "lonmax": 4.577829998363576, 
      "latmin": 51.15160415797338
    }, 
    {
      "latmax": 51.217081733371444, 
      "name": "Hemelstraat", 
      "lonmin": 4.599923660383151, 
      "sanName": "hemelstraat", 
      "numOfAddr": 20, 
      "lonmax": 4.601105330515692, 
      "latmin": 51.21565206939605
    }, 
    {
      "latmax": 51.21584772626885, 
      "name": "Herbsteinlaan", 
      "lonmin": 4.583693309902293, 
      "sanName": "herbsteinlaan", 
      "numOfAddr": 14, 
      "lonmax": 4.585137362284969, 
      "latmin": 51.21367331009306
    }, 
    {
      "latmax": 51.19215823976214, 
      "name": "Herentalsebaan", 
      "lonmin": 4.535580170153422, 
      "sanName": "herentalsebaan", 
      "numOfAddr": 148, 
      "lonmax": 4.568180806948211, 
      "latmin": 51.17819580734658
    }, 
    {
      "latmax": 51.18728859318372, 
      "name": "Hofstraat", 
      "lonmin": 4.567183159350766, 
      "sanName": "hofstraat", 
      "numOfAddr": 23, 
      "lonmax": 4.568288554642202, 
      "latmin": 51.185633168921214
    }, 
    {
      "latmax": 51.21041035606496, 
      "name": "Hogenaardseweg", 
      "lonmin": 4.540424228948765, 
      "sanName": "hogenaardseweg", 
      "numOfAddr": 26, 
      "lonmax": 4.576724083214345, 
      "latmin": 51.20539556811686
    }, 
    {
      "latmax": 51.1638594773346, 
      "name": "Hondstraat", 
      "lonmin": 4.565819552743085, 
      "sanName": "hondstraat", 
      "numOfAddr": 2, 
      "lonmax": 4.567405515998474, 
      "latmin": 51.163762370252414
    }, 
    {
      "latmax": 51.18552370414813, 
      "name": "Hooiveld", 
      "lonmin": 4.562240030062935, 
      "sanName": "hooiveld", 
      "numOfAddr": 31, 
      "lonmax": 4.566079160184191, 
      "latmin": 51.18342381877058
    }, 
    {
      "latmax": 51.209703285961375, 
      "name": "Hoornveldstraat", 
      "lonmin": 4.598807173477141, 
      "sanName": "hoornveldstraat", 
      "numOfAddr": 10, 
      "lonmax": 4.60001010084179, 
      "latmin": 51.20878397200164
    }, 
    {
      "latmax": 51.179682501993234, 
      "name": "Hovenierstraat", 
      "lonmin": 4.551543036382893, 
      "sanName": "hovenierstraat", 
      "numOfAddr": 2, 
      "lonmax": 4.552083561864766, 
      "latmin": 51.178201399061855
    }, 
    {
      "latmax": 51.1586326809142, 
      "name": "Hulstweg", 
      "lonmin": 4.57591116977152, 
      "sanName": "hulstweg", 
      "numOfAddr": 22, 
      "lonmax": 4.578358566324609, 
      "latmin": 51.15801256537552
    }, 
    {
      "latmax": 51.16062518813259, 
      "name": "Hutveld", 
      "lonmin": 4.576858681063065, 
      "sanName": "hutveld", 
      "numOfAddr": 37, 
      "lonmax": 4.588402436343378, 
      "latmin": 51.15717291508931
    }, 
    {
      "latmax": 51.214622506103645, 
      "name": "John Kennedylaan", 
      "lonmin": 4.605698530761678, 
      "sanName": "johnkennedylaan", 
      "numOfAddr": 35, 
      "lonmax": 4.607223869844983, 
      "latmin": 51.210985877438105
    }, 
    {
      "latmax": 51.196659153561455, 
      "name": "John van den Eyndelaan", 
      "lonmin": 4.545722814343042, 
      "sanName": "johnvandeneyndelaan", 
      "numOfAddr": 17, 
      "lonmax": 4.547509275409096, 
      "latmin": 51.19562422434137
    }, 
    {
      "latmax": 51.17958440177761, 
      "name": "Jozef De Voghtstraat", 
      "lonmin": 4.602769452699107, 
      "sanName": "jozefdevoghtstraat", 
      "numOfAddr": 19, 
      "lonmax": 4.605083964119247, 
      "latmin": 51.17881586504707
    }, 
    {
      "latmax": 51.217235745155705, 
      "name": "Jozef Simonslaan", 
      "lonmin": 4.5809466456196635, 
      "sanName": "jozefsimonslaan", 
      "numOfAddr": 47, 
      "lonmax": 4.590460736637261, 
      "latmin": 51.21382882408429
    }, 
    {
      "latmax": 51.18105669255803, 
      "name": "Juul Persijnstraat", 
      "lonmin": 4.599741827126275, 
      "sanName": "juulpersijnstraat", 
      "numOfAddr": 45, 
      "lonmax": 4.602436348806741, 
      "latmin": 51.176928321255076
    }, 
    {
      "latmax": 51.178792158358625, 
      "name": "Kamillelaan", 
      "lonmin": 4.5975323263883086, 
      "sanName": "kamillelaan", 
      "numOfAddr": 8, 
      "lonmax": 4.5981822430984565, 
      "latmin": 51.17836502850906
    }, 
    {
      "latmax": 51.1563776992343, 
      "name": "Kanaalstraat", 
      "lonmin": 4.588843091058369, 
      "sanName": "kanaalstraat", 
      "numOfAddr": 20, 
      "lonmax": 4.59072630950613, 
      "latmin": 51.15533795850054
    }, 
    {
      "latmax": 51.232298646179544, 
      "name": "Kantonbaan", 
      "lonmin": 4.611955565755821, 
      "sanName": "kantonbaan", 
      "numOfAddr": 16, 
      "lonmax": 4.6345028267505795, 
      "latmin": 51.22479742458713
    }, 
    {
      "latmax": 51.18600422384493, 
      "name": "Kapelstraat", 
      "lonmin": 4.5953674974881515, 
      "sanName": "kapelstraat", 
      "numOfAddr": 94, 
      "lonmax": 4.616966680967064, 
      "latmin": 51.182183718528336
    }, 
    {
      "latmax": 51.217071201649425, 
      "name": "Kardinaal Cardijnlaan", 
      "lonmin": 4.599509683131159, 
      "sanName": "kardinaalcardijnlaan", 
      "numOfAddr": 46, 
      "lonmax": 4.602988643095919, 
      "latmin": 51.215132129403855
    }, 
    {
      "latmax": 51.19420852251121, 
      "name": "Kastanjelaan", 
      "lonmin": 4.553249167211957, 
      "sanName": "kastanjelaan", 
      "numOfAddr": 15, 
      "lonmax": 4.558094655082535, 
      "latmin": 51.193258399936155
    }, 
    {
      "latmax": 51.195275164769555, 
      "name": "Kasteeldreef", 
      "lonmin": 4.55766182481785, 
      "sanName": "kasteeldreef", 
      "numOfAddr": 11, 
      "lonmax": 4.559660870042021, 
      "latmin": 51.19339406127822
    }, 
    {
      "latmax": 51.218337016047556, 
      "name": "Keerbaan", 
      "lonmin": 4.552115916352656, 
      "sanName": "keerbaan", 
      "numOfAddr": 36, 
      "lonmax": 4.572239160186974, 
      "latmin": 51.21097495118936
    }, 
    {
      "latmax": 51.19413483578725, 
      "name": "Kempenlaan", 
      "lonmin": 4.540561867887632, 
      "sanName": "kempenlaan", 
      "numOfAddr": 1, 
      "lonmax": 4.540561867887632, 
      "latmin": 51.19413483578725
    }, 
    {
      "latmax": 51.210423582431716, 
      "name": "Kerkhoflei", 
      "lonmin": 4.596359268635988, 
      "sanName": "kerkhoflei", 
      "numOfAddr": 6, 
      "lonmax": 4.597462226555544, 
      "latmin": 51.209180251334786
    }, 
    {
      "latmax": 51.21107539856644, 
      "name": "Kerkstraat", 
      "lonmin": 4.598148721619601, 
      "sanName": "kerkstraat", 
      "numOfAddr": 26, 
      "lonmax": 4.59978415353815, 
      "latmin": 51.21030937207143
    }, 
    {
      "latmax": 51.161847418684935, 
      "name": "Kesselsesteenweg", 
      "lonmin": 4.605208730147451, 
      "sanName": "kesselsesteenweg", 
      "numOfAddr": 11, 
      "lonmax": 4.606377991236162, 
      "latmin": 51.16038797887435
    }, 
    {
      "latmax": 51.18801440258913, 
      "name": "Kievitlaan", 
      "lonmin": 4.554740225797842, 
      "sanName": "kievitlaan", 
      "numOfAddr": 59, 
      "lonmax": 4.55874546415706, 
      "latmin": 51.185503965433966
    }, 
    {
      "latmax": 51.175305668506326, 
      "name": "Klaverstraat", 
      "lonmin": 4.5851586279988545, 
      "sanName": "klaverstraat", 
      "numOfAddr": 9, 
      "lonmax": 4.591920042713104, 
      "latmin": 51.170896329806084
    }, 
    {
      "latmax": 51.16350772463612, 
      "name": "Kloosterstraat", 
      "lonmin": 4.603624073813853, 
      "sanName": "kloosterstraat", 
      "numOfAddr": 28, 
      "lonmax": 4.60653553318745, 
      "latmin": 51.16279854364175
    }, 
    {
      "latmax": 51.225620233299395, 
      "name": "Knodbaan", 
      "lonmin": 4.591558434477134, 
      "sanName": "knodbaan", 
      "numOfAddr": 166, 
      "lonmax": 4.621957156814577, 
      "latmin": 51.2156499081683
    }, 
    {
      "latmax": 51.21576787335243, 
      "name": "Konijnenbos", 
      "lonmin": 4.591310206035218, 
      "sanName": "konijnenbos", 
      "numOfAddr": 19, 
      "lonmax": 4.5930334361407, 
      "latmin": 51.21449036365225
    }, 
    {
      "latmax": 51.186138414401626, 
      "name": "Korenveld", 
      "lonmin": 4.5630647678563765, 
      "sanName": "korenveld", 
      "numOfAddr": 31, 
      "lonmax": 4.5651573615295105, 
      "latmin": 51.18418247019357
    }, 
    {
      "latmax": 51.155821344463895, 
      "name": "Kortestraat", 
      "lonmin": 4.5855625363113655, 
      "sanName": "kortestraat", 
      "numOfAddr": 1, 
      "lonmax": 4.5855625363113655, 
      "latmin": 51.155821344463895
    }, 
    {
      "latmax": 51.172453922325055, 
      "name": "Kreupelstraat", 
      "lonmin": 4.600909278574896, 
      "sanName": "kreupelstraat", 
      "numOfAddr": 34, 
      "lonmax": 4.611365985044935, 
      "latmin": 51.16635306198857
    }, 
    {
      "latmax": 51.19370945476442, 
      "name": "Kriekenstraat", 
      "lonmin": 4.546988688803393, 
      "sanName": "kriekenstraat", 
      "numOfAddr": 22, 
      "lonmax": 4.548423225380029, 
      "latmin": 51.18929340285089
    }, 
    {
      "latmax": 51.19465148808592, 
      "name": "Kromstraat", 
      "lonmin": 4.538505944998621, 
      "sanName": "kromstraat", 
      "numOfAddr": 108, 
      "lonmax": 4.557590729427668, 
      "latmin": 51.18935450267544
    }, 
    {
      "latmax": 51.18091805858549, 
      "name": "Kruizemuntlaan", 
      "lonmin": 4.5949932767026365, 
      "sanName": "kruizemuntlaan", 
      "numOfAddr": 14, 
      "lonmax": 4.596444400288704, 
      "latmin": 51.18029781075327
    }, 
    {
      "latmax": 51.194529955147644, 
      "name": "Laarstraat", 
      "lonmin": 4.56641261933055, 
      "sanName": "laarstraat", 
      "numOfAddr": 25, 
      "lonmax": 4.5792618711195505, 
      "latmin": 51.192184495096605
    }, 
    {
      "latmax": 51.213031941945395, 
      "name": "Lankveld", 
      "lonmin": 4.608709817511879, 
      "sanName": "lankveld", 
      "numOfAddr": 5, 
      "lonmax": 4.609294009507054, 
      "latmin": 51.21168005489542
    }, 
    {
      "latmax": 51.2181618404094, 
      "name": "le Roylaan", 
      "lonmin": 4.58594591385768, 
      "sanName": "leroylaan", 
      "numOfAddr": 27, 
      "lonmax": 4.590454652437992, 
      "latmin": 51.21742264425718
    }, 
    {
      "latmax": 51.1590043232603, 
      "name": "Liersesteenweg", 
      "lonmin": 4.577371639778107, 
      "sanName": "liersesteenweg", 
      "numOfAddr": 217, 
      "lonmax": 4.592017692391632, 
      "latmin": 51.14887163987394
    }, 
    {
      "latmax": 51.1904427617975, 
      "name": "Lievevrouwestraat", 
      "lonmin": 4.560827231359738, 
      "sanName": "lievevrouwestraat", 
      "numOfAddr": 65, 
      "lonmax": 4.564147105398711, 
      "latmin": 51.188205268370396
    }, 
    {
      "latmax": 51.18887645065803, 
      "name": "Lijsterlaan", 
      "lonmin": 4.556349939127831, 
      "sanName": "lijsterlaan", 
      "numOfAddr": 2, 
      "lonmax": 4.556654588577041, 
      "latmin": 51.188837314121706
    }, 
    {
      "latmax": 51.21726260923753, 
      "name": "Lindberg", 
      "lonmin": 4.594996677567031, 
      "sanName": "lindberg", 
      "numOfAddr": 50, 
      "lonmax": 4.598199992502123, 
      "latmin": 51.2148570072814
    }, 
    {
      "latmax": 51.19187359089895, 
      "name": "Lindenlaan", 
      "lonmin": 4.558744554466938, 
      "sanName": "lindenlaan", 
      "numOfAddr": 19, 
      "lonmax": 4.560276952724158, 
      "latmin": 51.191162106608246
    }, 
    {
      "latmax": 51.184152074311456, 
      "name": "Lostraat", 
      "lonmin": 4.6015566738114435, 
      "sanName": "lostraat", 
      "numOfAddr": 44, 
      "lonmax": 4.60234666577895, 
      "latmin": 51.18200961702388
    }, 
    {
      "latmax": 51.19528217061488, 
      "name": "Lothar Wyrtki-laan", 
      "lonmin": 4.543705923691752, 
      "sanName": "lotharwyrtkilaan", 
      "numOfAddr": 8, 
      "lonmax": 4.544675363578249, 
      "latmin": 51.19461727536918
    }, 
    {
      "latmax": 51.21549220379055, 
      "name": "Louis Ecranlaan", 
      "lonmin": 4.581766304309968, 
      "sanName": "louisecranlaan", 
      "numOfAddr": 29, 
      "lonmax": 4.586823712169319, 
      "latmin": 51.213946959391066
    }, 
    {
      "latmax": 51.20313990236828, 
      "name": "Maas en Moor", 
      "lonmin": 4.584685422499612, 
      "sanName": "maasenmoor", 
      "numOfAddr": 3, 
      "lonmax": 4.592748827923559, 
      "latmin": 51.19478001030261
    }, 
    {
      "latmax": 51.20459992332167, 
      "name": "Maasweg", 
      "lonmin": 4.592217008730674, 
      "sanName": "maasweg", 
      "numOfAddr": 3, 
      "lonmax": 4.592613468212586, 
      "latmin": 51.20338438378879
    }, 
    {
      "latmax": 51.18315220061667, 
      "name": "Maislaan", 
      "lonmin": 4.565164251669213, 
      "sanName": "maislaan", 
      "numOfAddr": 10, 
      "lonmax": 4.56622010887592, 
      "latmin": 51.18266124160087
    }, 
    {
      "latmax": 51.18493501940703, 
      "name": "Marreweg", 
      "lonmin": 4.567978679681781, 
      "sanName": "marreweg", 
      "numOfAddr": 22, 
      "lonmax": 4.573705004366314, 
      "latmin": 51.18014691825812
    }, 
    {
      "latmax": 51.19183107693901, 
      "name": "Massenhovensesteenweg", 
      "lonmin": 4.607231195941886, 
      "sanName": "massenhovensesteenweg", 
      "numOfAddr": 96, 
      "lonmax": 4.6271869063558375, 
      "latmin": 51.18049814507446
    }, 
    {
      "latmax": 51.21321933737504, 
      "name": "Meir", 
      "lonmin": 4.586522210581387, 
      "sanName": "meir", 
      "numOfAddr": 41, 
      "lonmax": 4.5907852167381735, 
      "latmin": 51.210938804056326
    }, 
    {
      "latmax": 51.18013580340733, 
      "name": "Melisselaan", 
      "lonmin": 4.5958867085739215, 
      "sanName": "melisselaan", 
      "numOfAddr": 11, 
      "lonmax": 4.597014971172647, 
      "latmin": 51.17967527470584
    }, 
    {
      "latmax": 51.18787831263254, 
      "name": "Merellaan", 
      "lonmin": 4.555351630157747, 
      "sanName": "merellaan", 
      "numOfAddr": 35, 
      "lonmax": 4.556313601008923, 
      "latmin": 51.18595298953553
    }, 
    {
      "latmax": 51.19217808893757, 
      "name": "Molenstraat", 
      "lonmin": 4.561299378430382, 
      "sanName": "molenstraat", 
      "numOfAddr": 76, 
      "lonmax": 4.5658622372440885, 
      "latmin": 51.19044066888945
    }, 
    {
      "latmax": 51.18399113565997, 
      "name": "Mollentstraat", 
      "lonmin": 4.607613682644346, 
      "sanName": "mollentstraat", 
      "numOfAddr": 45, 
      "lonmax": 4.630513136838304, 
      "latmin": 51.177869648241156
    }, 
    {
      "latmax": 51.1958132765643, 
      "name": "Moorstraat", 
      "lonmin": 4.584010650672296, 
      "sanName": "moorstraat", 
      "numOfAddr": 16, 
      "lonmax": 4.595551959027397, 
      "latmin": 51.187657562345386
    }, 
    {
      "latmax": 51.21731342973194, 
      "name": "Muizenheuvelstraat", 
      "lonmin": 4.593100566211065, 
      "sanName": "muizenheuvelstraat", 
      "numOfAddr": 52, 
      "lonmax": 4.595718793399686, 
      "latmin": 51.2121593079805
    }, 
    {
      "latmax": 51.15098657468106, 
      "name": "Mulderweg", 
      "lonmin": 4.573686030938024, 
      "sanName": "mulderweg", 
      "numOfAddr": 12, 
      "lonmax": 4.575707782967594, 
      "latmin": 51.15014154737715
    }, 
    {
      "latmax": 51.18874210133094, 
      "name": "Nachtegalenlaan", 
      "lonmin": 4.556699540285742, 
      "sanName": "nachtegalenlaan", 
      "numOfAddr": 9, 
      "lonmax": 4.557535095292425, 
      "latmin": 51.18809641336476
    }, 
    {
      "latmax": 51.18054507811678, 
      "name": "Nauwelaershoeven", 
      "lonmin": 4.6142909244544645, 
      "sanName": "nauwelaershoeven", 
      "numOfAddr": 9, 
      "lonmax": 4.615665881879854, 
      "latmin": 51.1798854936582
    }, 
    {
      "latmax": 51.179286267736536, 
      "name": "Nierlenderstraat", 
      "lonmin": 4.588334040116083, 
      "sanName": "nierlenderstraat", 
      "numOfAddr": 25, 
      "lonmax": 4.5926131637933105, 
      "latmin": 51.17767030946886
    }, 
    {
      "latmax": 51.21424833039477, 
      "name": "Nieuwelaan", 
      "lonmin": 4.591370826745866, 
      "sanName": "nieuwelaan", 
      "numOfAddr": 56, 
      "lonmax": 4.597743673767828, 
      "latmin": 51.21360594446181
    }, 
    {
      "latmax": 51.17922182196275, 
      "name": "Nijlensesteenweg", 
      "lonmin": 4.631090638209522, 
      "sanName": "nijlensesteenweg", 
      "numOfAddr": 3, 
      "lonmax": 4.632043589138515, 
      "latmin": 51.177723018831436
    }, 
    {
      "latmax": 51.157491647916615, 
      "name": "Notelaarweg", 
      "lonmin": 4.582936967913729, 
      "sanName": "notelaarweg", 
      "numOfAddr": 22, 
      "lonmax": 4.584967773015251, 
      "latmin": 51.15590029674695
    }, 
    {
      "latmax": 51.2049951381388, 
      "name": "Oelegemsesteenweg", 
      "lonmin": 4.595455959825187, 
      "sanName": "oelegemsesteenweg", 
      "numOfAddr": 55, 
      "lonmax": 4.605455879473895, 
      "latmin": 51.18434372217267
    }, 
    {
      "latmax": 51.15343450895209, 
      "name": "Oeverweg", 
      "lonmin": 4.574919158029561, 
      "sanName": "oeverweg", 
      "numOfAddr": 10, 
      "lonmax": 4.576435989920424, 
      "latmin": 51.15284990923514
    }, 
    {
      "latmax": 51.176288204805054, 
      "name": "Oostmalsesteenweg", 
      "lonmin": 4.59432728336574, 
      "sanName": "oostmalsesteenweg", 
      "numOfAddr": 111, 
      "lonmax": 4.629109900521506, 
      "latmin": 51.16043060909742
    }, 
    {
      "latmax": 51.20899823178748, 
      "name": "Oudebaan", 
      "lonmin": 4.601288457131315, 
      "sanName": "oudebaan", 
      "numOfAddr": 2, 
      "lonmax": 4.601610026516514, 
      "latmin": 51.20743261350836
    }, 
    {
      "latmax": 51.20437598385961, 
      "name": "Oude Vaartstraat", 
      "lonmin": 4.57262423694742, 
      "sanName": "oudevaartstraat", 
      "numOfAddr": 63, 
      "lonmax": 4.58317782706853, 
      "latmin": 51.2020063480606
    }, 
    {
      "latmax": 51.21382857911776, 
      "name": "Oudstrijdersstraat", 
      "lonmin": 4.582735305955992, 
      "sanName": "oudstrijdersstraat", 
      "numOfAddr": 148, 
      "lonmax": 4.596199705969117, 
      "latmin": 51.21101376948964
    }, 
    {
      "latmax": 51.21481240422351, 
      "name": "Pater Damiaanstraat", 
      "lonmin": 4.599773426604446, 
      "sanName": "paterdamiaanstraat", 
      "numOfAddr": 15, 
      "lonmax": 4.603603606561257, 
      "latmin": 51.21400860890892
    }, 
    {
      "latmax": 51.187087603690856, 
      "name": "Pater Domstraat", 
      "lonmin": 4.605558085634705, 
      "sanName": "paterdomstraat", 
      "numOfAddr": 44, 
      "lonmax": 4.607757788967888, 
      "latmin": 51.18080420215031
    }, 
    {
      "latmax": 51.18653549711732, 
      "name": "Patrijzenlaan", 
      "lonmin": 4.557873728131004, 
      "sanName": "patrijzenlaan", 
      "numOfAddr": 3, 
      "lonmax": 4.558469176617165, 
      "latmin": 51.18633847121109
    }, 
    {
      "latmax": 51.18938636607964, 
      "name": "Peeters-Reypensplein", 
      "lonmin": 4.565540435739644, 
      "sanName": "peetersreypensplein", 
      "numOfAddr": 5, 
      "lonmax": 4.56620920392114, 
      "latmin": 51.18884910605744
    }, 
    {
      "latmax": 51.182304757516555, 
      "name": "Pertendonckstraat", 
      "lonmin": 4.594671015609756, 
      "sanName": "pertendonckstraat", 
      "numOfAddr": 64, 
      "lonmax": 4.600628132127642, 
      "latmin": 51.18129468144204
    }, 
    {
      "latmax": 51.191803801915746, 
      "name": "Peupelaarsweg", 
      "lonmin": 4.545209507209277, 
      "sanName": "peupelaarsweg", 
      "numOfAddr": 4, 
      "lonmax": 4.546189670307355, 
      "latmin": 51.19172657265253
    }, 
    {
      "latmax": 51.18116915912349, 
      "name": "Praetershoekweg", 
      "lonmin": 4.599727413593706, 
      "sanName": "praetershoekweg", 
      "numOfAddr": 2, 
      "lonmax": 4.601070973894855, 
      "latmin": 51.18061812414245
    }, 
    {
      "latmax": 51.1918991907502, 
      "name": "Processieweg", 
      "lonmin": 4.565674627835535, 
      "sanName": "processieweg", 
      "numOfAddr": 54, 
      "lonmax": 4.568798241761024, 
      "latmin": 51.18832796115084
    }, 
    {
      "latmax": 51.18936786253629, 
      "name": "Profeetstraat", 
      "lonmin": 4.545750078174741, 
      "sanName": "profeetstraat", 
      "numOfAddr": 82, 
      "lonmax": 4.555422123876728, 
      "latmin": 51.18514067953979
    }, 
    {
      "latmax": 51.15460669822108, 
      "name": "Ranstsebinnenweg", 
      "lonmin": 4.572903556814303, 
      "sanName": "ranstsebinnenweg", 
      "numOfAddr": 42, 
      "lonmax": 4.575704708349961, 
      "latmin": 51.15083565117646
    }, 
    {
      "latmax": 51.18761057912486, 
      "name": "Ranstsesteenweg", 
      "lonmin": 4.560097100183034, 
      "sanName": "ranstsesteenweg", 
      "numOfAddr": 161, 
      "lonmax": 4.580605475018, 
      "latmin": 51.152448209716965
    }, 
    {
      "latmax": 51.184881992678136, 
      "name": "Rembrandtlaan", 
      "lonmin": 4.59415169063301, 
      "sanName": "rembrandtlaan", 
      "numOfAddr": 29, 
      "lonmax": 4.595417013610421, 
      "latmin": 51.18331249727815
    }, 
    {
      "latmax": 51.184145939727735, 
      "name": "Roggelaan", 
      "lonmin": 4.565206138145663, 
      "sanName": "roggelaan", 
      "numOfAddr": 9, 
      "lonmax": 4.565837366927425, 
      "latmin": 51.18356135742614
    }, 
    {
      "latmax": 51.19109700320821, 
      "name": "Rozenlaan", 
      "lonmin": 4.562929956498242, 
      "sanName": "rozenlaan", 
      "numOfAddr": 22, 
      "lonmax": 4.564619346008152, 
      "latmin": 51.189087019171744
    }, 
    {
      "latmax": 51.18653003942656, 
      "name": "Rubenslaan", 
      "lonmin": 4.587238113244306, 
      "sanName": "rubenslaan", 
      "numOfAddr": 51, 
      "lonmax": 4.597677723884278, 
      "latmin": 51.183833685360476
    }, 
    {
      "latmax": 51.22123782991184, 
      "name": "Rundvoortstraat", 
      "lonmin": 4.584739780272492, 
      "sanName": "rundvoortstraat", 
      "numOfAddr": 65, 
      "lonmax": 4.5926877150615, 
      "latmin": 51.2102074782242
    }, 
    {
      "latmax": 51.17979808600346, 
      "name": "Salielaan", 
      "lonmin": 4.594259742331388, 
      "sanName": "salielaan", 
      "numOfAddr": 8, 
      "lonmax": 4.594877912809246, 
      "latmin": 51.17932650164087
    }, 
    {
      "latmax": 51.18910217840477, 
      "name": "Salvialaan", 
      "lonmin": 4.563872499807035, 
      "sanName": "salvialaan", 
      "numOfAddr": 10, 
      "lonmax": 4.565381723829863, 
      "latmin": 51.188489586208675
    }, 
    {
      "latmax": 51.18283829228397, 
      "name": "Schaepsvonderlaan", 
      "lonmin": 4.562686308210729, 
      "sanName": "schaepsvonderlaan", 
      "numOfAddr": 16, 
      "lonmax": 4.564693044832565, 
      "latmin": 51.18206280099173
    }, 
    {
      "latmax": 51.186107713075586, 
      "name": "Schaubroekweg", 
      "lonmin": 4.542387145163245, 
      "sanName": "schaubroekweg", 
      "numOfAddr": 3, 
      "lonmax": 4.542817578291128, 
      "latmin": 51.18585076550145
    }, 
    {
      "latmax": 51.208420247852686, 
      "name": "Schawijkplasweg", 
      "lonmin": 4.540915631480258, 
      "sanName": "schawijkplasweg", 
      "numOfAddr": 11, 
      "lonmax": 4.549960000497547, 
      "latmin": 51.20045516164947
    }, 
    {
      "latmax": 51.202798049714104, 
      "name": "Schawijkstraat", 
      "lonmin": 4.539698105692442, 
      "sanName": "schawijkstraat", 
      "numOfAddr": 88, 
      "lonmax": 4.56172919784342, 
      "latmin": 51.19439801606983
    }, 
    {
      "latmax": 51.18106807341148, 
      "name": "Schelkenshof", 
      "lonmin": 4.597970743365061, 
      "sanName": "schelkenshof", 
      "numOfAddr": 30, 
      "lonmax": 4.600384739581583, 
      "latmin": 51.179387944300935
    }, 
    {
      "latmax": 51.224998235667236, 
      "name": "Schildesteenweg", 
      "lonmin": 4.596724107767241, 
      "sanName": "schildesteenweg", 
      "numOfAddr": 93, 
      "lonmax": 4.606543267930727, 
      "latmin": 51.211173940110946
    }, 
    {
      "latmax": 51.19221736470638, 
      "name": "Schoolstraat", 
      "lonmin": 4.559874260181779, 
      "sanName": "schoolstraat", 
      "numOfAddr": 28, 
      "lonmax": 4.56139748133342, 
      "latmin": 51.19069231955977
    }, 
    {
      "latmax": 51.15559913530971, 
      "name": "Schranshoeveweg", 
      "lonmin": 4.573175954274051, 
      "sanName": "schranshoeveweg", 
      "numOfAddr": 23, 
      "lonmax": 4.576294569283895, 
      "latmin": 51.15378550144085
    }, 
    {
      "latmax": 51.21273826144032, 
      "name": "Schransken", 
      "lonmin": 4.597991921366482, 
      "sanName": "schransken", 
      "numOfAddr": 17, 
      "lonmax": 4.598650009952476, 
      "latmin": 51.211592380135016
    }, 
    {
      "latmax": 51.21167998209499, 
      "name": "Schuurblok", 
      "lonmin": 4.601427110900832, 
      "sanName": "schuurblok", 
      "numOfAddr": 17, 
      "lonmax": 4.603275910163425, 
      "latmin": 51.21121408409533
    }, 
    {
      "latmax": 51.1976634145093, 
      "name": "Selsaetenstraat", 
      "lonmin": 4.540321684169989, 
      "sanName": "selsaetenstraat", 
      "numOfAddr": 21, 
      "lonmax": 4.542936052557926, 
      "latmin": 51.19602110726224
    }, 
    {
      "latmax": 51.187268962967394, 
      "name": "Sint Antoniusstraat", 
      "lonmin": 4.5459777173174505, 
      "sanName": "sintantoniusstraat", 
      "numOfAddr": 41, 
      "lonmax": 4.549592774779987, 
      "latmin": 51.183486821595714
    }, 
    {
      "latmax": 51.185098524582536, 
      "name": "Sintelweg", 
      "lonmin": 4.5906483285606745, 
      "sanName": "sintelweg", 
      "numOfAddr": 11, 
      "lonmax": 4.591304364185977, 
      "latmin": 51.181469933284504
    }, 
    {
      "latmax": 51.171681086517175, 
      "name": "Sint Gummarusstraat", 
      "lonmin": 4.584759096211902, 
      "sanName": "sintgummarusstraat", 
      "numOfAddr": 21, 
      "lonmax": 4.592015673417278, 
      "latmin": 51.16376762555108
    }, 
    {
      "latmax": 51.16065165165649, 
      "name": "Sint-Gummarusveld", 
      "lonmin": 4.600300194360816, 
      "sanName": "sintgummarusveld", 
      "numOfAddr": 2, 
      "lonmax": 4.600476438471955, 
      "latmin": 51.15927457928503
    }, 
    {
      "latmax": 51.17628358178565, 
      "name": "Sint Jozef", 
      "lonmin": 4.58375049514245, 
      "sanName": "sintjozef", 
      "numOfAddr": 6, 
      "lonmax": 4.587784893002363, 
      "latmin": 51.171142158069124
    }, 
    {
      "latmax": 51.180059286967754, 
      "name": "Slijkstraat", 
      "lonmin": 4.579833042046444, 
      "sanName": "slijkstraat", 
      "numOfAddr": 5, 
      "lonmax": 4.581546760183105, 
      "latmin": 51.178417534709155
    }, 
    {
      "latmax": 51.15840280809947, 
      "name": "Sparrenweg", 
      "lonmin": 4.576215466591264, 
      "sanName": "sparrenweg", 
      "numOfAddr": 27, 
      "lonmax": 4.579606167793344, 
      "latmin": 51.157403604031806
    }, 
    {
      "latmax": 51.15801990616688, 
      "name": "Spoorweglei", 
      "lonmin": 4.584237344891316, 
      "sanName": "spoorweglei", 
      "numOfAddr": 42, 
      "lonmax": 4.587187281491248, 
      "latmin": 51.156366037276584
    }, 
    {
      "latmax": 51.19615347462942, 
      "name": "Spruytershofstraat", 
      "lonmin": 4.544636438834532, 
      "sanName": "spruytershofstraat", 
      "numOfAddr": 23, 
      "lonmax": 4.546997047788889, 
      "latmin": 51.1942557455519
    }, 
    {
      "latmax": 51.163255726051425, 
      "name": "Stapstraat", 
      "lonmin": 4.602712386715262, 
      "sanName": "stapstraat", 
      "numOfAddr": 10, 
      "lonmax": 4.603669487719301, 
      "latmin": 51.162521611573375
    }, 
    {
      "latmax": 51.18031410752324, 
      "name": "Steenweg op 't Fort", 
      "lonmin": 4.60822441193444, 
      "sanName": "steenwegoptfort", 
      "numOfAddr": 9, 
      "lonmax": 4.61445522922067, 
      "latmin": 51.178333305238596
    }, 
    {
      "latmax": 51.193470615911295, 
      "name": "Stenenkruisstraat", 
      "lonmin": 4.532097942207976, 
      "sanName": "stenenkruisstraat", 
      "numOfAddr": 21, 
      "lonmax": 4.53830953693711, 
      "latmin": 51.190506902117576
    }, 
    {
      "latmax": 51.18229971281341, 
      "name": "Streep", 
      "lonmin": 4.602710167317947, 
      "sanName": "streep", 
      "numOfAddr": 35, 
      "lonmax": 4.606467050793257, 
      "latmin": 51.18099460087531
    }, 
    {
      "latmax": 51.183602250566665, 
      "name": "Tarwelaan", 
      "lonmin": 4.562369816483732, 
      "sanName": "tarwelaan", 
      "numOfAddr": 25, 
      "lonmax": 4.564834411755317, 
      "latmin": 51.18248081574117
    }, 
    {
      "latmax": 51.15499851130614, 
      "name": "Ten Velde", 
      "lonmin": 4.578646024088516, 
      "sanName": "tenvelde", 
      "numOfAddr": 15, 
      "lonmax": 4.580589297128545, 
      "latmin": 51.153875010241265
    }, 
    {
      "latmax": 51.18350725028111, 
      "name": "Ter Elst", 
      "lonmin": 4.567463096461085, 
      "sanName": "terelst", 
      "numOfAddr": 8, 
      "lonmax": 4.568931982649409, 
      "latmin": 51.18274923827783
    }, 
    {
      "latmax": 51.21338498546358, 
      "name": "Ter Stratenweg", 
      "lonmin": 4.575201839889729, 
      "sanName": "terstratenweg", 
      "numOfAddr": 46, 
      "lonmax": 4.587591574599388, 
      "latmin": 51.20686545828654
    }, 
    {
      "latmax": 51.16581738944539, 
      "name": "Tongelweg", 
      "lonmin": 4.593841641457723, 
      "sanName": "tongelweg", 
      "numOfAddr": 9, 
      "lonmax": 4.598232172441921, 
      "latmin": 51.16405375891325
    }, 
    {
      "latmax": 51.17155507807476, 
      "name": "Torekenshoefstraat", 
      "lonmin": 4.59261284922918, 
      "sanName": "torekenshoefstraat", 
      "numOfAddr": 18, 
      "lonmax": 4.594558087544462, 
      "latmin": 51.16997763325959
    }, 
    {
      "latmax": 51.21132631347497, 
      "name": "Torenplein", 
      "lonmin": 4.596340736075682, 
      "sanName": "torenplein", 
      "numOfAddr": 19, 
      "lonmax": 4.598184131100292, 
      "latmin": 51.210670540615276
    }, 
    {
      "latmax": 51.18931867208776, 
      "name": "Tulpenlaan", 
      "lonmin": 4.566859638416248, 
      "sanName": "tulpenlaan", 
      "numOfAddr": 15, 
      "lonmax": 4.5680532783138, 
      "latmin": 51.188124835449806
    }, 
    {
      "latmax": 51.20789230551931, 
      "name": "Vaartstraat", 
      "lonmin": 4.562717866071874, 
      "sanName": "vaartstraat", 
      "numOfAddr": 168, 
      "lonmax": 4.599542299191555, 
      "latmin": 51.19196334266947
    }, 
    {
      "latmax": 51.188288301583505, 
      "name": "Valkenlaan", 
      "lonmin": 4.5536047181980654, 
      "sanName": "valkenlaan", 
      "numOfAddr": 26, 
      "lonmax": 4.557228194342152, 
      "latmin": 51.1873934494792
    }, 
    {
      "latmax": 51.21708696582682, 
      "name": "van Colenlaan", 
      "lonmin": 4.585817707714046, 
      "sanName": "vancolenlaan", 
      "numOfAddr": 21, 
      "lonmax": 4.588838746511009, 
      "latmin": 51.216231075054495
    }, 
    {
      "latmax": 51.181296869928424, 
      "name": "Van den Nestlaan", 
      "lonmin": 4.558965780426191, 
      "sanName": "vandennestlaan", 
      "numOfAddr": 145, 
      "lonmax": 4.592991753016072, 
      "latmin": 51.17228988516144
    }, 
    {
      "latmax": 51.18455504603196, 
      "name": "Van Dycklaan", 
      "lonmin": 4.5938853267962285, 
      "sanName": "vandycklaan", 
      "numOfAddr": 1, 
      "lonmax": 4.5938853267962285, 
      "latmin": 51.18455504603196
    }, 
    {
      "latmax": 51.219115055895976, 
      "name": "van Edinghenlaan", 
      "lonmin": 4.583370885586908, 
      "sanName": "vanedinghenlaan", 
      "numOfAddr": 12, 
      "lonmax": 4.585272992460252, 
      "latmin": 51.218603242184955
    }, 
    {
      "latmax": 51.218293600680106, 
      "name": "van Gheldenakenlaan", 
      "lonmin": 4.582580568337509, 
      "sanName": "vangheldenakenlaan", 
      "numOfAddr": 11, 
      "lonmax": 4.584348489179311, 
      "latmin": 51.217834710103276
    }, 
    {
      "latmax": 51.21913104495734, 
      "name": "van Halmalelaan", 
      "lonmin": 4.580325981956126, 
      "sanName": "vanhalmalelaan", 
      "numOfAddr": 19, 
      "lonmax": 4.582918892358106, 
      "latmin": 51.217127337961145
    }, 
    {
      "latmax": 51.219496878809814, 
      "name": "van Steenbergenlaan", 
      "lonmin": 4.585611504872766, 
      "sanName": "vansteenbergenlaan", 
      "numOfAddr": 31, 
      "lonmax": 4.589270284810165, 
      "latmin": 51.21783127461499
    }, 
    {
      "latmax": 51.218972365991114, 
      "name": "van Vrieselelaan", 
      "lonmin": 4.584637844503603, 
      "sanName": "vanvrieselelaan", 
      "numOfAddr": 16, 
      "lonmax": 4.585689495620313, 
      "latmin": 51.2164016326677
    }, 
    {
      "latmax": 51.21265886028399, 
      "name": "Veenmolstraat", 
      "lonmin": 4.588111007281071, 
      "sanName": "veenmolstraat", 
      "numOfAddr": 12, 
      "lonmax": 4.590340705540145, 
      "latmin": 51.21223614256326
    }, 
    {
      "latmax": 51.1876290749361, 
      "name": "Veldstraat", 
      "lonmin": 4.564488960243402, 
      "sanName": "veldstraat", 
      "numOfAddr": 91, 
      "lonmax": 4.568206806234675, 
      "latmin": 51.18079227883132
    }, 
    {
      "latmax": 51.216580436888286, 
      "name": "Venusstraat", 
      "lonmin": 4.5979204705289245, 
      "sanName": "venusstraat", 
      "numOfAddr": 60, 
      "lonmax": 4.607167215427258, 
      "latmin": 51.21267368091472
    }, 
    {
      "latmax": 51.171259998743366, 
      "name": "Venweg", 
      "lonmin": 4.611909656879817, 
      "sanName": "venweg", 
      "numOfAddr": 18, 
      "lonmax": 4.614212764807485, 
      "latmin": 51.167275877690095
    }, 
    {
      "latmax": 51.21487492810832, 
      "name": "Vincent Goossenslaan", 
      "lonmin": 4.599070656246126, 
      "sanName": "vincentgoossenslaan", 
      "numOfAddr": 18, 
      "lonmax": 4.60057270026385, 
      "latmin": 51.21103335457207
    }, 
    {
      "latmax": 51.20193711548481, 
      "name": "Vinkenstraat", 
      "lonmin": 4.545898374389659, 
      "sanName": "vinkenstraat", 
      "numOfAddr": 7, 
      "lonmax": 4.547415052598652, 
      "latmin": 51.20031347202022
    }, 
    {
      "latmax": 51.16701266917665, 
      "name": "Visvijverstraat", 
      "lonmin": 4.614843812157339, 
      "sanName": "visvijverstraat", 
      "numOfAddr": 17, 
      "lonmax": 4.617169350094026, 
      "latmin": 51.165399967018615
    }, 
    {
      "latmax": 51.21057442462512, 
      "name": "Vlotstraat", 
      "lonmin": 4.597357626372176, 
      "sanName": "vlotstraat", 
      "numOfAddr": 37, 
      "lonmax": 4.5986902169428365, 
      "latmin": 51.20833748576646
    }, 
    {
      "latmax": 51.182799802947926, 
      "name": "Voetweg", 
      "lonmin": 4.603090693377592, 
      "sanName": "voetweg", 
      "numOfAddr": 8, 
      "lonmax": 4.603577221698231, 
      "latmin": 51.18239729406027
    }, 
    {
      "latmax": 51.18027886344291, 
      "name": "Vorstjensweg", 
      "lonmin": 4.602008256776429, 
      "sanName": "vorstjensweg", 
      "numOfAddr": 27, 
      "lonmax": 4.603473765092098, 
      "latmin": 51.178210475099526
    }, 
    {
      "latmax": 51.170620028947525, 
      "name": "Vremderhoeven", 
      "lonmin": 4.564609575823985, 
      "sanName": "vremderhoeven", 
      "numOfAddr": 7, 
      "lonmax": 4.568368231184944, 
      "latmin": 51.166810619868485
    }, 
    {
      "latmax": 51.158691656532575, 
      "name": "Vruntebaan", 
      "lonmin": 4.577231624760847, 
      "sanName": "vruntebaan", 
      "numOfAddr": 36, 
      "lonmax": 4.582298868792392, 
      "latmin": 51.15577430240901
    }, 
    {
      "latmax": 51.15721508369498, 
      "name": "Weidestraat", 
      "lonmin": 4.574776911907553, 
      "sanName": "weidestraat", 
      "numOfAddr": 4, 
      "lonmax": 4.575205702516381, 
      "latmin": 51.1567239403843
    }, 
    {
      "latmax": 51.209836839563586, 
      "name": "Wijnegembaan", 
      "lonmin": 4.5448570747194275, 
      "sanName": "wijnegembaan", 
      "numOfAddr": 10, 
      "lonmax": 4.553473873964155, 
      "latmin": 51.20235961753628
    }, 
    {
      "latmax": 51.19356831948883, 
      "name": "Wilgenlaan", 
      "lonmin": 4.556830637741163, 
      "sanName": "wilgenlaan", 
      "numOfAddr": 15, 
      "lonmax": 4.557719566702028, 
      "latmin": 51.19220082189747
    }, 
    {
      "latmax": 51.19876330353726, 
      "name": "Zakstraat", 
      "lonmin": 4.5686719611872695, 
      "sanName": "zakstraat", 
      "numOfAddr": 26, 
      "lonmax": 4.578547383039544, 
      "latmin": 51.19552583294831
    }, 
    {
      "latmax": 51.21371250338283, 
      "name": "Zandhovensteenweg", 
      "lonmin": 4.601090938525391, 
      "sanName": "zandhovensteenweg", 
      "numOfAddr": 92, 
      "lonmax": 4.626820651522674, 
      "latmin": 51.20909403759416
    }, 
    {
      "latmax": 51.21632732238914, 
      "name": "Zavelstraat", 
      "lonmin": 4.554610846275156, 
      "sanName": "zavelstraat", 
      "numOfAddr": 9, 
      "lonmax": 4.563242626336543, 
      "latmin": 51.20842765147567
    }, 
    {
      "latmax": 51.19350298095483, 
      "name": "Zevenbergenlaan", 
      "lonmin": 4.5601656407694175, 
      "sanName": "zevenbergenlaan", 
      "numOfAddr": 43, 
      "lonmax": 4.564446070659713, 
      "latmin": 51.1922559796061
    }, 
    {
      "latmax": 51.187744768610095, 
      "name": "Zwaluwenlaan", 
      "lonmin": 4.552721668367593, 
      "sanName": "zwaluwenlaan", 
      "numOfAddr": 27, 
      "lonmax": 4.554395930004875, 
      "latmin": 51.18568839550986
    }, 
    {
      "latmax": 51.2150876817959, 
      "name": "Zwetstraat", 
      "lonmin": 4.550795398274921, 
      "sanName": "zwetstraat", 
      "numOfAddr": 9, 
      "lonmax": 4.5554019129083345, 
      "latmin": 51.21274720719343
    }
  ]
}