{
  "streets": [
    {
      "latmax": 51.08838098560171, 
      "name": "Aarschotsebaan", 
      "lonmin": 4.634384574525084, 
      "sanName": "aarschotsebaan", 
      "numOfAddr": 236, 
      "lonmax": 4.673046621039663, 
      "latmin": 51.0806933825401
    }, 
    {
      "latmax": 51.125660796205885, 
      "name": "Achterhoek", 
      "lonmin": 4.66479030462112, 
      "sanName": "achterhoek", 
      "numOfAddr": 5, 
      "lonmax": 4.667444819785753, 
      "latmin": 51.12490217130443
    }, 
    {
      "latmax": 51.10512688965135, 
      "name": "Alflaar", 
      "lonmin": 4.65509410210887, 
      "sanName": "alflaar", 
      "numOfAddr": 37, 
      "lonmax": 4.669273449576391, 
      "latmin": 51.09699646657532
    }, 
    {
      "latmax": 51.12052112466037, 
      "name": "Alpenroosstraat", 
      "lonmin": 4.650960832040148, 
      "sanName": "alpenroosstraat", 
      "numOfAddr": 49, 
      "lonmax": 4.654371555750199, 
      "latmin": 51.117563415619394
    }, 
    {
      "latmax": 51.11392583407117, 
      "name": "Anjerstraat", 
      "lonmin": 4.633432470287809, 
      "sanName": "anjerstraat", 
      "numOfAddr": 22, 
      "lonmax": 4.636458920618967, 
      "latmin": 51.111931082637795
    }, 
    {
      "latmax": 51.11466540555291, 
      "name": "Azaleastraat", 
      "lonmin": 4.638196758115303, 
      "sanName": "azaleastraat", 
      "numOfAddr": 6, 
      "lonmax": 4.638858954854974, 
      "latmin": 51.11417148053369
    }, 
    {
      "latmax": 51.12011671473066, 
      "name": "Ballaarweg", 
      "lonmin": 4.659549061516926, 
      "sanName": "ballaarweg", 
      "numOfAddr": 7, 
      "lonmax": 4.660890307710568, 
      "latmin": 51.11921533509918
    }, 
    {
      "latmax": 51.119726984752795, 
      "name": "Bastijnstraat", 
      "lonmin": 4.618524333470176, 
      "sanName": "bastijnstraat", 
      "numOfAddr": 66, 
      "lonmax": 4.632036215374712, 
      "latmin": 51.1095164496495
    }, 
    {
      "latmax": 51.11886935210076, 
      "name": "Berglaag", 
      "lonmin": 4.646172013334677, 
      "sanName": "berglaag", 
      "numOfAddr": 10, 
      "lonmax": 4.647289652930973, 
      "latmin": 51.11767669546907
    }, 
    {
      "latmax": 51.08268458796159, 
      "name": "Berkenstraat", 
      "lonmin": 4.66650436125864, 
      "sanName": "berkenstraat", 
      "numOfAddr": 15, 
      "lonmax": 4.668398597328419, 
      "latmin": 51.08202113618906
    }, 
    {
      "latmax": 51.11361453960832, 
      "name": "Bijenhof", 
      "lonmin": 4.636314502970276, 
      "sanName": "bijenhof", 
      "numOfAddr": 21, 
      "lonmax": 4.637459715077483, 
      "latmin": 51.112604989872764
    }, 
    {
      "latmax": 51.11258030169104, 
      "name": "Bolweg", 
      "lonmin": 4.650825245336302, 
      "sanName": "bolweg", 
      "numOfAddr": 8, 
      "lonmax": 4.651581815177143, 
      "latmin": 51.112088385586574
    }, 
    {
      "latmax": 51.11264444909596, 
      "name": "Bossen", 
      "lonmin": 4.631558440498851, 
      "sanName": "bossen", 
      "numOfAddr": 18, 
      "lonmax": 4.633362470587427, 
      "latmin": 51.1112434600641
    }, 
    {
      "latmax": 51.10840128401608, 
      "name": "Bosstraat", 
      "lonmin": 4.667957786218387, 
      "sanName": "bosstraat", 
      "numOfAddr": 28, 
      "lonmax": 4.677864919785936, 
      "latmin": 51.09931326166696
    }, 
    {
      "latmax": 51.1190921869012, 
      "name": "Brandestraat", 
      "lonmin": 4.634079012941527, 
      "sanName": "brandestraat", 
      "numOfAddr": 36, 
      "lonmax": 4.652210616025736, 
      "latmin": 51.09011285859487
    }, 
    {
      "latmax": 51.11568661635525, 
      "name": "Brassoi", 
      "lonmin": 4.655336962026836, 
      "sanName": "brassoi", 
      "numOfAddr": 28, 
      "lonmax": 4.657616636429156, 
      "latmin": 51.114751867658306
    }, 
    {
      "latmax": 51.11697910117788, 
      "name": "Bremstraat", 
      "lonmin": 4.644184994668951, 
      "sanName": "bremstraat", 
      "numOfAddr": 18, 
      "lonmax": 4.645998620612406, 
      "latmin": 51.1158018689085
    }, 
    {
      "latmax": 51.096473714258686, 
      "name": "Broekweg", 
      "lonmin": 4.6766062882803014, 
      "sanName": "broekweg", 
      "numOfAddr": 6, 
      "lonmax": 4.690959229735691, 
      "latmin": 51.09567585315984
    }, 
    {
      "latmax": 51.11627976143573, 
      "name": "Constant Verhulststraat", 
      "lonmin": 4.665935908357579, 
      "sanName": "constantverhulststraat", 
      "numOfAddr": 40, 
      "lonmax": 4.672714060944205, 
      "latmin": 51.110672989258994
    }, 
    {
      "latmax": 51.12145323468723, 
      "name": "Daalstraat", 
      "lonmin": 4.654041520012352, 
      "sanName": "daalstraat", 
      "numOfAddr": 54, 
      "lonmax": 4.656559983449589, 
      "latmin": 51.11791630059676
    }, 
    {
      "latmax": 51.096185167594726, 
      "name": "Dennenweg", 
      "lonmin": 4.67563711503031, 
      "sanName": "dennenweg", 
      "numOfAddr": 4, 
      "lonmax": 4.676051925309982, 
      "latmin": 51.09584221331593
    }, 
    {
      "latmax": 51.11460113042165, 
      "name": "Diamantstraat", 
      "lonmin": 4.644636708527359, 
      "sanName": "diamantstraat", 
      "numOfAddr": 26, 
      "lonmax": 4.645656009151805, 
      "latmin": 51.113067413704236
    }, 
    {
      "latmax": 51.11468599048955, 
      "name": "Doelstraat", 
      "lonmin": 4.6410854178341845, 
      "sanName": "doelstraat", 
      "numOfAddr": 124, 
      "lonmax": 4.651789389540534, 
      "latmin": 51.11185881792628
    }, 
    {
      "latmax": 51.11046348472386, 
      "name": "Doelvelden", 
      "lonmin": 4.643198897027146, 
      "sanName": "doelvelden", 
      "numOfAddr": 9, 
      "lonmax": 4.646691243243662, 
      "latmin": 51.10714535734007
    }, 
    {
      "latmax": 51.12000359589747, 
      "name": "Dokter Van der Borghtstraat", 
      "lonmin": 4.657374133337872, 
      "sanName": "doktervanderborghtstraat", 
      "numOfAddr": 16, 
      "lonmax": 4.658877005590337, 
      "latmin": 51.119245771247236
    }, 
    {
      "latmax": 51.11417725979067, 
      "name": "Dokter Van Hoofstraat", 
      "lonmin": 4.6641165105471085, 
      "sanName": "doktervanhoofstraat", 
      "numOfAddr": 16, 
      "lonmax": 4.66579297264571, 
      "latmin": 51.11311270552551
    }, 
    {
      "latmax": 51.11862374917499, 
      "name": "Dorpsstraat", 
      "lonmin": 4.650516076458193, 
      "sanName": "dorpsstraat", 
      "numOfAddr": 64, 
      "lonmax": 4.65627815736509, 
      "latmin": 51.11664474032596
    }, 
    {
      "latmax": 51.12609050410019, 
      "name": "Dreef", 
      "lonmin": 4.660158274038431, 
      "sanName": "dreef", 
      "numOfAddr": 1, 
      "lonmax": 4.660158274038431, 
      "latmin": 51.12609050410019
    }, 
    {
      "latmax": 51.11347904791819, 
      "name": "Ebroek", 
      "lonmin": 4.658089116854882, 
      "sanName": "ebroek", 
      "numOfAddr": 10, 
      "lonmax": 4.665652282886243, 
      "latmin": 51.10426253908499
    }, 
    {
      "latmax": 51.11590582647567, 
      "name": "Ernest van Dyckstraat", 
      "lonmin": 4.661564296655485, 
      "sanName": "ernestvandyckstraat", 
      "numOfAddr": 17, 
      "lonmax": 4.664333622281299, 
      "latmin": 51.1147857194043
    }, 
    {
      "latmax": 51.1075842243626, 
      "name": "Ezenhoek", 
      "lonmin": 4.686124589880917, 
      "sanName": "ezenhoek", 
      "numOfAddr": 46, 
      "lonmax": 4.695480924712314, 
      "latmin": 51.099928685179556
    }, 
    {
      "latmax": 51.121951107947325, 
      "name": "Fertlarelei", 
      "lonmin": 4.6432603563832275, 
      "sanName": "fertlarelei", 
      "numOfAddr": 35, 
      "lonmax": 4.645681245990203, 
      "latmin": 51.11794815777828
    }, 
    {
      "latmax": 51.115148138039885, 
      "name": "F.J. Houbenstraat", 
      "lonmin": 4.649222758674506, 
      "sanName": "fjhoubenstraat", 
      "numOfAddr": 3, 
      "lonmax": 4.650626203241002, 
      "latmin": 51.11501489643275
    }, 
    {
      "latmax": 51.091328797382445, 
      "name": "Gangelberg", 
      "lonmin": 4.647551482360037, 
      "sanName": "gangelberg", 
      "numOfAddr": 7, 
      "lonmax": 4.652138535265138, 
      "latmin": 51.08618606917419
    }, 
    {
      "latmax": 51.1165159217304, 
      "name": "Gasbakstraat", 
      "lonmin": 4.650090975165862, 
      "sanName": "gasbakstraat", 
      "numOfAddr": 6, 
      "lonmax": 4.651544109798985, 
      "latmin": 51.11556412478876
    }, 
    {
      "latmax": 51.130600866189766, 
      "name": "Gestelhof", 
      "lonmin": 4.660639188027538, 
      "sanName": "gestelhof", 
      "numOfAddr": 3, 
      "lonmax": 4.661839557426915, 
      "latmin": 51.12852390581815
    }, 
    {
      "latmax": 51.11244881981701, 
      "name": "Havikstraat", 
      "lonmin": 4.646998944773028, 
      "sanName": "havikstraat", 
      "numOfAddr": 57, 
      "lonmax": 4.649560949888197, 
      "latmin": 51.10897284473676
    }, 
    {
      "latmax": 51.094284488618555, 
      "name": "Heestenweg", 
      "lonmin": 4.672084448683453, 
      "sanName": "heestenweg", 
      "numOfAddr": 14, 
      "lonmax": 4.674504596354008, 
      "latmin": 51.092785528844985
    }, 
    {
      "latmax": 51.08321965502593, 
      "name": "Heideroosstraat", 
      "lonmin": 4.670184639871514, 
      "sanName": "heideroosstraat", 
      "numOfAddr": 13, 
      "lonmax": 4.671645585423492, 
      "latmin": 51.08247498227305
    }, 
    {
      "latmax": 51.09093410515339, 
      "name": "Heidestraat", 
      "lonmin": 4.655851998869192, 
      "sanName": "heidestraat", 
      "numOfAddr": 63, 
      "lonmax": 4.669414342988633, 
      "latmin": 51.08557921315324
    }, 
    {
      "latmax": 51.08395412918266, 
      "name": "Heikanthof", 
      "lonmin": 4.65678281245258, 
      "sanName": "heikanthof", 
      "numOfAddr": 19, 
      "lonmax": 4.658816832942952, 
      "latmin": 51.08252708983004
    }, 
    {
      "latmax": 51.084937221366374, 
      "name": "Heimolenstraat", 
      "lonmin": 4.671179839807284, 
      "sanName": "heimolenstraat", 
      "numOfAddr": 15, 
      "lonmax": 4.672144573373358, 
      "latmin": 51.08251093943281
    }, 
    {
      "latmax": 51.08793485707103, 
      "name": "Heistsebaan", 
      "lonmin": 4.661927291887041, 
      "sanName": "heistsebaan", 
      "numOfAddr": 69, 
      "lonmax": 4.6721469399191875, 
      "latmin": 51.083450848117394
    }, 
    {
      "latmax": 51.10856855960459, 
      "name": "Hellegatstraat", 
      "lonmin": 4.627525840263336, 
      "sanName": "hellegatstraat", 
      "numOfAddr": 15, 
      "lonmax": 4.636329829264818, 
      "latmin": 51.10492887397295
    }, 
    {
      "latmax": 51.09468722761248, 
      "name": "Hellestraat", 
      "lonmin": 4.673070213496156, 
      "sanName": "hellestraat", 
      "numOfAddr": 27, 
      "lonmax": 4.676423862434069, 
      "latmin": 51.09280594845068
    }, 
    {
      "latmax": 51.10285094460454, 
      "name": "Hemelshoek", 
      "lonmin": 4.63992976770461, 
      "sanName": "hemelshoek", 
      "numOfAddr": 60, 
      "lonmax": 4.647722359270475, 
      "latmin": 51.088564746705565
    }, 
    {
      "latmax": 51.11191601934161, 
      "name": "Herfststraat", 
      "lonmin": 4.649169095534049, 
      "sanName": "herfststraat", 
      "numOfAddr": 31, 
      "lonmax": 4.652254759034275, 
      "latmin": 51.11049797639107
    }, 
    {
      "latmax": 51.1140734220061, 
      "name": "Hertstraat", 
      "lonmin": 4.687280730920705, 
      "sanName": "hertstraat", 
      "numOfAddr": 54, 
      "lonmax": 4.694465064407327, 
      "latmin": 51.109276102018804
    }, 
    {
      "latmax": 51.08053815571473, 
      "name": "Houwstraat", 
      "lonmin": 4.671456439624661, 
      "sanName": "houwstraat", 
      "numOfAddr": 7, 
      "lonmax": 4.672381251212597, 
      "latmin": 51.07982079604652
    }, 
    {
      "latmax": 51.09387778230687, 
      "name": "Huttestraat", 
      "lonmin": 4.6401264982175405, 
      "sanName": "huttestraat", 
      "numOfAddr": 5, 
      "lonmax": 4.64288073842158, 
      "latmin": 51.09206634940314
    }, 
    {
      "latmax": 51.11705922124182, 
      "name": "Itegembaan", 
      "lonmin": 4.658713539964165, 
      "sanName": "itegembaan", 
      "numOfAddr": 261, 
      "lonmax": 4.700228165971102, 
      "latmin": 51.10643533025362
    }, 
    {
      "latmax": 51.11456486965177, 
      "name": "J.B. Coomansstraat", 
      "lonmin": 4.655069336446065, 
      "sanName": "jbcoomansstraat", 
      "numOfAddr": 20, 
      "lonmax": 4.657866323947614, 
      "latmin": 51.11393486317604
    }, 
    {
      "latmax": 51.11711598704451, 
      "name": "Kapellebaan", 
      "lonmin": 4.64595862702107, 
      "sanName": "kapellebaan", 
      "numOfAddr": 78, 
      "lonmax": 4.651257754894003, 
      "latmin": 51.11269853915373
    }, 
    {
      "latmax": 51.0830982720105, 
      "name": "Kardinaal Cardijnplein", 
      "lonmin": 4.66916833211355, 
      "sanName": "kardinaalcardijnplein", 
      "numOfAddr": 10, 
      "lonmax": 4.670220107313008, 
      "latmin": 51.08276478854428
    }, 
    {
      "latmax": 51.12633134326446, 
      "name": "Karthuizershoeve", 
      "lonmin": 4.6573733180904915, 
      "sanName": "karthuizershoeve", 
      "numOfAddr": 1, 
      "lonmax": 4.6573733180904915, 
      "latmin": 51.12633134326446
    }, 
    {
      "latmax": 51.07695443732042, 
      "name": "Kattegracht", 
      "lonmin": 4.662239491097672, 
      "sanName": "kattegracht", 
      "numOfAddr": 12, 
      "lonmax": 4.6670109249709615, 
      "latmin": 51.076106920409295
    }, 
    {
      "latmax": 51.08411674604638, 
      "name": "Kegelstraat", 
      "lonmin": 4.651466174178281, 
      "sanName": "kegelstraat", 
      "numOfAddr": 69, 
      "lonmax": 4.66676731542048, 
      "latmin": 51.07703476720245
    }, 
    {
      "latmax": 51.1277116863579, 
      "name": "Kesselsteenweg", 
      "lonmin": 4.64788918871803, 
      "sanName": "kesselsteenweg", 
      "numOfAddr": 8, 
      "lonmax": 4.656946483820493, 
      "latmin": 51.1237873960394
    }, 
    {
      "latmax": 51.11807435785922, 
      "name": "Kijfbossen", 
      "lonmin": 4.684686146720435, 
      "sanName": "kijfbossen", 
      "numOfAddr": 12, 
      "lonmax": 4.691767077549529, 
      "latmin": 51.11252488875718
    }, 
    {
      "latmax": 51.121695357494225, 
      "name": "Klets", 
      "lonmin": 4.62695127837193, 
      "sanName": "klets", 
      "numOfAddr": 19, 
      "lonmax": 4.628365193575398, 
      "latmin": 51.11993534596261
    }, 
    {
      "latmax": 51.103231477378436, 
      "name": "Kraaienweg", 
      "lonmin": 4.664799252443144, 
      "sanName": "kraaienweg", 
      "numOfAddr": 3, 
      "lonmax": 4.667089732021672, 
      "latmin": 51.10116820768829
    }, 
    {
      "latmax": 51.10118376268615, 
      "name": "Laar", 
      "lonmin": 4.658551565491081, 
      "sanName": "laar", 
      "numOfAddr": 3, 
      "lonmax": 4.664785901381699, 
      "latmin": 51.09843490744961
    }, 
    {
      "latmax": 51.128103004837314, 
      "name": "Lambertusplaats", 
      "lonmin": 4.674795951111707, 
      "sanName": "lambertusplaats", 
      "numOfAddr": 5, 
      "lonmax": 4.6759338655904115, 
      "latmin": 51.127548556365134
    }, 
    {
      "latmax": 51.125841630531525, 
      "name": "Langstraat", 
      "lonmin": 4.617531787751372, 
      "sanName": "langstraat", 
      "numOfAddr": 6, 
      "lonmax": 4.6223828394285045, 
      "latmin": 51.123816044189205
    }, 
    {
      "latmax": 51.11346824277822, 
      "name": "Lavendelstraat", 
      "lonmin": 4.6327397582539, 
      "sanName": "lavendelstraat", 
      "numOfAddr": 8, 
      "lonmax": 4.633810250474782, 
      "latmin": 51.1127540083394
    }, 
    {
      "latmax": 51.08284072196833, 
      "name": "Leemputten", 
      "lonmin": 4.659513209154413, 
      "sanName": "leemputten", 
      "numOfAddr": 80, 
      "lonmax": 4.671180309855193, 
      "latmin": 51.07995171254321
    }, 
    {
      "latmax": 51.12942240661617, 
      "name": "Legrellestraat", 
      "lonmin": 4.655923207857645, 
      "sanName": "legrellestraat", 
      "numOfAddr": 105, 
      "lonmax": 4.674841890266345, 
      "latmin": 51.11836624187973
    }, 
    {
      "latmax": 51.11614807495875, 
      "name": "Leliestraat", 
      "lonmin": 4.641471489578828, 
      "sanName": "leliestraat", 
      "numOfAddr": 9, 
      "lonmax": 4.642054699165042, 
      "latmin": 51.115723574576926
    }, 
    {
      "latmax": 51.11636960441978, 
      "name": "Lentestraat", 
      "lonmin": 4.64284518232814, 
      "sanName": "lentestraat", 
      "numOfAddr": 22, 
      "lonmax": 4.64459776370247, 
      "latmin": 51.11568046151235
    }, 
    {
      "latmax": 51.12644398150719, 
      "name": "Liersesteenweg", 
      "lonmin": 4.612184673044336, 
      "sanName": "liersesteenweg", 
      "numOfAddr": 228, 
      "lonmax": 4.650937011288937, 
      "latmin": 51.11691599943671
    }, 
    {
      "latmax": 51.11281644264648, 
      "name": "Lijsterstraat", 
      "lonmin": 4.638171106945227, 
      "sanName": "lijsterstraat", 
      "numOfAddr": 21, 
      "lonmax": 4.640876480430358, 
      "latmin": 51.11191216847018
    }, 
    {
      "latmax": 51.089614299130496, 
      "name": "Lindenweg", 
      "lonmin": 4.665403021486723, 
      "sanName": "lindenweg", 
      "numOfAddr": 16, 
      "lonmax": 4.666794471830117, 
      "latmin": 51.087155968102984
    }, 
    {
      "latmax": 51.11088107238032, 
      "name": "Lozenhoek", 
      "lonmin": 4.663940738038418, 
      "sanName": "lozenhoek", 
      "numOfAddr": 4, 
      "lonmax": 4.666166224330533, 
      "latmin": 51.108478472096
    }, 
    {
      "latmax": 51.119258084790715, 
      "name": "Markt", 
      "lonmin": 4.6562888584422515, 
      "sanName": "markt", 
      "numOfAddr": 72, 
      "lonmax": 4.662722265471767, 
      "latmin": 51.11716690312569
    }, 
    {
      "latmax": 51.11420578458044, 
      "name": "Meistraat", 
      "lonmin": 4.65227008800981, 
      "sanName": "meistraat", 
      "numOfAddr": 52, 
      "lonmax": 4.658877563661323, 
      "latmin": 51.1123843516217
    }, 
    {
      "latmax": 51.09975421116143, 
      "name": "Melkouwen", 
      "lonmin": 4.67258731265368, 
      "sanName": "melkouwen", 
      "numOfAddr": 68, 
      "lonmax": 4.677468220641051, 
      "latmin": 51.09479511432976
    }, 
    {
      "latmax": 51.095782133550095, 
      "name": "Melkouwensteenweg", 
      "lonmin": 4.667982555157174, 
      "sanName": "melkouwensteenweg", 
      "numOfAddr": 110, 
      "lonmax": 4.671892632041668, 
      "latmin": 51.08323732652861
    }, 
    {
      "latmax": 51.11330505676837, 
      "name": "Merelstraat", 
      "lonmin": 4.660304244308439, 
      "sanName": "merelstraat", 
      "numOfAddr": 16, 
      "lonmax": 4.662597476779107, 
      "latmin": 51.11238280079759
    }, 
    {
      "latmax": 51.11141949539127, 
      "name": "Mezenhof", 
      "lonmin": 4.646814812138155, 
      "sanName": "mezenhof", 
      "numOfAddr": 19, 
      "lonmax": 4.64794211941748, 
      "latmin": 51.11014270101475
    }, 
    {
      "latmax": 51.11311097060124, 
      "name": "Misstraat", 
      "lonmin": 4.624281601946048, 
      "sanName": "misstraat", 
      "numOfAddr": 119, 
      "lonmax": 4.639385262018333, 
      "latmin": 51.106695231997406
    }, 
    {
      "latmax": 51.11871840282541, 
      "name": "Molenlei", 
      "lonmin": 4.638621877750673, 
      "sanName": "molenlei", 
      "numOfAddr": 62, 
      "lonmax": 4.640178072023566, 
      "latmin": 51.113995013896854
    }, 
    {
      "latmax": 51.11571758360169, 
      "name": "Molenstraat", 
      "lonmin": 4.630689319611195, 
      "sanName": "molenstraat", 
      "numOfAddr": 16, 
      "lonmax": 4.63305855068617, 
      "latmin": 51.11100530717076
    }, 
    {
      "latmax": 51.12768095307224, 
      "name": "Molenveld", 
      "lonmin": 4.669184787423664, 
      "sanName": "molenveld", 
      "numOfAddr": 6, 
      "lonmax": 4.671772143251801, 
      "latmin": 51.12697153109868
    }, 
    {
      "latmax": 51.118444952110416, 
      "name": "Montystraat", 
      "lonmin": 4.641440911364939, 
      "sanName": "montystraat", 
      "numOfAddr": 64, 
      "lonmax": 4.643255828984476, 
      "latmin": 51.11454605035118
    }, 
    {
      "latmax": 51.112267929489455, 
      "name": "Nachtegaalstraat", 
      "lonmin": 4.645202145681597, 
      "sanName": "nachtegaalstraat", 
      "numOfAddr": 11, 
      "lonmax": 4.6468279748583985, 
      "latmin": 51.10920978704277
    }, 
    {
      "latmax": 51.12579422244337, 
      "name": "Netekant", 
      "lonmin": 4.623924823784937, 
      "sanName": "netekant", 
      "numOfAddr": 5, 
      "lonmax": 4.62945374283281, 
      "latmin": 51.12298828459115
    }, 
    {
      "latmax": 51.114030339773606, 
      "name": "Nethendal", 
      "lonmin": 4.634046274404539, 
      "sanName": "nethendal", 
      "numOfAddr": 42, 
      "lonmax": 4.636327224808215, 
      "latmin": 51.1130944321703
    }, 
    {
      "latmax": 51.12114167679455, 
      "name": "Park Diamant", 
      "lonmin": 4.6730532581177195, 
      "sanName": "parkdiamant", 
      "numOfAddr": 4, 
      "lonmax": 4.674036293922841, 
      "latmin": 51.12012734161735
    }, 
    {
      "latmax": 51.115105594705994, 
      "name": "Pastoor Haemelsstraat", 
      "lonmin": 4.6624064427413066, 
      "sanName": "pastoorhaemelsstraat", 
      "numOfAddr": 38, 
      "lonmax": 4.665392088186864, 
      "latmin": 51.11408474525731
    }, 
    {
      "latmax": 51.11246704698169, 
      "name": "Pastoor Praillestraat", 
      "lonmin": 4.633807041303478, 
      "sanName": "pastoorpraillestraat", 
      "numOfAddr": 23, 
      "lonmax": 4.635538937016063, 
      "latmin": 51.111470059587
    }, 
    {
      "latmax": 51.12072921531831, 
      "name": "Pastorijstraat", 
      "lonmin": 4.661522974362326, 
      "sanName": "pastorijstraat", 
      "numOfAddr": 51, 
      "lonmax": 4.6712989594042424, 
      "latmin": 51.11877928278415
    }, 
    {
      "latmax": 51.127318411572666, 
      "name": "Rameyenstraat", 
      "lonmin": 4.674599953040266, 
      "sanName": "rameyenstraat", 
      "numOfAddr": 7, 
      "lonmax": 4.686757583602784, 
      "latmin": 51.121794497055205
    }, 
    {
      "latmax": 51.11613382391481, 
      "name": "Rode-Kruisstraat", 
      "lonmin": 4.640240776001549, 
      "sanName": "rodekruisstraat", 
      "numOfAddr": 7, 
      "lonmax": 4.641093927705927, 
      "latmin": 51.115646509210606
    }, 
    {
      "latmax": 51.11386246339023, 
      "name": "Schaarbroek", 
      "lonmin": 4.609695356180112, 
      "sanName": "schaarbroek", 
      "numOfAddr": 17, 
      "lonmax": 4.629758862119764, 
      "latmin": 51.10960216699125
    }, 
    {
      "latmax": 51.117663323872335, 
      "name": "Schoolstraat", 
      "lonmin": 4.657614346924809, 
      "sanName": "schoolstraat", 
      "numOfAddr": 75, 
      "lonmax": 4.661624245393509, 
      "latmin": 51.113674278051704
    }, 
    {
      "latmax": 51.08161306207855, 
      "name": "Schuttershof", 
      "lonmin": 4.66866500915755, 
      "sanName": "schuttershof", 
      "numOfAddr": 27, 
      "lonmax": 4.671248280349523, 
      "latmin": 51.0801287450884
    }, 
    {
      "latmax": 51.08312287484245, 
      "name": "Sint-Rumoldusstraat", 
      "lonmin": 4.664064951807873, 
      "sanName": "sintrumoldusstraat", 
      "numOfAddr": 21, 
      "lonmax": 4.667105839202634, 
      "latmin": 51.0822302815299
    }, 
    {
      "latmax": 51.11731966217343, 
      "name": "Smidstraat", 
      "lonmin": 4.647321845606536, 
      "sanName": "smidstraat", 
      "numOfAddr": 283, 
      "lonmax": 4.663376625142153, 
      "latmin": 51.08539785671979
    }, 
    {
      "latmax": 51.11715783989493, 
      "name": "Sollevelden", 
      "lonmin": 4.662601582231609, 
      "sanName": "sollevelden", 
      "numOfAddr": 65, 
      "lonmax": 4.6694836322196265, 
      "latmin": 51.112589791793646
    }, 
    {
      "latmax": 51.09776425346472, 
      "name": "Sparrenweg", 
      "lonmin": 4.675967009663439, 
      "sanName": "sparrenweg", 
      "numOfAddr": 12, 
      "lonmax": 4.6796983250425725, 
      "latmin": 51.09619428649456
    }, 
    {
      "latmax": 51.115615744980985, 
      "name": "Spoorweglei", 
      "lonmin": 4.634502011133032, 
      "sanName": "spoorweglei", 
      "numOfAddr": 39, 
      "lonmax": 4.638982813519722, 
      "latmin": 51.11318159973457
    }, 
    {
      "latmax": 51.11411687208481, 
      "name": "Stationsplein", 
      "lonmin": 4.638850406162371, 
      "sanName": "stationsplein", 
      "numOfAddr": 10, 
      "lonmax": 4.639677025398079, 
      "latmin": 51.11360799184476
    }, 
    {
      "latmax": 51.11698368176337, 
      "name": "Stationsstraat", 
      "lonmin": 4.639838580553629, 
      "sanName": "stationsstraat", 
      "numOfAddr": 188, 
      "lonmax": 4.650891339512157, 
      "latmin": 51.11311935497368
    }, 
    {
      "latmax": 51.084875581260285, 
      "name": "Steenbeek", 
      "lonmin": 4.644165168809844, 
      "sanName": "steenbeek", 
      "numOfAddr": 30, 
      "lonmax": 4.656387577213892, 
      "latmin": 51.07677393579437
    }, 
    {
      "latmax": 51.11956516839853, 
      "name": "Tulpenstraat", 
      "lonmin": 4.6476999856628955, 
      "sanName": "tulpenstraat", 
      "numOfAddr": 15, 
      "lonmax": 4.648865071251472, 
      "latmin": 51.117800162021
    }, 
    {
      "latmax": 51.11198998072861, 
      "name": "Valkenhof", 
      "lonmin": 4.661217305928634, 
      "sanName": "valkenhof", 
      "numOfAddr": 73, 
      "lonmax": 4.665965314407629, 
      "latmin": 51.10878496002589
    }, 
    {
      "latmax": 51.09677809150229, 
      "name": "Varenweg", 
      "lonmin": 4.674808982106516, 
      "sanName": "varenweg", 
      "numOfAddr": 19, 
      "lonmax": 4.675881638569062, 
      "latmin": 51.09424261459689
    }, 
    {
      "latmax": 51.10323771284412, 
      "name": "Venushoek", 
      "lonmin": 4.67553011781639, 
      "sanName": "venushoek", 
      "numOfAddr": 23, 
      "lonmax": 4.683727432498895, 
      "latmin": 51.099170723223025
    }, 
    {
      "latmax": 51.11190780300112, 
      "name": "Vinkenhof", 
      "lonmin": 4.642775112099105, 
      "sanName": "vinkenhof", 
      "numOfAddr": 60, 
      "lonmax": 4.645510292503018, 
      "latmin": 51.1102717654143
    }, 
    {
      "latmax": 51.11123761668357, 
      "name": "Vredestraat", 
      "lonmin": 4.6308958092811565, 
      "sanName": "vredestraat", 
      "numOfAddr": 16, 
      "lonmax": 4.63384245951014, 
      "latmin": 51.110235831292016
    }, 
    {
      "latmax": 51.08586619429005, 
      "name": "Vruchtelei", 
      "lonmin": 4.6372475493135, 
      "sanName": "vruchtelei", 
      "numOfAddr": 14, 
      "lonmax": 4.642891134479396, 
      "latmin": 51.078199492106975
    }, 
    {
      "latmax": 51.1158722786484, 
      "name": "Walter Luytenplein", 
      "lonmin": 4.651754077661545, 
      "sanName": "walterluytenplein", 
      "numOfAddr": 3, 
      "lonmax": 4.652782138349633, 
      "latmin": 51.11538549465606
    }, 
    {
      "latmax": 51.11064364685807, 
      "name": "Welvaartstraat", 
      "lonmin": 4.6329933696979095, 
      "sanName": "welvaartstraat", 
      "numOfAddr": 140, 
      "lonmax": 4.643106235558005, 
      "latmin": 51.101273292458046
    }, 
    {
      "latmax": 51.11761976074404, 
      "name": "Wipstraat", 
      "lonmin": 4.640322367570699, 
      "sanName": "wipstraat", 
      "numOfAddr": 60, 
      "lonmax": 4.641846921414153, 
      "latmin": 51.114223692488196
    }, 
    {
      "latmax": 51.13272234077458, 
      "name": "Witte Hoeve", 
      "lonmin": 4.666048724280294, 
      "sanName": "wittehoeve", 
      "numOfAddr": 1, 
      "lonmax": 4.666048724280294, 
      "latmin": 51.13272234077458
    }, 
    {
      "latmax": 51.11477341865218, 
      "name": "Zomerstraat", 
      "lonmin": 4.6454022973440185, 
      "sanName": "zomerstraat", 
      "numOfAddr": 23, 
      "lonmax": 4.64805197689181, 
      "latmin": 51.11334981478708
    }, 
    {
      "latmax": 51.11344089307303, 
      "name": "Zwaluwstraat", 
      "lonmin": 4.642396549791703, 
      "sanName": "zwaluwstraat", 
      "numOfAddr": 21, 
      "lonmax": 4.644009999045348, 
      "latmin": 51.11277504762352
    }
  ]
}