{
  "streets": [
    {
      "latmax": 51.177995051303434, 
      "name": "Aartselaarstraat", 
      "lonmin": 4.357210438493428, 
      "sanName": "aartselaarstraat", 
      "numOfAddr": 204, 
      "lonmax": 4.368208616962265, 
      "latmin": 51.17571202725582
    }, 
    {
      "latmax": 51.17147382956802, 
      "name": "Achturendagstraat", 
      "lonmin": 4.336484851702339, 
      "sanName": "achturendagstraat", 
      "numOfAddr": 47, 
      "lonmax": 4.339610507262868, 
      "latmin": 51.17063925570946
    }, 
    {
      "latmax": 51.172625052386664, 
      "name": "Adolf Greinerstraat", 
      "lonmin": 4.331513658274251, 
      "sanName": "adolfgreinerstraat", 
      "numOfAddr": 11, 
      "lonmax": 4.340810577586014, 
      "latmin": 51.159881925196366
    }, 
    {
      "latmax": 51.173318289369476, 
      "name": "Albert Einsteinlaan", 
      "lonmin": 4.369747132670466, 
      "sanName": "alberteinsteinlaan", 
      "numOfAddr": 30, 
      "lonmax": 4.371045598554585, 
      "latmin": 51.17074089751775
    }, 
    {
      "latmax": 51.17820981478509, 
      "name": "Alfred Nobellaan", 
      "lonmin": 4.360526790520542, 
      "sanName": "alfrednobellaan", 
      "numOfAddr": 8, 
      "lonmax": 4.3622495028944375, 
      "latmin": 51.177425388084984
    }, 
    {
      "latmax": 51.173586663146395, 
      "name": "Antverpiastraat_EK", 
      "lonmin": 4.348120339781118, 
      "sanName": "antverpiastraatek", 
      "numOfAddr": 46, 
      "lonmax": 4.3506850936777335, 
      "latmin": 51.17294501907813
    }, 
    {
      "latmax": 51.173578648526515, 
      "name": "Antverpiastraat_HO", 
      "lonmin": 4.348139328433918, 
      "sanName": "antverpiastraatho", 
      "numOfAddr": 43, 
      "lonmax": 4.350692773973338, 
      "latmin": 51.17292325231829
    }, 
    {
      "latmax": 51.352388795711654, 
      "name": "Antwerpsesteenweg", 
      "lonmin": 4.323291677723693, 
      "sanName": "antwerpsesteenweg", 
      "numOfAddr": 376, 
      "lonmax": 4.378843212572487, 
      "latmin": 51.14653333230633
    }, 
    {
      "latmax": 51.185388732311985, 
      "name": "Atlasstraat", 
      "lonmin": 4.358351475394611, 
      "sanName": "atlasstraat", 
      "numOfAddr": 33, 
      "lonmax": 4.35968241373152, 
      "latmin": 51.18460320680688
    }, 
    {
      "latmax": 51.17253736897933, 
      "name": "Baron Sadoinestraat", 
      "lonmin": 4.3353091254307055, 
      "sanName": "baronsadoinestraat", 
      "numOfAddr": 19, 
      "lonmax": 4.33827735688543, 
      "latmin": 51.17165904594641
    }, 
    {
      "latmax": 51.18434834959945, 
      "name": "Bergenlaan", 
      "lonmin": 4.343694801399373, 
      "sanName": "bergenlaan", 
      "numOfAddr": 18, 
      "lonmax": 4.3450341411134925, 
      "latmin": 51.18364126434755
    }, 
    {
      "latmax": 51.18303683151345, 
      "name": "Berkenrodelei", 
      "lonmin": 4.347249034388457, 
      "sanName": "berkenrodelei", 
      "numOfAddr": 123, 
      "lonmax": 4.350640364609139, 
      "latmin": 51.177639912090584
    }, 
    {
      "latmax": 51.163848056146016, 
      "name": "Berlijnstraat", 
      "lonmin": 4.3536556539563955, 
      "sanName": "berlijnstraat", 
      "numOfAddr": 18, 
      "lonmax": 4.35462733023433, 
      "latmin": 51.163270031253646
    }, 
    {
      "latmax": 51.16176599178677, 
      "name": "Bernstraat", 
      "lonmin": 4.348769311695333, 
      "sanName": "bernstraat", 
      "numOfAddr": 29, 
      "lonmax": 4.350322749507154, 
      "latmin": 51.16041389995519
    }, 
    {
      "latmax": 51.16354169162694, 
      "name": "Boedapeststraat", 
      "lonmin": 4.352888823721814, 
      "sanName": "boedapeststraat", 
      "numOfAddr": 14, 
      "lonmax": 4.353906250533482, 
      "latmin": 51.16286572575989
    }, 
    {
      "latmax": 51.18103302768855, 
      "name": "Boombekelaan", 
      "lonmin": 4.33535288710133, 
      "sanName": "boombekelaan", 
      "numOfAddr": 12, 
      "lonmax": 4.344153937517214, 
      "latmin": 51.17857732892476
    }, 
    {
      "latmax": 51.17637607254278, 
      "name": "Brigittijnenhof", 
      "lonmin": 4.339517366842999, 
      "sanName": "brigittijnenhof", 
      "numOfAddr": 15, 
      "lonmax": 4.340354324248984, 
      "latmin": 51.17588013602205
    }, 
    {
      "latmax": 51.17237986876229, 
      "name": "Broydenborglaan", 
      "lonmin": 4.3539071952146795, 
      "sanName": "broydenborglaan", 
      "numOfAddr": 78, 
      "lonmax": 4.358248271805806, 
      "latmin": 51.16549762662275
    }, 
    {
      "latmax": 51.180920547777646, 
      "name": "Caronstraat", 
      "lonmin": 4.367175140095259, 
      "sanName": "caronstraat", 
      "numOfAddr": 124, 
      "lonmax": 4.368614628395215, 
      "latmin": 51.17778283038267
    }, 
    {
      "latmax": 51.174828214059204, 
      "name": "Charlotta Finckstraat", 
      "lonmin": 4.337862375206879, 
      "sanName": "charlottafinckstraat", 
      "numOfAddr": 31, 
      "lonmax": 4.338018799720787, 
      "latmin": 51.17359599298609
    }, 
    {
      "latmax": 51.17595033733299, 
      "name": "Cockerillplaats", 
      "lonmin": 4.344509199784739, 
      "sanName": "cockerillplaats", 
      "numOfAddr": 30, 
      "lonmax": 4.3448744931228775, 
      "latmin": 51.174477384556866
    }, 
    {
      "latmax": 51.17170968591045, 
      "name": "Columbusstraat", 
      "lonmin": 4.337706254574436, 
      "sanName": "columbusstraat", 
      "numOfAddr": 1, 
      "lonmax": 4.337706254574436, 
      "latmin": 51.17170968591045
    }, 
    {
      "latmax": 51.188134988581915, 
      "name": "Commandant Van Laethemstraat", 
      "lonmin": 4.348658791644517, 
      "sanName": "commandantvanlaethemstraat", 
      "numOfAddr": 24, 
      "lonmax": 4.361372850499616, 
      "latmin": 51.182089890101594
    }, 
    {
      "latmax": 51.18440773000987, 
      "name": "Commandant Weynsstraat", 
      "lonmin": 4.348995888808856, 
      "sanName": "commandantweynsstraat", 
      "numOfAddr": 120, 
      "lonmax": 4.3558277503536065, 
      "latmin": 51.181559656967195
    }, 
    {
      "latmax": 51.178494549456275, 
      "name": "Congobootstraat", 
      "lonmin": 2.306689562140502, 
      "sanName": "congobootstraat", 
      "numOfAddr": 12, 
      "lonmax": 4.337542020909098, 
      "latmin": 49.293335165093566
    }, 
    {
      "latmax": 51.17159504316636, 
      "name": "Constantin Meunierplein", 
      "lonmin": 4.33985567959613, 
      "sanName": "constantinmeunierplein", 
      "numOfAddr": 33, 
      "lonmax": 4.341603566298929, 
      "latmin": 51.17057728711091
    }, 
    {
      "latmax": 51.17725421702867, 
      "name": "Co\u0094peratielaan", 
      "lonmin": 4.368849097800855, 
      "sanName": "coperatielaan", 
      "numOfAddr": 39, 
      "lonmax": 4.372834577366376, 
      "latmin": 51.17666546267419
    }, 
    {
      "latmax": 51.170502555468204, 
      "name": "Curiestraat", 
      "lonmin": 4.337393413917519, 
      "sanName": "curiestraat", 
      "numOfAddr": 21, 
      "lonmax": 4.34179114754126, 
      "latmin": 51.1702936480176
    }, 
    {
      "latmax": 51.17551192597833, 
      "name": "Dani\u0089l Baginierlaan", 
      "lonmin": 4.339108739305754, 
      "sanName": "danilbaginierlaan", 
      "numOfAddr": 22, 
      "lonmax": 4.341494421952955, 
      "latmin": 51.173925345889764
    }, 
    {
      "latmax": 51.183073537065646, 
      "name": "De Bruynlaan", 
      "lonmin": 4.37279840764909, 
      "sanName": "debruynlaan", 
      "numOfAddr": 12, 
      "lonmax": 4.373643123237409, 
      "latmin": 51.182433938833256
    }, 
    {
      "latmax": 51.17441369262593, 
      "name": "De Hertstraat", 
      "lonmin": 4.345983578810342, 
      "sanName": "dehertstraat", 
      "numOfAddr": 25, 
      "lonmax": 4.347089265236717, 
      "latmin": 51.173535602960044
    }, 
    {
      "latmax": 51.161983793389325, 
      "name": "Den Haaglaan", 
      "lonmin": 4.344468429938835, 
      "sanName": "denhaaglaan", 
      "numOfAddr": 138, 
      "lonmax": 4.348575695087528, 
      "latmin": 51.15720709042123
    }, 
    {
      "latmax": 51.183816606093465, 
      "name": "Dijkgraaflaan", 
      "lonmin": 4.344273458353342, 
      "sanName": "dijkgraaflaan", 
      "numOfAddr": 16, 
      "lonmax": 4.345299042671384, 
      "latmin": 51.18308411141189
    }, 
    {
      "latmax": 51.18238279539802, 
      "name": "Dillesstraat", 
      "lonmin": 4.365978896318461, 
      "sanName": "dillesstraat", 
      "numOfAddr": 65, 
      "lonmax": 4.368143701197566, 
      "latmin": 51.181237932763956
    }, 
    {
      "latmax": 51.17163512586268, 
      "name": "Distelvinklaan", 
      "lonmin": 4.361130340706733, 
      "sanName": "distelvinklaan", 
      "numOfAddr": 33, 
      "lonmax": 4.362340304758357, 
      "latmin": 51.16959457436977
    }, 
    {
      "latmax": 51.177091026362795, 
      "name": "Dokter Coenstraat", 
      "lonmin": 4.350554074946367, 
      "sanName": "doktercoenstraat", 
      "numOfAddr": 43, 
      "lonmax": 4.3528012815359025, 
      "latmin": 51.17630412924976
    }, 
    {
      "latmax": 51.182431811370094, 
      "name": "Dokter Emiel Van Dammestraat", 
      "lonmin": 4.356789521337661, 
      "sanName": "dokteremielvandammestraat", 
      "numOfAddr": 49, 
      "lonmax": 4.359273955211303, 
      "latmin": 51.18086520789903
    }, 
    {
      "latmax": 51.17319291961909, 
      "name": "Dokter Flemingstraat", 
      "lonmin": 4.368841317259338, 
      "sanName": "dokterflemingstraat", 
      "numOfAddr": 17, 
      "lonmax": 4.369476163042758, 
      "latmin": 51.172452261858
    }, 
    {
      "latmax": 51.17264146870477, 
      "name": "Dokter Jennerstraat", 
      "lonmin": 4.365975355881461, 
      "sanName": "dokterjennerstraat", 
      "numOfAddr": 26, 
      "lonmax": 4.366908588974755, 
      "latmin": 51.171786832683146
    }, 
    {
      "latmax": 51.183621227847105, 
      "name": "Dokter Van Raesstraat", 
      "lonmin": 4.353646369673299, 
      "sanName": "doktervanraesstraat", 
      "numOfAddr": 64, 
      "lonmax": 4.355416420367626, 
      "latmin": 51.18147389349897
    }, 
    {
      "latmax": 51.17302783375351, 
      "name": "Dokter Verhoevenstraat", 
      "lonmin": 4.347725979223795, 
      "sanName": "dokterverhoevenstraat", 
      "numOfAddr": 44, 
      "lonmax": 4.348767039713475, 
      "latmin": 51.171397770500015
    }, 
    {
      "latmax": 51.173231474069816, 
      "name": "Doverstraat", 
      "lonmin": 4.3395813952482545, 
      "sanName": "doverstraat", 
      "numOfAddr": 4, 
      "lonmax": 4.340000814767024, 
      "latmin": 51.17307578887079
    }, 
    {
      "latmax": 51.1782943385374, 
      "name": "Draaiboomstraat", 
      "lonmin": 4.357835385247457, 
      "sanName": "draaiboomstraat", 
      "numOfAddr": 124, 
      "lonmax": 4.360185583007082, 
      "latmin": 51.17435104974962
    }, 
    {
      "latmax": 51.17189597669001, 
      "name": "Drogedokstraat", 
      "lonmin": 4.336444799295832, 
      "sanName": "drogedokstraat", 
      "numOfAddr": 9, 
      "lonmax": 4.336925578648465, 
      "latmin": 51.17144008199848
    }, 
    {
      "latmax": 51.18345746814207, 
      "name": "Drossaardplein", 
      "lonmin": 4.366742995104468, 
      "sanName": "drossaardplein", 
      "numOfAddr": 23, 
      "lonmax": 4.3681033734210075, 
      "latmin": 51.1826988340628
    }, 
    {
      "latmax": 51.17747869728452, 
      "name": "D'Urselstraat", 
      "lonmin": 4.351711605693799, 
      "sanName": "durselstraat", 
      "numOfAddr": 12, 
      "lonmax": 4.351954420168795, 
      "latmin": 51.17704860974865
    }, 
    {
      "latmax": 51.170874100481, 
      "name": "Edisonstraat", 
      "lonmin": 4.337852609483452, 
      "sanName": "edisonstraat", 
      "numOfAddr": 20, 
      "lonmax": 4.338709486555967, 
      "latmin": 51.17030653290948
    }, 
    {
      "latmax": 51.174294840623695, 
      "name": "Edmond Cretsstraat", 
      "lonmin": 4.34491587362272, 
      "sanName": "edmondcretsstraat", 
      "numOfAddr": 75, 
      "lonmax": 4.346434039849963, 
      "latmin": 51.17135179440079
    }, 
    {
      "latmax": 51.173253560263866, 
      "name": "Eikenlei", 
      "lonmin": 4.359153913050614, 
      "sanName": "eikenlei", 
      "numOfAddr": 136, 
      "lonmax": 4.365263505695123, 
      "latmin": 51.172410512855826
    }, 
    {
      "latmax": 51.17497767629003, 
      "name": "Elststraat", 
      "lonmin": 4.351462506249726, 
      "sanName": "elststraat", 
      "numOfAddr": 40, 
      "lonmax": 4.35339385361368, 
      "latmin": 51.17441642223804
    }, 
    {
      "latmax": 51.17633793739569, 
      "name": "Emiel de Harvenstraat", 
      "lonmin": 4.344637172487923, 
      "sanName": "emieldeharvenstraat", 
      "numOfAddr": 57, 
      "lonmax": 4.347524792156428, 
      "latmin": 51.17531553943181
    }, 
    {
      "latmax": 51.172857655746995, 
      "name": "Emiel Vanderveldestraat", 
      "lonmin": 4.346486302486956, 
      "sanName": "emielvanderveldestraat", 
      "numOfAddr": 40, 
      "lonmax": 4.347450762057649, 
      "latmin": 51.17139250361594
    }, 
    {
      "latmax": 51.19091702681017, 
      "name": "Emiel Vloorsstraat", 
      "lonmin": 4.367748782488118, 
      "sanName": "emielvloorsstraat", 
      "numOfAddr": 6, 
      "lonmax": 4.368964762956397, 
      "latmin": 51.19042526337748
    }, 
    {
      "latmax": 51.173932061438755, 
      "name": "Fakkelstraat", 
      "lonmin": 4.358524688684637, 
      "sanName": "fakkelstraat", 
      "numOfAddr": 33, 
      "lonmax": 4.359500894223879, 
      "latmin": 51.1727935585937
    }, 
    {
      "latmax": 51.18188809632855, 
      "name": "Fodderiestraat", 
      "lonmin": 4.345576785736167, 
      "sanName": "fodderiestraat", 
      "numOfAddr": 81, 
      "lonmax": 4.348394937584619, 
      "latmin": 51.180390146790856
    }, 
    {
      "latmax": 51.17749113368396, 
      "name": "Folke Bernadottelaan", 
      "lonmin": 4.359791457501592, 
      "sanName": "folkebernadottelaan", 
      "numOfAddr": 44, 
      "lonmax": 4.3633070733141714, 
      "latmin": 51.17678462010695
    }, 
    {
      "latmax": 51.159343859395605, 
      "name": "Frans Smekensstraat", 
      "lonmin": 4.352522863606345, 
      "sanName": "franssmekensstraat", 
      "numOfAddr": 10, 
      "lonmax": 4.35367699737416, 
      "latmin": 51.158472588940676
    }, 
    {
      "latmax": 51.18653386745883, 
      "name": "Frieslandstraat", 
      "lonmin": 4.367730649795224, 
      "sanName": "frieslandstraat", 
      "numOfAddr": 5, 
      "lonmax": 4.3694770115228465, 
      "latmin": 51.18579645875593
    }, 
    {
      "latmax": 51.179495481006256, 
      "name": "Gandhilaan", 
      "lonmin": 4.363151100489235, 
      "sanName": "gandhilaan", 
      "numOfAddr": 10, 
      "lonmax": 4.365579603254038, 
      "latmin": 51.17792672638365
    }, 
    {
      "latmax": 51.17867120821354, 
      "name": "Gaspar Verreyckenstraat", 
      "lonmin": 4.37140343416954, 
      "sanName": "gasparverreyckenstraat", 
      "numOfAddr": 18, 
      "lonmax": 4.372482236701717, 
      "latmin": 51.1782905115384
    }, 
    {
      "latmax": 51.18608879615509, 
      "name": "Geestheidelaan", 
      "lonmin": 4.341061021628933, 
      "sanName": "geestheidelaan", 
      "numOfAddr": 15, 
      "lonmax": 4.342212072498635, 
      "latmin": 51.18540904520552
    }, 
    {
      "latmax": 51.183127132203865, 
      "name": "Genachtenstraat", 
      "lonmin": 4.365609183252793, 
      "sanName": "genachtenstraat", 
      "numOfAddr": 24, 
      "lonmax": 4.367097400790861, 
      "latmin": 51.18247456150391
    }, 
    {
      "latmax": 51.15979982869547, 
      "name": "Ger Schmookstraat", 
      "lonmin": 4.350758468593411, 
      "sanName": "gerschmookstraat", 
      "numOfAddr": 16, 
      "lonmax": 4.352246854370848, 
      "latmin": 51.15935159243301
    }, 
    {
      "latmax": 51.17272072622718, 
      "name": "Goedetijdstraat", 
      "lonmin": 4.361998159609392, 
      "sanName": "goedetijdstraat", 
      "numOfAddr": 97, 
      "lonmax": 4.363150489583231, 
      "latmin": 51.16963168007331
    }, 
    {
      "latmax": 51.183893286565294, 
      "name": "Golfstraat", 
      "lonmin": 4.3738122669870565, 
      "sanName": "golfstraat", 
      "numOfAddr": 27, 
      "lonmax": 4.375804518111997, 
      "latmin": 51.18379877791067
    }, 
    {
      "latmax": 51.17224600587944, 
      "name": "Grammestraat", 
      "lonmin": 4.339732116408555, 
      "sanName": "grammestraat", 
      "numOfAddr": 24, 
      "lonmax": 4.341461965754008, 
      "latmin": 51.1714203101486
    }, 
    {
      "latmax": 51.17222298423585, 
      "name": "Grasmuslaan", 
      "lonmin": 4.357857000304353, 
      "sanName": "grasmuslaan", 
      "numOfAddr": 55, 
      "lonmax": 4.362381493754118, 
      "latmin": 51.17138132241424
    }, 
    {
      "latmax": 51.18567693642175, 
      "name": "Graspolderlaan", 
      "lonmin": 4.342104544273786, 
      "sanName": "graspolderlaan", 
      "numOfAddr": 23, 
      "lonmax": 4.344234259514851, 
      "latmin": 51.184681103216924
    }, 
    {
      "latmax": 51.16508062098909, 
      "name": "Groenstraat_HOWI", 
      "lonmin": 4.358073425843714, 
      "sanName": "groenstraathowi", 
      "numOfAddr": 24, 
      "lonmax": 4.358806081881067, 
      "latmin": 51.16388444917297
    }, 
    {
      "latmax": 51.17366087290889, 
      "name": "Grotebaan", 
      "lonmin": 4.3409697323892775, 
      "sanName": "grotebaan", 
      "numOfAddr": 44, 
      "lonmax": 4.3417406601344615, 
      "latmin": 51.172085650335504
    }, 
    {
      "latmax": 51.18546719093588, 
      "name": "Hagelandstraat", 
      "lonmin": 4.363171902044947, 
      "sanName": "hagelandstraat", 
      "numOfAddr": 47, 
      "lonmax": 4.36617155895, 
      "latmin": 51.18412053975913
    }, 
    {
      "latmax": 51.18076521999408, 
      "name": "Harold Rosherstraat", 
      "lonmin": 4.344528506804406, 
      "sanName": "haroldrosherstraat", 
      "numOfAddr": 1, 
      "lonmax": 4.344528506804406, 
      "latmin": 51.18076521999408
    }, 
    {
      "latmax": 51.18345532548196, 
      "name": "Haspengouwstraat", 
      "lonmin": 4.359769193952358, 
      "sanName": "haspengouwstraat", 
      "numOfAddr": 25, 
      "lonmax": 4.362512579628024, 
      "latmin": 51.18237828551622
    }, 
    {
      "latmax": 51.17487749936387, 
      "name": "Heidestraat_HO", 
      "lonmin": 4.354368685138583, 
      "sanName": "heidestraatho", 
      "numOfAddr": 201, 
      "lonmax": 4.365869426932241, 
      "latmin": 51.173386762867025
    }, 
    {
      "latmax": 51.17372537422099, 
      "name": "Heiligeputstraat", 
      "lonmin": 4.342581157820488, 
      "sanName": "heiligeputstraat", 
      "numOfAddr": 19, 
      "lonmax": 4.3433382771469615, 
      "latmin": 51.173055196773696
    }, 
    {
      "latmax": 51.15832142714621, 
      "name": "Helsinkistraat", 
      "lonmin": 4.345117590119307, 
      "sanName": "helsinkistraat", 
      "numOfAddr": 15, 
      "lonmax": 4.3467304219419445, 
      "latmin": 51.158025817457066
    }, 
    {
      "latmax": 51.189752641738444, 
      "name": "Hendriklei", 
      "lonmin": 4.369373542061267, 
      "sanName": "hendriklei", 
      "numOfAddr": 47, 
      "lonmax": 4.374739425205628, 
      "latmin": 51.186583663206406
    }, 
    {
      "latmax": 51.17316442773629, 
      "name": "Henri Dunantstraat", 
      "lonmin": 4.36802028898196, 
      "sanName": "henridunantstraat", 
      "numOfAddr": 23, 
      "lonmax": 4.3686211087720475, 
      "latmin": 51.172240045564045
    }, 
    {
      "latmax": 51.18613474015844, 
      "name": "Herenpolderlaan", 
      "lonmin": 4.3365824775306345, 
      "sanName": "herenpolderlaan", 
      "numOfAddr": 10, 
      "lonmax": 4.338009669851791, 
      "latmin": 51.1854009960929
    }, 
    {
      "latmax": 51.178077086121775, 
      "name": "Hertoglei", 
      "lonmin": 4.34479755924925, 
      "sanName": "hertoglei", 
      "numOfAddr": 3, 
      "lonmax": 4.346278341130557, 
      "latmin": 51.17693265293468
    }, 
    {
      "latmax": 51.18049058118008, 
      "name": "Hertog van Brabantlei", 
      "lonmin": 4.353119617035041, 
      "sanName": "hertogvanbrabantlei", 
      "numOfAddr": 64, 
      "lonmax": 4.354264648416279, 
      "latmin": 51.178524117223525
    }, 
    {
      "latmax": 51.183261383286286, 
      "name": "Hobeuchemstraat", 
      "lonmin": 4.3644062445300165, 
      "sanName": "hobeuchemstraat", 
      "numOfAddr": 32, 
      "lonmax": 4.365800986380747, 
      "latmin": 51.18220606040084
    }, 
    {
      "latmax": 51.1655232031878, 
      "name": "Hof ter Groenstraat", 
      "lonmin": 4.358763695006816, 
      "sanName": "hoftergroenstraat", 
      "numOfAddr": 41, 
      "lonmax": 4.359584150192344, 
      "latmin": 51.16398091358764
    }, 
    {
      "latmax": 51.18175300196539, 
      "name": "Hof ter Heidelaan", 
      "lonmin": 4.36136233819189, 
      "sanName": "hofterheidelaan", 
      "numOfAddr": 61, 
      "lonmax": 4.364331386161049, 
      "latmin": 51.180160756219635
    }, 
    {
      "latmax": 51.18208654650259, 
      "name": "Hollebeekstraat", 
      "lonmin": 4.370554509013877, 
      "sanName": "hollebeekstraat", 
      "numOfAddr": 141, 
      "lonmax": 4.3727893366258765, 
      "latmin": 51.17700862283203
    }, 
    {
      "latmax": 51.18469998994963, 
      "name": "Hooipolderlaan", 
      "lonmin": 4.341762081901706, 
      "sanName": "hooipolderlaan", 
      "numOfAddr": 23, 
      "lonmax": 4.343112310343596, 
      "latmin": 51.18311277201172
    }, 
    {
      "latmax": 51.181524341322145, 
      "name": "Hydeparkstraat", 
      "lonmin": 4.349270832239152, 
      "sanName": "hydeparkstraat", 
      "numOfAddr": 11, 
      "lonmax": 4.350051010080999, 
      "latmin": 51.18081722104148
    }, 
    {
      "latmax": 51.1817415837066, 
      "name": "IJskelderstraat", 
      "lonmin": 4.349608245913817, 
      "sanName": "ijskelderstraat", 
      "numOfAddr": 112, 
      "lonmax": 4.355653363943218, 
      "latmin": 51.18031705579695
    }, 
    {
      "latmax": 51.175271892171835, 
      "name": "Jan Van Canlaan", 
      "lonmin": 4.338672801207072, 
      "sanName": "janvancanlaan", 
      "numOfAddr": 38, 
      "lonmax": 4.342536776837699, 
      "latmin": 51.17445335976812
    }, 
    {
      "latmax": 51.18859918789672, 
      "name": "Jan van de Wervelaan", 
      "lonmin": 4.337670101081077, 
      "sanName": "janvandewervelaan", 
      "numOfAddr": 68, 
      "lonmax": 4.341000755497611, 
      "latmin": 51.18364788685726
    }, 
    {
      "latmax": 51.18260079001906, 
      "name": "Jan Van de Wouwerstraat", 
      "lonmin": 4.363301069483295, 
      "sanName": "janvandewouwerstraat", 
      "numOfAddr": 81, 
      "lonmax": 4.3667944009536965, 
      "latmin": 51.180812492755486
    }, 
    {
      "latmax": 51.177259365801156, 
      "name": "Joost van Vlaanderenlaan", 
      "lonmin": 4.34201680044648, 
      "sanName": "joostvanvlaanderenlaan", 
      "numOfAddr": 28, 
      "lonmax": 4.343012088366845, 
      "latmin": 51.176271399047145
    }, 
    {
      "latmax": 51.179524283325904, 
      "name": "Jos De Ceulaerdestraat", 
      "lonmin": 4.372073295007845, 
      "sanName": "josdeceulaerdestraat", 
      "numOfAddr": 20, 
      "lonmax": 4.372697218759666, 
      "latmin": 51.17853822859697
    }, 
    {
      "latmax": 51.17428883392229, 
      "name": "Jozef Cardijnstraat", 
      "lonmin": 4.364228911644198, 
      "sanName": "jozefcardijnstraat", 
      "numOfAddr": 15, 
      "lonmax": 4.365006695098099, 
      "latmin": 51.17334703640997
    }, 
    {
      "latmax": 51.17609550687771, 
      "name": "Jozef Copstraat", 
      "lonmin": 4.359800936474282, 
      "sanName": "jozefcopstraat", 
      "numOfAddr": 13, 
      "lonmax": 4.360574707044943, 
      "latmin": 51.17545876088282
    }, 
    {
      "latmax": 51.171565917030904, 
      "name": "Jozef De Costerstraat", 
      "lonmin": 4.34515041915421, 
      "sanName": "jozefdecosterstraat", 
      "numOfAddr": 34, 
      "lonmax": 4.3481981989906275, 
      "latmin": 51.1709163812707
    }, 
    {
      "latmax": 51.17353088501297, 
      "name": "Jozef Leemanslaan", 
      "lonmin": 4.344529151085319, 
      "sanName": "jozefleemanslaan", 
      "numOfAddr": 24, 
      "lonmax": 4.345117147400173, 
      "latmin": 51.171430375598845
    }, 
    {
      "latmax": 51.184478964513715, 
      "name": "Jozef Stormsstraat", 
      "lonmin": 4.355902993448239, 
      "sanName": "jozefstormsstraat", 
      "numOfAddr": 59, 
      "lonmax": 4.3580134540595665, 
      "latmin": 51.18320056613155
    }, 
    {
      "latmax": 51.17296371355843, 
      "name": "Jules Baeckelmanslaan", 
      "lonmin": 4.367064574408421, 
      "sanName": "julesbaeckelmanslaan", 
      "numOfAddr": 31, 
      "lonmax": 4.3681588403023115, 
      "latmin": 51.17171421216496
    }, 
    {
      "latmax": 51.18331746391219, 
      "name": "Jules Destr\u0082estraat", 
      "lonmin": 4.353167796123993, 
      "sanName": "julesdestrestraat", 
      "numOfAddr": 55, 
      "lonmax": 4.354152027182795, 
      "latmin": 51.18153767000465
    }, 
    {
      "latmax": 51.187353670656805, 
      "name": "Jules Pauwelsstraat", 
      "lonmin": 4.356172400051801, 
      "sanName": "julespauwelsstraat", 
      "numOfAddr": 189, 
      "lonmax": 4.36264295503532, 
      "latmin": 51.18452785172069
    }, 
    {
      "latmax": 51.18613850826371, 
      "name": "Julius De Geyterstraat", 
      "lonmin": 4.375434439839717, 
      "sanName": "juliusdegeyterstraat", 
      "numOfAddr": 43, 
      "lonmax": 4.377969681851551, 
      "latmin": 51.18446781099321
    }, 
    {
      "latmax": 51.171636326880126, 
      "name": "Kaarderstraat", 
      "lonmin": 4.335630350253639, 
      "sanName": "kaarderstraat", 
      "numOfAddr": 21, 
      "lonmax": 4.336393545267801, 
      "latmin": 51.170680733120214
    }, 
    {
      "latmax": 51.18422822162206, 
      "name": "Kaaskamerlaan", 
      "lonmin": 4.34115764757086, 
      "sanName": "kaaskamerlaan", 
      "numOfAddr": 10, 
      "lonmax": 4.342304465701908, 
      "latmin": 51.183541685996396
    }, 
    {
      "latmax": 51.17571936305051, 
      "name": "Kapelstraat_HO", 
      "lonmin": 4.335432014985172, 
      "sanName": "kapelstraatho", 
      "numOfAddr": 262, 
      "lonmax": 4.350153441484987, 
      "latmin": 51.17268712429337
    }, 
    {
      "latmax": 51.1591188371872, 
      "name": "Karel Cuypersstraat", 
      "lonmin": 4.35113782669769, 
      "sanName": "karelcuypersstraat", 
      "numOfAddr": 9, 
      "lonmax": 4.35204411079874, 
      "latmin": 51.158654157660386
    }, 
    {
      "latmax": 51.17841853195932, 
      "name": "Karel du Boislaan", 
      "lonmin": 4.339066832254412, 
      "sanName": "karelduboislaan", 
      "numOfAddr": 31, 
      "lonmax": 4.343053289168042, 
      "latmin": 51.176376163290875
    }, 
    {
      "latmax": 51.172724183784524, 
      "name": "Karel Meyvisstraat", 
      "lonmin": 4.361812163418095, 
      "sanName": "karelmeyvisstraat", 
      "numOfAddr": 69, 
      "lonmax": 4.364453865981081, 
      "latmin": 51.17177904914669
    }, 
    {
      "latmax": 51.17084521708948, 
      "name": "Karel Van de Woestijnestraat", 
      "lonmin": 4.33925438461283, 
      "sanName": "karelvandewoestijnestraat", 
      "numOfAddr": 20, 
      "lonmax": 4.3399686734387215, 
      "latmin": 51.17035809647103
    }, 
    {
      "latmax": 51.1861185701691, 
      "name": "Kempenlandstraat", 
      "lonmin": 4.361061393568332, 
      "sanName": "kempenlandstraat", 
      "numOfAddr": 69, 
      "lonmax": 4.365491581390929, 
      "latmin": 51.18363596801401
    }, 
    {
      "latmax": 51.17287168573944, 
      "name": "Kilstraat", 
      "lonmin": 4.335767830784331, 
      "sanName": "kilstraat", 
      "numOfAddr": 32, 
      "lonmax": 4.336746282922847, 
      "latmin": 51.17225593305456
    }, 
    {
      "latmax": 51.1772605222215, 
      "name": "Kioskplaats", 
      "lonmin": 4.349158984799535, 
      "sanName": "kioskplaats", 
      "numOfAddr": 86, 
      "lonmax": 4.351926192859972, 
      "latmin": 51.17413564451905
    }, 
    {
      "latmax": 51.16172651639228, 
      "name": "Klaverbladdreef", 
      "lonmin": 4.354618462706076, 
      "sanName": "klaverbladdreef", 
      "numOfAddr": 2, 
      "lonmax": 4.354754705955595, 
      "latmin": 51.161689408944
    }, 
    {
      "latmax": 51.17477830336607, 
      "name": "Kleinheidestraat", 
      "lonmin": 4.3624496307429, 
      "sanName": "kleinheidestraat", 
      "numOfAddr": 4, 
      "lonmax": 4.36304493818934, 
      "latmin": 51.17445076321548
    }, 
    {
      "latmax": 51.17821100048911, 
      "name": "Kloosterstraat_HO", 
      "lonmin": 4.3558998448769355, 
      "sanName": "kloosterstraatho", 
      "numOfAddr": 132, 
      "lonmax": 4.357824706138743, 
      "latmin": 51.17419600826232
    }, 
    {
      "latmax": 51.172781253391015, 
      "name": "Kolonel Harrystraat", 
      "lonmin": 4.371303918917386, 
      "sanName": "kolonelharrystraat", 
      "numOfAddr": 21, 
      "lonmax": 4.372552869007953, 
      "latmin": 51.17145366681832
    }, 
    {
      "latmax": 51.166688137382344, 
      "name": "Kopenhagenstraat", 
      "lonmin": 4.358048703897081, 
      "sanName": "kopenhagenstraat", 
      "numOfAddr": 23, 
      "lonmax": 4.3590276359317075, 
      "latmin": 51.16601563171632
    }, 
    {
      "latmax": 51.17850343200744, 
      "name": "Korte Hollebeekstraat", 
      "lonmin": 4.36965709406789, 
      "sanName": "kortehollebeekstraat", 
      "numOfAddr": 5, 
      "lonmax": 4.370392688910468, 
      "latmin": 51.17823026346722
    }, 
    {
      "latmax": 51.18115661419443, 
      "name": "Krekelstraat", 
      "lonmin": 4.35613478879461, 
      "sanName": "krekelstraat", 
      "numOfAddr": 113, 
      "lonmax": 4.3596953106930085, 
      "latmin": 51.17862970372493
    }, 
    {
      "latmax": 51.220741267460944, 
      "name": "Krijgsbaan_HO", 
      "lonmin": 4.356979784259672, 
      "sanName": "krijgsbaanho", 
      "numOfAddr": 19, 
      "lonmax": 4.497093882521334, 
      "latmin": 51.1681399330643
    }, 
    {
      "latmax": 51.18718054150102, 
      "name": "Krugerstraat_HO", 
      "lonmin": 4.363813360938014, 
      "sanName": "krugerstraatho", 
      "numOfAddr": 194, 
      "lonmax": 4.37146480134559, 
      "latmin": 51.182324159760405
    }, 
    {
      "latmax": 51.19032917763218, 
      "name": "Lageweg", 
      "lonmin": 4.35551699049222, 
      "sanName": "lageweg", 
      "numOfAddr": 350, 
      "lonmax": 4.369918950401464, 
      "latmin": 51.18116909383793
    }, 
    {
      "latmax": 51.17658682650546, 
      "name": "Lambrechtsstraat", 
      "lonmin": 4.347359972333964, 
      "sanName": "lambrechtsstraat", 
      "numOfAddr": 31, 
      "lonmax": 4.348397668585358, 
      "latmin": 51.17536462217287
    }, 
    {
      "latmax": 51.18749756693271, 
      "name": "Leigrachtlaan", 
      "lonmin": 4.34165584618373, 
      "sanName": "leigrachtlaan", 
      "numOfAddr": 11, 
      "lonmax": 4.3426960868735796, 
      "latmin": 51.18707437579197
    }, 
    {
      "latmax": 51.17448566561502, 
      "name": "Lelieplaats", 
      "lonmin": 4.3515179009609835, 
      "sanName": "lelieplaats", 
      "numOfAddr": 17, 
      "lonmax": 4.352059121101426, 
      "latmin": 51.17376303357528
    }, 
    {
      "latmax": 51.1761876317987, 
      "name": "Lenaart de Landrelaan", 
      "lonmin": 4.338130694753037, 
      "sanName": "lenaartdelandrelaan", 
      "numOfAddr": 41, 
      "lonmax": 4.342405738920255, 
      "latmin": 51.17488823913339
    }, 
    {
      "latmax": 51.17477501549373, 
      "name": "Leo Bosschartlaan", 
      "lonmin": 4.331254921575423, 
      "sanName": "leobosschartlaan", 
      "numOfAddr": 1, 
      "lonmax": 4.331254921575423, 
      "latmin": 51.17477501549373
    }, 
    {
      "latmax": 51.18139732640754, 
      "name": "Leopoldlei_HO", 
      "lonmin": 4.351991611155399, 
      "sanName": "leopoldleiho", 
      "numOfAddr": 116, 
      "lonmax": 4.358469313168167, 
      "latmin": 51.17896686374232
    }, 
    {
      "latmax": 51.18338076012262, 
      "name": "Lichtenberglaan", 
      "lonmin": 4.351516640043505, 
      "sanName": "lichtenberglaan", 
      "numOfAddr": 56, 
      "lonmax": 4.353227131156916, 
      "latmin": 51.181486758983304
    }, 
    {
      "latmax": 51.17176436476668, 
      "name": "Lieven Bauwensstraat", 
      "lonmin": 4.338853097990193, 
      "sanName": "lievenbauwensstraat", 
      "numOfAddr": 5, 
      "lonmax": 4.339048450278734, 
      "latmin": 51.17150512584215
    }, 
    {
      "latmax": 51.17081930349259, 
      "name": "Lijsterlaan", 
      "lonmin": 4.355955715669292, 
      "sanName": "lijsterlaan", 
      "numOfAddr": 12, 
      "lonmax": 4.356702949848616, 
      "latmin": 51.17000884220797
    }, 
    {
      "latmax": 51.16007897247983, 
      "name": "Lissabonstraat", 
      "lonmin": 4.345823586577756, 
      "sanName": "lissabonstraat", 
      "numOfAddr": 46, 
      "lonmax": 4.34778414691141, 
      "latmin": 51.15837390190734
    }, 
    {
      "latmax": 51.1778058621352, 
      "name": "Louisalei", 
      "lonmin": 4.344560909050764, 
      "sanName": "louisalei", 
      "numOfAddr": 70, 
      "lonmax": 4.349599574422678, 
      "latmin": 51.175985771663505
    }, 
    {
      "latmax": 51.18328587657843, 
      "name": "Louis Mastplein", 
      "lonmin": 4.367466668999721, 
      "sanName": "louismastplein", 
      "numOfAddr": 62, 
      "lonmax": 4.36988004322237, 
      "latmin": 51.181729332857316
    }, 
    {
      "latmax": 51.17774794711587, 
      "name": "Lumbeeckstraat", 
      "lonmin": 4.343045953665502, 
      "sanName": "lumbeeckstraat", 
      "numOfAddr": 78, 
      "lonmax": 4.34406785051821, 
      "latmin": 51.174329848985046
    }, 
    {
      "latmax": 51.17341711936974, 
      "name": "Maalbootstraat", 
      "lonmin": 4.338841148692604, 
      "sanName": "maalbootstraat", 
      "numOfAddr": 40, 
      "lonmax": 4.341084329555896, 
      "latmin": 51.17180357556495
    }, 
    {
      "latmax": 51.17911163411709, 
      "name": "Maccabilaan", 
      "lonmin": 4.334416763264962, 
      "sanName": "maccabilaan", 
      "numOfAddr": 6, 
      "lonmax": 4.3388207931880425, 
      "latmin": 51.177325831494734
    }, 
    {
      "latmax": 51.16016382711769, 
      "name": "Madridstraat", 
      "lonmin": 4.347609994000667, 
      "sanName": "madridstraat", 
      "numOfAddr": 26, 
      "lonmax": 4.348735142387586, 
      "latmin": 51.15946363499766
    }, 
    {
      "latmax": 51.171640505307515, 
      "name": "Majoor Maelfaitplein", 
      "lonmin": 4.3667812163527095, 
      "sanName": "majoormaelfaitplein", 
      "numOfAddr": 13, 
      "lonmax": 4.368101503488074, 
      "latmin": 51.171051757276
    }, 
    {
      "latmax": 51.181078732325176, 
      "name": "Maria-Henri\u0089ttalei_HO", 
      "lonmin": 4.351147451048808, 
      "sanName": "mariahenrittaleiho", 
      "numOfAddr": 85, 
      "lonmax": 4.35263567880411, 
      "latmin": 51.17819151521428
    }, 
    {
      "latmax": 51.160483238114914, 
      "name": "Mark Mackenstraat", 
      "lonmin": 4.351688688844695, 
      "sanName": "markmackenstraat", 
      "numOfAddr": 7, 
      "lonmax": 4.3526086916917155, 
      "latmin": 51.160045536657655
    }, 
    {
      "latmax": 51.17170583512283, 
      "name": "Marneflaan", 
      "lonmin": 4.349960043148952, 
      "sanName": "marneflaan", 
      "numOfAddr": 15, 
      "lonmax": 4.354373378322259, 
      "latmin": 51.171039570527064
    }, 
    {
      "latmax": 51.16045674716953, 
      "name": "Marnix Gijsenlaan", 
      "lonmin": 4.351840209230296, 
      "sanName": "marnixgijsenlaan", 
      "numOfAddr": 11, 
      "lonmax": 4.353187495383232, 
      "latmin": 51.15783691731142
    }, 
    {
      "latmax": 51.18084455289296, 
      "name": "Mauroystraat", 
      "lonmin": 4.359186022859273, 
      "sanName": "mauroystraat", 
      "numOfAddr": 70, 
      "lonmax": 4.361016924691655, 
      "latmin": 51.17893459106999
    }, 
    {
      "latmax": 51.17287560291521, 
      "name": "Meerlenhoflaan", 
      "lonmin": 4.3548600199805305, 
      "sanName": "meerlenhoflaan", 
      "numOfAddr": 77, 
      "lonmax": 4.358789939341155, 
      "latmin": 51.171186358441986
    }, 
    {
      "latmax": 51.185979071984576, 
      "name": "Meetjeslandstraat", 
      "lonmin": 4.360053551831215, 
      "sanName": "meetjeslandstraat", 
      "numOfAddr": 65, 
      "lonmax": 4.363076202295769, 
      "latmin": 51.18378473847379
    }, 
    {
      "latmax": 51.17138010147985, 
      "name": "Meeuwenlaan", 
      "lonmin": 4.3599445831213455, 
      "sanName": "meeuwenlaan", 
      "numOfAddr": 20, 
      "lonmax": 4.36079768752911, 
      "latmin": 51.170707586588605
    }, 
    {
      "latmax": 51.183108596904844, 
      "name": "Moerdijklaan", 
      "lonmin": 4.3432098548505875, 
      "sanName": "moerdijklaan", 
      "numOfAddr": 16, 
      "lonmax": 4.34445693975261, 
      "latmin": 51.1825242361524
    }, 
    {
      "latmax": 51.18401811351227, 
      "name": "Montessoristraat", 
      "lonmin": 4.363452270868008, 
      "sanName": "montessoristraat", 
      "numOfAddr": 6, 
      "lonmax": 4.3645665276156445, 
      "latmin": 51.18361723238801
    }, 
    {
      "latmax": 51.17499517927646, 
      "name": "Moretusstraat", 
      "lonmin": 4.348237109221517, 
      "sanName": "moretusstraat", 
      "numOfAddr": 126, 
      "lonmax": 4.349844152230524, 
      "latmin": 51.16823931806762
    }, 
    {
      "latmax": 51.16308165536775, 
      "name": "Moskoustraat", 
      "lonmin": 4.351926840795728, 
      "sanName": "moskoustraat", 
      "numOfAddr": 14, 
      "lonmax": 4.353646693383695, 
      "latmin": 51.16230873145163
    }, 
    {
      "latmax": 51.17220525737558, 
      "name": "Nachtegaallaan", 
      "lonmin": 4.3570533816789645, 
      "sanName": "nachtegaallaan", 
      "numOfAddr": 59, 
      "lonmax": 4.358576367601648, 
      "latmin": 51.16863086805979
    }, 
    {
      "latmax": 51.17733498385617, 
      "name": "Notelaarstraat", 
      "lonmin": 4.353511151480735, 
      "sanName": "notelaarstraat", 
      "numOfAddr": 45, 
      "lonmax": 4.3564171631056, 
      "latmin": 51.175892445776164
    }, 
    {
      "latmax": 51.17408166845676, 
      "name": "Onderwijzersstraat", 
      "lonmin": 4.362282936340499, 
      "sanName": "onderwijzersstraat", 
      "numOfAddr": 30, 
      "lonmax": 4.363117229806513, 
      "latmin": 51.17305822841522
    }, 
    {
      "latmax": 51.173214455921496, 
      "name": "Oostendestraat", 
      "lonmin": 4.338557753059878, 
      "sanName": "oostendestraat", 
      "numOfAddr": 50, 
      "lonmax": 4.3407469130034855, 
      "latmin": 51.17273723580075
    }, 
    {
      "latmax": 51.16707083957297, 
      "name": "Oslostraat", 
      "lonmin": 4.358815495999297, 
      "sanName": "oslostraat", 
      "numOfAddr": 19, 
      "lonmax": 4.359674754960233, 
      "latmin": 51.16646726506531
    }, 
    {
      "latmax": 51.17785644586078, 
      "name": "Oudestraat_HO", 
      "lonmin": 4.352776567600592, 
      "sanName": "oudestraatho", 
      "numOfAddr": 114, 
      "lonmax": 4.39397179971971, 
      "latmin": 51.165645489536054
    }, 
    {
      "latmax": 51.17068420242436, 
      "name": "Oudstrijderslaan", 
      "lonmin": 4.35546982092609, 
      "sanName": "oudstrijderslaan", 
      "numOfAddr": 42, 
      "lonmax": 4.362442002015728, 
      "latmin": 51.16962767839072
    }, 
    {
      "latmax": 51.165500273377766, 
      "name": "Parijslaan", 
      "lonmin": 4.347746841584073, 
      "sanName": "parijslaan", 
      "numOfAddr": 140, 
      "lonmax": 4.357371653543914, 
      "latmin": 51.158649187522755
    }, 
    {
      "latmax": 51.17103733685088, 
      "name": "Paul Henri Spaaklaan", 
      "lonmin": 4.3457238740206705, 
      "sanName": "paulhenrispaaklaan", 
      "numOfAddr": 20, 
      "lonmax": 4.349357853043906, 
      "latmin": 51.16966709589665
    }, 
    {
      "latmax": 51.17646162893704, 
      "name": "Paul Vekemanslaan", 
      "lonmin": 4.359732283182667, 
      "sanName": "paulvekemanslaan", 
      "numOfAddr": 78, 
      "lonmax": 4.364996209504413, 
      "latmin": 51.17419197738127
    }, 
    {
      "latmax": 51.172485453401436, 
      "name": "Pauwenlaan", 
      "lonmin": 4.3585828353648015, 
      "sanName": "pauwenlaan", 
      "numOfAddr": 63, 
      "lonmax": 4.3606051717348455, 
      "latmin": 51.16865868723076
    }, 
    {
      "latmax": 51.19457801334026, 
      "name": "Petroleumkaai", 
      "lonmin": 4.347830477275825, 
      "sanName": "petroleumkaai", 
      "numOfAddr": 1, 
      "lonmax": 4.347830477275825, 
      "latmin": 51.19457801334026
    }, 
    {
      "latmax": 51.18784778598458, 
      "name": "Pierre Van den Eedenstraat", 
      "lonmin": 4.35668969083081, 
      "sanName": "pierrevandeneedenstraat", 
      "numOfAddr": 21, 
      "lonmax": 4.361626694128976, 
      "latmin": 51.18562338419463
    }, 
    {
      "latmax": 51.18601656403982, 
      "name": "Platijnweellaan", 
      "lonmin": 4.338795702225687, 
      "sanName": "platijnweellaan", 
      "numOfAddr": 20, 
      "lonmax": 4.3399747656552305, 
      "latmin": 51.18526038262741
    }, 
    {
      "latmax": 51.18544327978371, 
      "name": "Polostraat", 
      "lonmin": 4.375213920391303, 
      "sanName": "polostraat", 
      "numOfAddr": 45, 
      "lonmax": 4.376732751775538, 
      "latmin": 51.18379904123581
    }, 
    {
      "latmax": 51.183159912911314, 
      "name": "Portugesestraat", 
      "lonmin": 4.358399237848041, 
      "sanName": "portugesestraat", 
      "numOfAddr": 43, 
      "lonmax": 4.3604285852893065, 
      "latmin": 51.181639543386154
    }, 
    {
      "latmax": 51.161178772392155, 
      "name": "Praaglaan", 
      "lonmin": 4.3528657344293995, 
      "sanName": "praaglaan", 
      "numOfAddr": 22, 
      "lonmax": 4.354801881925291, 
      "latmin": 51.159186519489396
    }, 
    {
      "latmax": 51.17180163932504, 
      "name": "Rector Vermeylenlaan", 
      "lonmin": 4.365037840433522, 
      "sanName": "rectorvermeylenlaan", 
      "numOfAddr": 43, 
      "lonmax": 4.368192722718196, 
      "latmin": 51.17015847374861
    }, 
    {
      "latmax": 51.17849703067567, 
      "name": "Robert Schumanlaan", 
      "lonmin": 4.364045477495929, 
      "sanName": "robertschumanlaan", 
      "numOfAddr": 18, 
      "lonmax": 4.365384600543991, 
      "latmin": 51.177360392499395
    }, 
    {
      "latmax": 51.17341728711393, 
      "name": "Rodekruislaan_HO", 
      "lonmin": 4.352858927521864, 
      "sanName": "rodekruislaanho", 
      "numOfAddr": 17, 
      "lonmax": 4.353805256695868, 
      "latmin": 51.17167746968822
    }, 
    {
      "latmax": 51.16266951972636, 
      "name": "Romestraat", 
      "lonmin": 4.3509446573208646, 
      "sanName": "romestraat", 
      "numOfAddr": 29, 
      "lonmax": 4.353508836935458, 
      "latmin": 51.16121279253359
    }, 
    {
      "latmax": 51.16981097309345, 
      "name": "Roodborstlaan", 
      "lonmin": 4.356203661215169, 
      "sanName": "roodborstlaan", 
      "numOfAddr": 22, 
      "lonmax": 4.3572321557616975, 
      "latmin": 51.168018899798504
    }, 
    {
      "latmax": 51.17405507348015, 
      "name": "Salesianenlaan", 
      "lonmin": 4.36658185016108, 
      "sanName": "salesianenlaan", 
      "numOfAddr": 21, 
      "lonmax": 4.373916493662792, 
      "latmin": 51.17299084658663
    }, 
    {
      "latmax": 51.16446070700731, 
      "name": "Salvador Allendestraat", 
      "lonmin": 4.357292285958873, 
      "sanName": "salvadorallendestraat", 
      "numOfAddr": 9, 
      "lonmax": 4.357746502005432, 
      "latmin": 51.163943825271545
    }, 
    {
      "latmax": 51.16854652373597, 
      "name": "Schansstraat", 
      "lonmin": 4.346169693697986, 
      "sanName": "schansstraat", 
      "numOfAddr": 16, 
      "lonmax": 4.3493141717969825, 
      "latmin": 51.167265276149344
    }, 
    {
      "latmax": 51.17298241531127, 
      "name": "Scheepswerfstraat", 
      "lonmin": 4.3367717082523525, 
      "sanName": "scheepswerfstraat", 
      "numOfAddr": 24, 
      "lonmax": 4.337962612134344, 
      "latmin": 51.17216039791909
    }, 
    {
      "latmax": 51.18403031339524, 
      "name": "Scheirlinckxstraat", 
      "lonmin": 4.354746361961576, 
      "sanName": "scheirlinckxstraat", 
      "numOfAddr": 58, 
      "lonmax": 4.356657299479125, 
      "latmin": 51.182661883183606
    }, 
    {
      "latmax": 51.18501197339134, 
      "name": "Scheldelei", 
      "lonmin": 4.344719446060431, 
      "sanName": "scheldelei", 
      "numOfAddr": 3, 
      "lonmax": 4.344913334926486, 
      "latmin": 51.184824331410375
    }, 
    {
      "latmax": 51.17314847958781, 
      "name": "Scheldevrijstraat", 
      "lonmin": 4.341761992967308, 
      "sanName": "scheldevrijstraat", 
      "numOfAddr": 93, 
      "lonmax": 4.343052095424532, 
      "latmin": 51.17027617025599
    }, 
    {
      "latmax": 51.17581155552793, 
      "name": "Schoonselhoflei", 
      "lonmin": 4.368020858539064, 
      "sanName": "schoonselhoflei", 
      "numOfAddr": 2, 
      "lonmax": 4.369318809792683, 
      "latmin": 51.17543852428715
    }, 
    {
      "latmax": 51.18483466772183, 
      "name": "Schorrelaan", 
      "lonmin": 4.344910898422545, 
      "sanName": "schorrelaan", 
      "numOfAddr": 10, 
      "lonmax": 4.346195679693786, 
      "latmin": 51.18320144581005
    }, 
    {
      "latmax": 51.18739779347221, 
      "name": "Schroeilaan", 
      "lonmin": 4.349989290209515, 
      "sanName": "schroeilaan", 
      "numOfAddr": 5, 
      "lonmax": 4.357114093857293, 
      "latmin": 51.184568235224326
    }, 
    {
      "latmax": 51.18695993876233, 
      "name": "Sint-Bernardsesteenweg", 
      "lonmin": 2.306689562140502, 
      "sanName": "sintbernardsesteenweg", 
      "numOfAddr": 566, 
      "lonmax": 4.375927475378983, 
      "latmin": 49.293335165093566
    }, 
    {
      "latmax": 51.183645243016294, 
      "name": "Smallandlaan", 
      "lonmin": 4.3345796385884, 
      "sanName": "smallandlaan", 
      "numOfAddr": 30, 
      "lonmax": 4.342473767922516, 
      "latmin": 51.17960458629138
    }, 
    {
      "latmax": 51.1706349609652, 
      "name": "Standbeeldstraat", 
      "lonmin": 4.34064508547261, 
      "sanName": "standbeeldstraat", 
      "numOfAddr": 8, 
      "lonmax": 4.341472558464127, 
      "latmin": 51.17042684774467
    }, 
    {
      "latmax": 51.18692107967086, 
      "name": "Steenlandlaan", 
      "lonmin": 4.339514842162911, 
      "sanName": "steenlandlaan", 
      "numOfAddr": 20, 
      "lonmax": 4.340707135607153, 
      "latmin": 51.18612954486911
    }, 
    {
      "latmax": 51.173165656069905, 
      "name": "Stephensonstraat", 
      "lonmin": 4.338056794705144, 
      "sanName": "stephensonstraat", 
      "numOfAddr": 29, 
      "lonmax": 4.338996539337167, 
      "latmin": 51.172128375752344
    }, 
    {
      "latmax": 51.18484232556094, 
      "name": "Steynstraat", 
      "lonmin": 4.354153017684832, 
      "sanName": "steynstraat", 
      "numOfAddr": 270, 
      "lonmax": 4.367515843857874, 
      "latmin": 51.17834449051117
    }, 
    {
      "latmax": 51.16535239888896, 
      "name": "Stockholmstraat", 
      "lonmin": 4.355561743064993, 
      "sanName": "stockholmstraat", 
      "numOfAddr": 20, 
      "lonmax": 4.356546071865184, 
      "latmin": 51.16469398911781
    }, 
    {
      "latmax": 51.18452182632153, 
      "name": "Tennisstraat", 
      "lonmin": 4.376460082427357, 
      "sanName": "tennisstraat", 
      "numOfAddr": 18, 
      "lonmax": 4.377802491125651, 
      "latmin": 51.18439997482166
    }, 
    {
      "latmax": 51.17412182717737, 
      "name": "Van Amstelstraat_HO", 
      "lonmin": 4.350400282119116, 
      "sanName": "vanamstelstraatho", 
      "numOfAddr": 37, 
      "lonmax": 4.351304885366, 
      "latmin": 51.17145864946391
    }, 
    {
      "latmax": 51.181018579132925, 
      "name": "Van de Perrelei", 
      "lonmin": 4.355031206529684, 
      "sanName": "vandeperrelei", 
      "numOfAddr": 51, 
      "lonmax": 4.356110551592188, 
      "latmin": 51.17843343842625
    }, 
    {
      "latmax": 51.15997719012745, 
      "name": "Van Praetstraat", 
      "lonmin": 4.338296173167623, 
      "sanName": "vanpraetstraat", 
      "numOfAddr": 6, 
      "lonmax": 4.343484388878823, 
      "latmin": 51.157959850430764
    }, 
    {
      "latmax": 51.183780995236305, 
      "name": "Van Traynellaan", 
      "lonmin": 4.340433094846165, 
      "sanName": "vantraynellaan", 
      "numOfAddr": 55, 
      "lonmax": 4.344241197539548, 
      "latmin": 51.18161125222654
    }, 
    {
      "latmax": 51.18530421335182, 
      "name": "Veerdamlaan", 
      "lonmin": 4.340376433789085, 
      "sanName": "veerdamlaan", 
      "numOfAddr": 9, 
      "lonmax": 4.341129285805852, 
      "latmin": 51.184522773852045
    }, 
    {
      "latmax": 51.16785332879464, 
      "name": "Verenigde Natieslaan", 
      "lonmin": 4.345681074748702, 
      "sanName": "verenigdenatieslaan", 
      "numOfAddr": 239, 
      "lonmax": 4.361035629519324, 
      "latmin": 51.15769071897068
    }, 
    {
      "latmax": 51.181775958559875, 
      "name": "Victor Dupontstraat", 
      "lonmin": 4.358185334161136, 
      "sanName": "victordupontstraat", 
      "numOfAddr": 19, 
      "lonmax": 4.359005550470005, 
      "latmin": 51.181177780452124
    }, 
    {
      "latmax": 51.17361495090709, 
      "name": "Vinkeveldenplein", 
      "lonmin": 4.346559795889094, 
      "sanName": "vinkeveldenplein", 
      "numOfAddr": 21, 
      "lonmax": 4.347993214446195, 
      "latmin": 51.17283834978039
    }, 
    {
      "latmax": 51.17325258646408, 
      "name": "Vinkeveldenstraat", 
      "lonmin": 4.34449863807176, 
      "sanName": "vinkeveldenstraat", 
      "numOfAddr": 28, 
      "lonmax": 4.346609464360235, 
      "latmin": 51.17273408543876
    }, 
    {
      "latmax": 51.176687325916156, 
      "name": "Visputtenhof", 
      "lonmin": 4.340962575789704, 
      "sanName": "visputtenhof", 
      "numOfAddr": 17, 
      "lonmax": 4.342019043911276, 
      "latmin": 51.17613083626109
    }, 
    {
      "latmax": 51.18393301201883, 
      "name": "Voetbalstraat", 
      "lonmin": 4.373448502445719, 
      "sanName": "voetbalstraat", 
      "numOfAddr": 9, 
      "lonmax": 4.373672674711494, 
      "latmin": 51.183111911403486
    }, 
    {
      "latmax": 51.171826297298075, 
      "name": "Vooruitgangstraat", 
      "lonmin": 4.3415652718122635, 
      "sanName": "vooruitgangstraat", 
      "numOfAddr": 4, 
      "lonmax": 4.341725486846652, 
      "latmin": 51.17169366203127
    }, 
    {
      "latmax": 51.18608773127517, 
      "name": "Voorzorgstraat", 
      "lonmin": 4.355418628651675, 
      "sanName": "voorzorgstraat", 
      "numOfAddr": 9, 
      "lonmax": 4.356896592345339, 
      "latmin": 51.18523849508266
    }, 
    {
      "latmax": 51.17116962745741, 
      "name": "Vuurkruisplein", 
      "lonmin": 4.347075717034842, 
      "sanName": "vuurkruisplein", 
      "numOfAddr": 9, 
      "lonmax": 4.34793053963124, 
      "latmin": 51.170775033344334
    }, 
    {
      "latmax": 51.186631653862364, 
      "name": "Waaslandstraat", 
      "lonmin": 4.362571825415661, 
      "sanName": "waaslandstraat", 
      "numOfAddr": 29, 
      "lonmax": 4.364624214943333, 
      "latmin": 51.18486879470771
    }, 
    {
      "latmax": 51.17390402922795, 
      "name": "Walstraat", 
      "lonmin": 4.351894811304341, 
      "sanName": "walstraat", 
      "numOfAddr": 32, 
      "lonmax": 4.35380613783506, 
      "latmin": 51.17355247575273
    }, 
    {
      "latmax": 51.160612587208206, 
      "name": "Warschaustraat", 
      "lonmin": 4.348474127000218, 
      "sanName": "warschaustraat", 
      "numOfAddr": 21, 
      "lonmax": 4.349462375469444, 
      "latmin": 51.159883009845686
    }, 
    {
      "latmax": 51.18563139319782, 
      "name": "Waterhoutlaan", 
      "lonmin": 4.339579015782277, 
      "sanName": "waterhoutlaan", 
      "numOfAddr": 20, 
      "lonmax": 4.340715840668802, 
      "latmin": 51.184864720602455
    }, 
    {
      "latmax": 51.186486370373444, 
      "name": "Watermolenlaan", 
      "lonmin": 4.340261298792447, 
      "sanName": "watermolenlaan", 
      "numOfAddr": 20, 
      "lonmax": 4.341463686621466, 
      "latmin": 51.1857176966788
    }, 
    {
      "latmax": 51.187489058182344, 
      "name": "Weerstandlaan_HO", 
      "lonmin": 4.367578195722668, 
      "sanName": "weerstandlaanho", 
      "numOfAddr": 35, 
      "lonmax": 4.37329466260836, 
      "latmin": 51.1850055589173
    }, 
    {
      "latmax": 51.16497047621682, 
      "name": "Wenenstraat", 
      "lonmin": 4.354762417092602, 
      "sanName": "wenenstraat", 
      "numOfAddr": 27, 
      "lonmax": 4.355913903072272, 
      "latmin": 51.16416027956252
    }, 
    {
      "latmax": 51.17645046191189, 
      "name": "Wielrijdersstraat", 
      "lonmin": 4.346120819950889, 
      "sanName": "wielrijdersstraat", 
      "numOfAddr": 50, 
      "lonmax": 4.34703560285844, 
      "latmin": 51.17490394630929
    }, 
    {
      "latmax": 51.18034950087878, 
      "name": "Windmolenstraat", 
      "lonmin": 4.365093881997458, 
      "sanName": "windmolenstraat", 
      "numOfAddr": 219, 
      "lonmax": 4.36717953848925, 
      "latmin": 51.17469676818754
    }, 
    {
      "latmax": 51.18516567871007, 
      "name": "Wissenboslaan", 
      "lonmin": 4.335626647362607, 
      "sanName": "wissenboslaan", 
      "numOfAddr": 27, 
      "lonmax": 4.337872394785018, 
      "latmin": 51.18476171023298
    }, 
    {
      "latmax": 51.17068765666158, 
      "name": "Wolplein", 
      "lonmin": 4.335864634188885, 
      "sanName": "wolplein", 
      "numOfAddr": 13, 
      "lonmax": 4.337244955830949, 
      "latmin": 51.17035390965215
    }, 
    {
      "latmax": 51.18317640657996, 
      "name": "Wouter Dilftlaan", 
      "lonmin": 4.344222084664591, 
      "sanName": "wouterdilftlaan", 
      "numOfAddr": 41, 
      "lonmax": 4.3464530582276595, 
      "latmin": 51.18191438391282
    }, 
    {
      "latmax": 51.17881603618681, 
      "name": "Zaatlaan", 
      "lonmin": 4.3339939979416, 
      "sanName": "zaatlaan", 
      "numOfAddr": 20, 
      "lonmax": 4.339142994870834, 
      "latmin": 51.17553970364079
    }, 
    {
      "latmax": 51.180810659765434, 
      "name": "Zandkamp", 
      "lonmin": 4.332873151493442, 
      "sanName": "zandkamp", 
      "numOfAddr": 2, 
      "lonmax": 4.333101853402932, 
      "latmin": 51.17952154699413
    }, 
    {
      "latmax": 51.18486652145435, 
      "name": "Zandweellaan", 
      "lonmin": 4.343177087252453, 
      "sanName": "zandweellaan", 
      "numOfAddr": 18, 
      "lonmax": 4.344496123048645, 
      "latmin": 51.18414864863667
    }, 
    {
      "latmax": 51.187053800480626, 
      "name": "Zeelandstraat", 
      "lonmin": 4.368919171695415, 
      "sanName": "zeelandstraat", 
      "numOfAddr": 53, 
      "lonmax": 4.374027862879175, 
      "latmin": 51.18362563050096
    }, 
    {
      "latmax": 51.18842726311453, 
      "name": "Zevenbergenlaan", 
      "lonmin": 4.339407887568532, 
      "sanName": "zevenbergenlaan", 
      "numOfAddr": 21, 
      "lonmax": 4.340360464119881, 
      "latmin": 51.18762154257641
    }, 
    {
      "latmax": 51.183649306162174, 
      "name": "Zomerdijklaan", 
      "lonmin": 4.342405467873146, 
      "sanName": "zomerdijklaan", 
      "numOfAddr": 22, 
      "lonmax": 4.343835129154888, 
      "latmin": 51.182721316236794
    }, 
    {
      "latmax": 51.17293886069237, 
      "name": "Zorgvlietstraat", 
      "lonmin": 4.349606807919141, 
      "sanName": "zorgvlietstraat", 
      "numOfAddr": 41, 
      "lonmax": 4.351228290468731, 
      "latmin": 51.17234146371311
    }, 
    {
      "latmax": 51.1885754685692, 
      "name": "Zuidweg", 
      "lonmin": 4.361640427281263, 
      "sanName": "zuidweg", 
      "numOfAddr": 16, 
      "lonmax": 4.363128042620301, 
      "latmin": 51.1870788253803
    }, 
    {
      "latmax": 51.18812377040314, 
      "name": "Zuidwendelaan", 
      "lonmin": 4.339187470798301, 
      "sanName": "zuidwendelaan", 
      "numOfAddr": 88, 
      "lonmax": 4.343604181530931, 
      "latmin": 51.186011060011296
    }, 
    {
      "latmax": 51.18243887363216, 
      "name": "Zwaantjesstraat", 
      "lonmin": 4.372455149435702, 
      "sanName": "zwaantjesstraat", 
      "numOfAddr": 15, 
      "lonmax": 4.373217969759931, 
      "latmin": 51.1819994254955
    }
  ]
}