{
  "streets": [
    {
      "latmax": 51.077897918007544, 
      "name": "1 meistraat", 
      "lonmin": 4.39602800775584, 
      "sanName": "1meistraat", 
      "numOfAddr": 20, 
      "lonmax": 4.396975506083808, 
      "latmin": 51.076867226618106
    }, 
    {
      "latmax": 51.07740952043218, 
      "name": "Abdon Braeckmansstraat", 
      "lonmin": 4.4206585800224465, 
      "sanName": "abdonbraeckmansstraat", 
      "numOfAddr": 31, 
      "lonmax": 4.422915181050133, 
      "latmin": 51.07620559899273
    }, 
    {
      "latmax": 51.07966061428093, 
      "name": "Abel Fransplein", 
      "lonmin": 4.4236972028243615, 
      "sanName": "abelfransplein", 
      "numOfAddr": 16, 
      "lonmax": 4.424789678760212, 
      "latmin": 51.07906748164099
    }, 
    {
      "latmax": 51.103484971023384, 
      "name": "Adriaan Brouwerlaan", 
      "lonmin": 4.403781870282488, 
      "sanName": "adriaanbrouwerlaan", 
      "numOfAddr": 9, 
      "lonmax": 4.404475615735975, 
      "latmin": 51.102677430301874
    }, 
    {
      "latmax": 51.108298740165026, 
      "name": "Albert Servaeslaan", 
      "lonmin": 4.364684826823383, 
      "sanName": "albertservaeslaan", 
      "numOfAddr": 38, 
      "lonmax": 4.366921742441214, 
      "latmin": 51.10778428702376
    }, 
    {
      "latmax": 51.10889215868095, 
      "name": "Anjelierenplein", 
      "lonmin": 4.385759871213199, 
      "sanName": "anjelierenplein", 
      "numOfAddr": 4, 
      "lonmax": 4.386133943621095, 
      "latmin": 51.10841585193688
    }, 
    {
      "latmax": 51.08006075645644, 
      "name": "Antoine De Winterstraat", 
      "lonmin": 4.425212702563277, 
      "sanName": "antoinedewinterstraat", 
      "numOfAddr": 24, 
      "lonmax": 4.426072085107503, 
      "latmin": 51.07930140218232
    }, 
    {
      "latmax": 51.10350132064006, 
      "name": "Antoon Van Dycklaan", 
      "lonmin": 4.402609987986926, 
      "sanName": "antoonvandycklaan", 
      "numOfAddr": 15, 
      "lonmax": 4.4033156232446995, 
      "latmin": 51.10265135240662
    }, 
    {
      "latmax": 51.09963111086589, 
      "name": "Antwerpsesteenweg", 
      "lonmin": 4.448380295341212, 
      "sanName": "antwerpsesteenweg", 
      "numOfAddr": 107, 
      "lonmax": 4.455845304811209, 
      "latmin": 51.08575223284621
    }, 
    {
      "latmax": 51.10975762094417, 
      "name": "Antwerpsestraat", 
      "lonmin": 4.369133241748771, 
      "sanName": "antwerpsestraat", 
      "numOfAddr": 25, 
      "lonmax": 4.453342625654617, 
      "latmin": 51.092184630245185
    }, 
    {
      "latmax": 51.108488487650796, 
      "name": "Azalealaan", 
      "lonmin": 4.386338477121379, 
      "sanName": "azalealaan", 
      "numOfAddr": 17, 
      "lonmax": 4.388449648889939, 
      "latmin": 51.107755127881155
    }, 
    {
      "latmax": 51.10388880329678, 
      "name": "Balhoevestraat", 
      "lonmin": 4.4362727851006865, 
      "sanName": "balhoevestraat", 
      "numOfAddr": 3, 
      "lonmax": 4.436773427046848, 
      "latmin": 51.10259653800514
    }, 
    {
      "latmax": 51.103500728388, 
      "name": "Beekvelden", 
      "lonmin": 4.414995699982663, 
      "sanName": "beekvelden", 
      "numOfAddr": 113, 
      "lonmax": 4.418024849924992, 
      "latmin": 51.10137355198254
    }, 
    {
      "latmax": 51.07928628102996, 
      "name": "Beemdstraat", 
      "lonmin": 4.400572183132528, 
      "sanName": "beemdstraat", 
      "numOfAddr": 12, 
      "lonmax": 4.4012116221443485, 
      "latmin": 51.07879703720081
    }, 
    {
      "latmax": 51.10839195272787, 
      "name": "Begijnenbossen", 
      "lonmin": 4.412912884608612, 
      "sanName": "begijnenbossen", 
      "numOfAddr": 77, 
      "lonmax": 4.421204839399957, 
      "latmin": 51.101445841529284
    }, 
    {
      "latmax": 51.11059817374418, 
      "name": "Begonialaan", 
      "lonmin": 4.391889090817274, 
      "sanName": "begonialaan", 
      "numOfAddr": 16, 
      "lonmax": 4.393428700991995, 
      "latmin": 51.10841019700933
    }, 
    {
      "latmax": 51.10299359684224, 
      "name": "Berkenlaan", 
      "lonmin": 4.412783044226523, 
      "sanName": "berkenlaan", 
      "numOfAddr": 7, 
      "lonmax": 4.41401689606549, 
      "latmin": 51.10271888786451
    }, 
    {
      "latmax": 51.10376975168242, 
      "name": "Beukendreef", 
      "lonmin": 4.405221868639989, 
      "sanName": "beukendreef", 
      "numOfAddr": 35, 
      "lonmax": 4.40812215088836, 
      "latmin": 51.100548659048854
    }, 
    {
      "latmax": 51.08725716529855, 
      "name": "Blauwhoevestraat", 
      "lonmin": 4.434424161184895, 
      "sanName": "blauwhoevestraat", 
      "numOfAddr": 9, 
      "lonmax": 4.4351294395949825, 
      "latmin": 51.086317882098236
    }, 
    {
      "latmax": 51.08142711129541, 
      "name": "Boereweg", 
      "lonmin": 4.402960835072648, 
      "sanName": "boereweg", 
      "numOfAddr": 52, 
      "lonmax": 4.404247254176767, 
      "latmin": 51.080350558496335
    }, 
    {
      "latmax": 51.08276466861787, 
      "name": "Boonhof", 
      "lonmin": 4.392660173576382, 
      "sanName": "boonhof", 
      "numOfAddr": 5, 
      "lonmax": 4.393075739181292, 
      "latmin": 51.08260708252462
    }, 
    {
      "latmax": 51.11240446384774, 
      "name": "Borzestraat", 
      "lonmin": 4.412764462754772, 
      "sanName": "borzestraat", 
      "numOfAddr": 13, 
      "lonmax": 4.42103880479675, 
      "latmin": 51.11076282422196
    }, 
    {
      "latmax": 51.08584903213831, 
      "name": "Bussestraat", 
      "lonmin": 4.4452774439435805, 
      "sanName": "bussestraat", 
      "numOfAddr": 33, 
      "lonmax": 4.451511652943158, 
      "latmin": 51.08405475448158
    }, 
    {
      "latmax": 51.08484410788427, 
      "name": "Catenbergstraat", 
      "lonmin": 4.416460168012115, 
      "sanName": "catenbergstraat", 
      "numOfAddr": 6, 
      "lonmax": 4.418709798340618, 
      "latmin": 51.08072950419007
    }, 
    {
      "latmax": 51.11145210127443, 
      "name": "Clemenshoek", 
      "lonmin": 4.396509336044506, 
      "sanName": "clemenshoek", 
      "numOfAddr": 93, 
      "lonmax": 4.407216894641178, 
      "latmin": 51.102154298150076
    }, 
    {
      "latmax": 51.10113683575274, 
      "name": "Constant Permekelaan", 
      "lonmin": 4.399291189667169, 
      "sanName": "constantpermekelaan", 
      "numOfAddr": 6, 
      "lonmax": 4.400251696043432, 
      "latmin": 51.10057257344035
    }, 
    {
      "latmax": 51.08168084062439, 
      "name": "Crequilei", 
      "lonmin": 4.40347496100323, 
      "sanName": "crequilei", 
      "numOfAddr": 26, 
      "lonmax": 4.404557249523233, 
      "latmin": 51.080540886242964
    }, 
    {
      "latmax": 51.1089403326147, 
      "name": "Dalialaan", 
      "lonmin": 4.391751747472223, 
      "sanName": "dalialaan", 
      "numOfAddr": 4, 
      "lonmax": 4.3926257806078635, 
      "latmin": 51.108698715609314
    }, 
    {
      "latmax": 51.10189337045812, 
      "name": "David Tenierslaan", 
      "lonmin": 4.404625858467428, 
      "sanName": "davidtenierslaan", 
      "numOfAddr": 23, 
      "lonmax": 4.406812245228588, 
      "latmin": 51.10137162435317
    }, 
    {
      "latmax": 51.103700354660226, 
      "name": "Dennenlaan", 
      "lonmin": 4.4125472326393265, 
      "sanName": "dennenlaan", 
      "numOfAddr": 38, 
      "lonmax": 4.413603482604672, 
      "latmin": 51.10199590347112
    }, 
    {
      "latmax": 51.10942062643401, 
      "name": "Dieveldenstraat", 
      "lonmin": 4.412401407900744, 
      "sanName": "dieveldenstraat", 
      "numOfAddr": 8, 
      "lonmax": 4.415158284270701, 
      "latmin": 51.10843271436199
    }, 
    {
      "latmax": 51.08699708213247, 
      "name": "Doelhaagstraat", 
      "lonmin": 4.424410948418269, 
      "sanName": "doelhaagstraat", 
      "numOfAddr": 68, 
      "lonmax": 4.431176395007494, 
      "latmin": 51.07909172216936
    }, 
    {
      "latmax": 51.108747890155925, 
      "name": "Donkerstraat", 
      "lonmin": 4.40672106607757, 
      "sanName": "donkerstraat", 
      "numOfAddr": 19, 
      "lonmax": 4.408893019022169, 
      "latmin": 51.10720000297601
    }, 
    {
      "latmax": 51.084576383296074, 
      "name": "Doornlaarlei", 
      "lonmin": 4.456275413489472, 
      "sanName": "doornlaarlei", 
      "numOfAddr": 8, 
      "lonmax": 4.463329694487161, 
      "latmin": 51.080872623644424
    }, 
    {
      "latmax": 51.07687642001618, 
      "name": "Eekhovenweg", 
      "lonmin": 4.453559005861744, 
      "sanName": "eekhovenweg", 
      "numOfAddr": 11, 
      "lonmax": 4.455642779237416, 
      "latmin": 51.07622283589244
    }, 
    {
      "latmax": 51.11614211228373, 
      "name": "Eikenstraat", 
      "lonmin": 4.402567850572494, 
      "sanName": "eikenstraat", 
      "numOfAddr": 219, 
      "lonmax": 4.412856846303367, 
      "latmin": 51.1016425873327
    }, 
    {
      "latmax": 51.08164327261175, 
      "name": "Ekkersgatstraat", 
      "lonmin": 4.429615138079863, 
      "sanName": "ekkersgatstraat", 
      "numOfAddr": 28, 
      "lonmax": 4.431299962564762, 
      "latmin": 51.08097079438657
    }, 
    {
      "latmax": 51.08544301591701, 
      "name": "Emiel Vanderveldestraat", 
      "lonmin": 4.438050148569646, 
      "sanName": "emielvanderveldestraat", 
      "numOfAddr": 11, 
      "lonmax": 4.439510648302387, 
      "latmin": 51.08469981074985
    }, 
    {
      "latmax": 51.109525976122, 
      "name": "Ernest Claeslaan", 
      "lonmin": 4.366079374337917, 
      "sanName": "ernestclaeslaan", 
      "numOfAddr": 20, 
      "lonmax": 4.366441539241314, 
      "latmin": 51.108224947993726
    }, 
    {
      "latmax": 51.106274730020175, 
      "name": "Eugeen Roelandtsstraat", 
      "lonmin": 4.40758742277526, 
      "sanName": "eugeenroelandtsstraat", 
      "numOfAddr": 19, 
      "lonmax": 4.409648302895861, 
      "latmin": 51.105171607914166
    }, 
    {
      "latmax": 51.0772192875835, 
      "name": "Europalaan", 
      "lonmin": 4.401298545579466, 
      "sanName": "europalaan", 
      "numOfAddr": 4, 
      "lonmax": 4.402673254101764, 
      "latmin": 51.076756745541594
    }, 
    {
      "latmax": 51.10304127920713, 
      "name": "Fazantenweg", 
      "lonmin": 4.392641579411467, 
      "sanName": "fazantenweg", 
      "numOfAddr": 20, 
      "lonmax": 4.394502666362134, 
      "latmin": 51.102453125896794
    }, 
    {
      "latmax": 51.10955035074985, 
      "name": "Felix Timmermanslaan", 
      "lonmin": 4.366707087630575, 
      "sanName": "felixtimmermanslaan", 
      "numOfAddr": 34, 
      "lonmax": 4.369021166824467, 
      "latmin": 51.10886900099259
    }, 
    {
      "latmax": 51.08587049433238, 
      "name": "Frans Van Lindenstraat", 
      "lonmin": 4.437337269510101, 
      "sanName": "fransvanlindenstraat", 
      "numOfAddr": 11, 
      "lonmax": 4.438389444005045, 
      "latmin": 51.08518373037077
    }, 
    {
      "latmax": 51.10749661579208, 
      "name": "Gladiolenlaan", 
      "lonmin": 4.390672096116414, 
      "sanName": "gladiolenlaan", 
      "numOfAddr": 31, 
      "lonmax": 4.3923889771569, 
      "latmin": 51.10532771676567
    }, 
    {
      "latmax": 51.10627121431541, 
      "name": "Grote Paepedaelen", 
      "lonmin": 4.373946501781355, 
      "sanName": "grotepaepedaelen", 
      "numOfAddr": 10, 
      "lonmax": 4.375192274890714, 
      "latmin": 51.10507629785698
    }, 
    {
      "latmax": 51.08621370814319, 
      "name": "Guido Gezellestraat", 
      "lonmin": 4.439276471678971, 
      "sanName": "guidogezellestraat", 
      "numOfAddr": 25, 
      "lonmax": 4.441215476547429, 
      "latmin": 51.084239367971655
    }, 
    {
      "latmax": 51.079321297294854, 
      "name": "Haardorst", 
      "lonmin": 4.425037594841056, 
      "sanName": "haardorst", 
      "numOfAddr": 25, 
      "lonmax": 4.4263856219514315, 
      "latmin": 51.078429901982425
    }, 
    {
      "latmax": 51.10216614017907, 
      "name": "Hans Memlinclaan", 
      "lonmin": 4.40257177058889, 
      "sanName": "hansmemlinclaan", 
      "numOfAddr": 12, 
      "lonmax": 4.403260080914756, 
      "latmin": 51.10134968180501
    }, 
    {
      "latmax": 51.1035465148645, 
      "name": "Hazeweg", 
      "lonmin": 4.3907201977027235, 
      "sanName": "hazeweg", 
      "numOfAddr": 13, 
      "lonmax": 4.392032100925396, 
      "latmin": 51.10209875122443
    }, 
    {
      "latmax": 51.093540988736166, 
      "name": "Herderstraat", 
      "lonmin": 4.458127453426785, 
      "sanName": "herderstraat", 
      "numOfAddr": 21, 
      "lonmax": 4.463578157415571, 
      "latmin": 51.08824987776915
    }, 
    {
      "latmax": 51.08572643106235, 
      "name": "Hof ten Eikenlaan", 
      "lonmin": 4.435733006873977, 
      "sanName": "hofteneikenlaan", 
      "numOfAddr": 23, 
      "lonmax": 4.440462020414953, 
      "latmin": 51.08376072160331
    }, 
    {
      "latmax": 51.09068525526544, 
      "name": "Hoge Meentochtstraat", 
      "lonmin": 4.426049877098357, 
      "sanName": "hogemeentochtstraat", 
      "numOfAddr": 22, 
      "lonmax": 4.434689932766074, 
      "latmin": 51.08966814313755
    }, 
    {
      "latmax": 51.08963326351098, 
      "name": "Hoge Vosbergstraat", 
      "lonmin": 4.452990311432745, 
      "sanName": "hogevosbergstraat", 
      "numOfAddr": 49, 
      "lonmax": 4.462512442073446, 
      "latmin": 51.0857598895646
    }, 
    {
      "latmax": 51.10236537229097, 
      "name": "Hoge Weg", 
      "lonmin": 4.409964710079497, 
      "sanName": "hogeweg", 
      "numOfAddr": 8, 
      "lonmax": 4.410586385350673, 
      "latmin": 51.10101350568715
    }, 
    {
      "latmax": 51.109446951758954, 
      "name": "Hoge Zandvelden", 
      "lonmin": 4.395041492179697, 
      "sanName": "hogezandvelden", 
      "numOfAddr": 13, 
      "lonmax": 4.3981824748698815, 
      "latmin": 51.10627484828049
    }, 
    {
      "latmax": 51.09069405425725, 
      "name": "Hollebeekstraat", 
      "lonmin": 4.4204871828686985, 
      "sanName": "hollebeekstraat", 
      "numOfAddr": 94, 
      "lonmax": 4.4224824100576905, 
      "latmin": 51.08060212079367
    }, 
    {
      "latmax": 51.10771126077165, 
      "name": "Hondstraat", 
      "lonmin": 4.4341776534892245, 
      "sanName": "hondstraat", 
      "numOfAddr": 3, 
      "lonmax": 4.436768957955262, 
      "latmin": 51.10642026884696
    }, 
    {
      "latmax": 51.08095978940437, 
      "name": "Hoogstraat", 
      "lonmin": 4.400286616154291, 
      "sanName": "hoogstraat", 
      "numOfAddr": 43, 
      "lonmax": 4.400979341513675, 
      "latmin": 51.079763791731025
    }, 
    {
      "latmax": 51.10255662070258, 
      "name": "Hoogvelden", 
      "lonmin": 4.408848286501423, 
      "sanName": "hoogvelden", 
      "numOfAddr": 10, 
      "lonmax": 4.410033892036335, 
      "latmin": 51.10141792703378
    }, 
    {
      "latmax": 51.108342546635406, 
      "name": "Hortensialaan", 
      "lonmin": 4.3912958533625215, 
      "sanName": "hortensialaan", 
      "numOfAddr": 19, 
      "lonmax": 4.395150057087838, 
      "latmin": 51.10757296232101
    }, 
    {
      "latmax": 51.08768358552334, 
      "name": "Hoveniersstraat", 
      "lonmin": 4.463374936093018, 
      "sanName": "hoveniersstraat", 
      "numOfAddr": 62, 
      "lonmax": 4.467934153283283, 
      "latmin": 51.08023238516589
    }, 
    {
      "latmax": 51.1090787905716, 
      "name": "Irislaan", 
      "lonmin": 4.393738867954892, 
      "sanName": "irislaan", 
      "numOfAddr": 13, 
      "lonmax": 4.395104765921691, 
      "latmin": 51.10848097257315
    }, 
    {
      "latmax": 51.10374671394057, 
      "name": "Jacob Jordaenslaan", 
      "lonmin": 4.401352207880315, 
      "sanName": "jacobjordaenslaan", 
      "numOfAddr": 26, 
      "lonmax": 4.402141752919755, 
      "latmin": 51.10109000232091
    }, 
    {
      "latmax": 51.10286921803958, 
      "name": "James Ensorlaan", 
      "lonmin": 4.404196555941674, 
      "sanName": "jamesensorlaan", 
      "numOfAddr": 27, 
      "lonmax": 4.406642682839683, 
      "latmin": 51.10208899079014
    }, 
    {
      "latmax": 51.102101330402014, 
      "name": "Jan Van Eycklei", 
      "lonmin": 4.403740875921836, 
      "sanName": "janvaneycklei", 
      "numOfAddr": 12, 
      "lonmax": 4.404689155870871, 
      "latmin": 51.10018017524354
    }, 
    {
      "latmax": 51.10384746971785, 
      "name": "Jeroen Boschlaan", 
      "lonmin": 4.4000505173727085, 
      "sanName": "jeroenboschlaan", 
      "numOfAddr": 26, 
      "lonmax": 4.400863842485341, 
      "latmin": 51.10110121899205
    }, 
    {
      "latmax": 51.104319190875884, 
      "name": "Joannes Van Meirhaeghestraat", 
      "lonmin": 4.412064622186233, 
      "sanName": "joannesvanmeirhaeghestraat", 
      "numOfAddr": 2, 
      "lonmax": 4.412377945756763, 
      "latmin": 51.104241285586255
    }, 
    {
      "latmax": 51.08127287718059, 
      "name": "Kamiel Huysmansstraat", 
      "lonmin": 4.398629806475867, 
      "sanName": "kamielhuysmansstraat", 
      "numOfAddr": 37, 
      "lonmax": 4.400386253581566, 
      "latmin": 51.07971770597476
    }, 
    {
      "latmax": 51.08229470139196, 
      "name": "Kapellenlei", 
      "lonmin": 4.445479608005917, 
      "sanName": "kapellenlei", 
      "numOfAddr": 7, 
      "lonmax": 4.450700267518458, 
      "latmin": 51.079065994384116
    }, 
    {
      "latmax": 51.083171770034056, 
      "name": "Kapelstraat", 
      "lonmin": 4.3890763911634885, 
      "sanName": "kapelstraat", 
      "numOfAddr": 55, 
      "lonmax": 4.394474985737603, 
      "latmin": 51.08130707951067
    }, 
    {
      "latmax": 51.080755303782524, 
      "name": "Kardinaal Cardijnstraat", 
      "lonmin": 4.395048201129246, 
      "sanName": "kardinaalcardijnstraat", 
      "numOfAddr": 56, 
      "lonmax": 4.399382364008363, 
      "latmin": 51.07898429401067
    }, 
    {
      "latmax": 51.07793457231281, 
      "name": "Karl Marxstraat", 
      "lonmin": 4.398670500710537, 
      "sanName": "karlmarxstraat", 
      "numOfAddr": 55, 
      "lonmax": 4.4019428072321265, 
      "latmin": 51.0772513596451
    }, 
    {
      "latmax": 51.099869455084516, 
      "name": "Kasteelweg", 
      "lonmin": 4.4163135380764205, 
      "sanName": "kasteelweg", 
      "numOfAddr": 1, 
      "lonmax": 4.4163135380764205, 
      "latmin": 51.099869455084516
    }, 
    {
      "latmax": 51.07745969359533, 
      "name": "Kazernestraat", 
      "lonmin": 4.423916042113208, 
      "sanName": "kazernestraat", 
      "numOfAddr": 5, 
      "lonmax": 4.424373171807194, 
      "latmin": 51.077272223578284
    }, 
    {
      "latmax": 51.09651270678627, 
      "name": "Keelhoevestraat", 
      "lonmin": 4.419926446390161, 
      "sanName": "keelhoevestraat", 
      "numOfAddr": 8, 
      "lonmax": 4.43052313987966, 
      "latmin": 51.09294159720817
    }, 
    {
      "latmax": 51.10081521218747, 
      "name": "Kerkelei", 
      "lonmin": 4.411922468760172, 
      "sanName": "kerkelei", 
      "numOfAddr": 8, 
      "lonmax": 4.41277401280389, 
      "latmin": 51.10059462785998
    }, 
    {
      "latmax": 51.08957432857314, 
      "name": "Kerkenhoek", 
      "lonmin": 4.3942006125820114, 
      "sanName": "kerkenhoek", 
      "numOfAddr": 3, 
      "lonmax": 4.394321652676694, 
      "latmin": 51.08956653519291
    }, 
    {
      "latmax": 51.083171266801614, 
      "name": "Kerkhofstraat", 
      "lonmin": 4.429539303608625, 
      "sanName": "kerkhofstraat", 
      "numOfAddr": 42, 
      "lonmax": 4.433657141099306, 
      "latmin": 51.08171447871642
    }, 
    {
      "latmax": 51.08193737941317, 
      "name": "Kerkstraat", 
      "lonmin": 4.425473860849777, 
      "sanName": "kerkstraat", 
      "numOfAddr": 93, 
      "lonmax": 4.434519265250313, 
      "latmin": 51.07707916306408
    }, 
    {
      "latmax": 51.10912410294854, 
      "name": "Kerkweg", 
      "lonmin": 4.389977827285782, 
      "sanName": "kerkweg", 
      "numOfAddr": 3, 
      "lonmax": 4.3904151696124405, 
      "latmin": 51.10885384412335
    }, 
    {
      "latmax": 51.09904985606933, 
      "name": "Kerremansstraat", 
      "lonmin": 4.399445527978393, 
      "sanName": "kerremansstraat", 
      "numOfAddr": 33, 
      "lonmax": 4.406461415873274, 
      "latmin": 51.09476916152368
    }, 
    {
      "latmax": 51.114846856766576, 
      "name": "Keulshaagweg", 
      "lonmin": 4.4068332567337585, 
      "sanName": "keulshaagweg", 
      "numOfAddr": 25, 
      "lonmax": 4.412137242466059, 
      "latmin": 51.10763251309703
    }, 
    {
      "latmax": 51.109452992124794, 
      "name": "Kleine Paepedaelenlaan", 
      "lonmin": 4.363160290457455, 
      "sanName": "kleinepaepedaelenlaan", 
      "numOfAddr": 14, 
      "lonmax": 4.364411001742573, 
      "latmin": 51.10761896988457
    }, 
    {
      "latmax": 51.08014985244532, 
      "name": "Kloosterstraat", 
      "lonmin": 4.3955762603422, 
      "sanName": "kloosterstraat", 
      "numOfAddr": 18, 
      "lonmax": 4.396508610997414, 
      "latmin": 51.079410147941466
    }, 
    {
      "latmax": 51.10539358974277, 
      "name": "Kneukelputlei", 
      "lonmin": 4.418224288348846, 
      "sanName": "kneukelputlei", 
      "numOfAddr": 5, 
      "lonmax": 4.4234865215772885, 
      "latmin": 51.101484662787804
    }, 
    {
      "latmax": 51.10174839937087, 
      "name": "Koningin Astridplein", 
      "lonmin": 4.411784557722531, 
      "sanName": "koninginastridplein", 
      "numOfAddr": 13, 
      "lonmax": 4.412851925525747, 
      "latmin": 51.100795988241565
    }, 
    {
      "latmax": 51.08109212408532, 
      "name": "Korte Nieuwstraat", 
      "lonmin": 4.4010584063212645, 
      "sanName": "kortenieuwstraat", 
      "numOfAddr": 40, 
      "lonmax": 4.402132520830858, 
      "latmin": 51.07987103307022
    }, 
    {
      "latmax": 51.080583276193565, 
      "name": "Korte Veerstraat", 
      "lonmin": 4.392008004540972, 
      "sanName": "korteveerstraat", 
      "numOfAddr": 21, 
      "lonmax": 4.394964763088672, 
      "latmin": 51.078488316854454
    }, 
    {
      "latmax": 51.07607054558383, 
      "name": "Korte Vissersstraat", 
      "lonmin": 4.422215702629408, 
      "sanName": "kortevissersstraat", 
      "numOfAddr": 7, 
      "lonmax": 4.422861368848126, 
      "latmin": 51.07578154406133
    }, 
    {
      "latmax": 51.10786672377369, 
      "name": "Krokuslaan", 
      "lonmin": 4.391729713714926, 
      "sanName": "krokuslaan", 
      "numOfAddr": 21, 
      "lonmax": 4.394164226407394, 
      "latmin": 51.106723759524684
    }, 
    {
      "latmax": 51.08856963390034, 
      "name": "Kromhoutstraat", 
      "lonmin": 4.435686427340964, 
      "sanName": "kromhoutstraat", 
      "numOfAddr": 32, 
      "lonmax": 4.439960424401478, 
      "latmin": 51.08605829171079
    }, 
    {
      "latmax": 51.083628496387384, 
      "name": "Kruislei", 
      "lonmin": 4.433839200811437, 
      "sanName": "kruislei", 
      "numOfAddr": 8, 
      "lonmax": 4.434831907366452, 
      "latmin": 51.082575285549765
    }, 
    {
      "latmax": 51.10157434625245, 
      "name": "Laarstraat", 
      "lonmin": 4.412929733501269, 
      "sanName": "laarstraat", 
      "numOfAddr": 41, 
      "lonmax": 4.420916550106225, 
      "latmin": 51.10011470907273
    }, 
    {
      "latmax": 51.088694823474555, 
      "name": "Lage Vosbergstraat", 
      "lonmin": 4.452733221838344, 
      "sanName": "lagevosbergstraat", 
      "numOfAddr": 77, 
      "lonmax": 4.46824262414591, 
      "latmin": 51.084227057795616
    }, 
    {
      "latmax": 51.07855657803769, 
      "name": "Lazarusstraat", 
      "lonmin": 4.453059780552409, 
      "sanName": "lazarusstraat", 
      "numOfAddr": 12, 
      "lonmax": 4.46491155967871, 
      "latmin": 51.07637861948592
    }, 
    {
      "latmax": 51.09082833102385, 
      "name": "Leemstraat", 
      "lonmin": 4.427826397021283, 
      "sanName": "leemstraat", 
      "numOfAddr": 9, 
      "lonmax": 4.428414817701248, 
      "latmin": 51.09010485055434
    }, 
    {
      "latmax": 51.11035735247665, 
      "name": "Leli\u0089nlaan", 
      "lonmin": 4.386366423824703, 
      "sanName": "lelinlaan", 
      "numOfAddr": 37, 
      "lonmax": 4.390475338503808, 
      "latmin": 51.10859540549488
    }, 
    {
      "latmax": 51.10418649948048, 
      "name": "Lindenlaan", 
      "lonmin": 4.415340800314349, 
      "sanName": "lindenlaan", 
      "numOfAddr": 16, 
      "lonmax": 4.416874178414576, 
      "latmin": 51.103160105430774
    }, 
    {
      "latmax": 51.08031649501814, 
      "name": "Lochtveld", 
      "lonmin": 4.429143877380862, 
      "sanName": "lochtveld", 
      "numOfAddr": 2, 
      "lonmax": 4.429365873303803, 
      "latmin": 51.079952241137775
    }, 
    {
      "latmax": 51.10877578908539, 
      "name": "Lode Zielenslaan", 
      "lonmin": 4.366939716570252, 
      "sanName": "lodezielenslaan", 
      "numOfAddr": 27, 
      "lonmax": 4.368660039814353, 
      "latmin": 51.108231158316144
    }, 
    {
      "latmax": 51.08924314716231, 
      "name": "Louis Paul Boonstraat", 
      "lonmin": 4.436198416036239, 
      "sanName": "louispaulboonstraat", 
      "numOfAddr": 20, 
      "lonmax": 4.4372555694447025, 
      "latmin": 51.08803262137641
    }, 
    {
      "latmax": 51.099510532671964, 
      "name": "Maalderijstraat", 
      "lonmin": 4.451674799434312, 
      "sanName": "maalderijstraat", 
      "numOfAddr": 7, 
      "lonmax": 4.453277371619053, 
      "latmin": 51.098751364405324
    }, 
    {
      "latmax": 51.077417194891275, 
      "name": "Markt", 
      "lonmin": 4.424489611347413, 
      "sanName": "markt", 
      "numOfAddr": 40, 
      "lonmax": 4.426354043698281, 
      "latmin": 51.07552752371097
    }, 
    {
      "latmax": 51.08519870988174, 
      "name": "Mechelsesteenweg", 
      "lonmin": 4.448523212385861, 
      "sanName": "mechelsesteenweg", 
      "numOfAddr": 97, 
      "lonmax": 4.4550416493341345, 
      "latmin": 51.074793404249434
    }, 
    {
      "latmax": 51.08044140001177, 
      "name": "Molenbergstraat", 
      "lonmin": 4.4216838277987645, 
      "sanName": "molenbergstraat", 
      "numOfAddr": 99, 
      "lonmax": 4.424076677762314, 
      "latmin": 51.07718933124199
    }, 
    {
      "latmax": 51.102287849544446, 
      "name": "Molenstraat", 
      "lonmin": 4.389523501956846, 
      "sanName": "molenstraat", 
      "numOfAddr": 205, 
      "lonmax": 4.411600978248787, 
      "latmin": 51.09771018405831
    }, 
    {
      "latmax": 51.07826335352115, 
      "name": "Molenveld", 
      "lonmin": 4.419633000428343, 
      "sanName": "molenveld", 
      "numOfAddr": 86, 
      "lonmax": 4.423006448713461, 
      "latmin": 51.07672316313124
    }, 
    {
      "latmax": 51.083173184715534, 
      "name": "Molleveld", 
      "lonmin": 4.389224140901132, 
      "sanName": "molleveld", 
      "numOfAddr": 11, 
      "lonmax": 4.389993050064251, 
      "latmin": 51.082898659931956
    }, 
    {
      "latmax": 51.103924369306924, 
      "name": "Monnikenhofstraat", 
      "lonmin": 4.390625426209754, 
      "sanName": "monnikenhofstraat", 
      "numOfAddr": 22, 
      "lonmax": 4.396674498902386, 
      "latmin": 51.102653642373554
    }, 
    {
      "latmax": 51.090943497539094, 
      "name": "Morenhoekstraat", 
      "lonmin": 4.443968191408089, 
      "sanName": "morenhoekstraat", 
      "numOfAddr": 31, 
      "lonmax": 4.449701728758627, 
      "latmin": 51.08575095682578
    }, 
    {
      "latmax": 51.10031962356141, 
      "name": "Morenhoevestraat", 
      "lonmin": 4.429030330724028, 
      "sanName": "morenhoevestraat", 
      "numOfAddr": 13, 
      "lonmax": 4.434992534273568, 
      "latmin": 51.09485201574086
    }, 
    {
      "latmax": 51.11508976847208, 
      "name": "Nedrickxhoeveweg", 
      "lonmin": 4.423120642237466, 
      "sanName": "nedrickxhoeveweg", 
      "numOfAddr": 7, 
      "lonmax": 4.425988630654841, 
      "latmin": 51.112438915242315
    }, 
    {
      "latmax": 51.07788964057079, 
      "name": "Netestraat", 
      "lonmin": 4.445171153897976, 
      "sanName": "netestraat", 
      "numOfAddr": 54, 
      "lonmax": 4.45188181876636, 
      "latmin": 51.076317864276135
    }, 
    {
      "latmax": 51.084825816943116, 
      "name": "Nieuwstraat", 
      "lonmin": 4.399272699169598, 
      "sanName": "nieuwstraat", 
      "numOfAddr": 101, 
      "lonmax": 4.415940836169221, 
      "latmin": 51.079126511625844
    }, 
    {
      "latmax": 51.07977497945475, 
      "name": "Nijverheidsstraat", 
      "lonmin": 4.418246811544445, 
      "sanName": "nijverheidsstraat", 
      "numOfAddr": 76, 
      "lonmax": 4.421004990622593, 
      "latmin": 51.07578230986874
    }, 
    {
      "latmax": 51.10571027224987, 
      "name": "Olmenlaan", 
      "lonmin": 4.411760551910833, 
      "sanName": "olmenlaan", 
      "numOfAddr": 53, 
      "lonmax": 4.41404929915157, 
      "latmin": 51.10303252594963
    }, 
    {
      "latmax": 51.07699796350499, 
      "name": "Ontvoogdingstraat", 
      "lonmin": 4.3994994336796385, 
      "sanName": "ontvoogdingstraat", 
      "numOfAddr": 32, 
      "lonmax": 4.401308672621054, 
      "latmin": 51.07647951223827
    }, 
    {
      "latmax": 51.079298303840766, 
      "name": "Oude Baan", 
      "lonmin": 4.3992474996396425, 
      "sanName": "oudebaan", 
      "numOfAddr": 59, 
      "lonmax": 4.404964423664583, 
      "latmin": 51.078230820761924
    }, 
    {
      "latmax": 51.078908410900475, 
      "name": "Oude Brouwerijstraat", 
      "lonmin": 4.398765424585964, 
      "sanName": "oudebrouwerijstraat", 
      "numOfAddr": 13, 
      "lonmax": 4.399228480393183, 
      "latmin": 51.078473831151776
    }, 
    {
      "latmax": 51.07746424158616, 
      "name": "Overwinningstraat", 
      "lonmin": 4.397061831694269, 
      "sanName": "overwinningstraat", 
      "numOfAddr": 42, 
      "lonmax": 4.3994197476988814, 
      "latmin": 51.07655202638632
    }, 
    {
      "latmax": 51.08717027669375, 
      "name": "Pastoor Slegersstraat", 
      "lonmin": 4.456127135539012, 
      "sanName": "pastoorslegersstraat", 
      "numOfAddr": 6, 
      "lonmax": 4.4568346917318395, 
      "latmin": 51.08662061646636
    }, 
    {
      "latmax": 51.07836316252884, 
      "name": "Peperstraat", 
      "lonmin": 4.424718871086663, 
      "sanName": "peperstraat", 
      "numOfAddr": 11, 
      "lonmax": 4.42497763035755, 
      "latmin": 51.07758291028065
    }, 
    {
      "latmax": 51.09367618247237, 
      "name": "Petrus Van der Taelenstraat", 
      "lonmin": 4.432658285708647, 
      "sanName": "petrusvandertaelenstraat", 
      "numOfAddr": 37, 
      "lonmax": 4.438315616727035, 
      "latmin": 51.084031698311975
    }, 
    {
      "latmax": 51.10905729754458, 
      "name": "Philip de Pillecijnlaan", 
      "lonmin": 4.364134886669191, 
      "sanName": "philipdepillecijnlaan", 
      "numOfAddr": 30, 
      "lonmax": 4.3660067328268015, 
      "latmin": 51.10850562559347
    }, 
    {
      "latmax": 51.11797278422174, 
      "name": "Pierstraat", 
      "lonmin": 4.359914961292526, 
      "sanName": "pierstraat", 
      "numOfAddr": 189, 
      "lonmax": 4.404472097933584, 
      "latmin": 51.10922210973902
    }, 
    {
      "latmax": 51.104284852689545, 
      "name": "Pieter Breughellaan", 
      "lonmin": 4.400539260040818, 
      "sanName": "pieterbreughellaan", 
      "numOfAddr": 34, 
      "lonmax": 4.405054968790503, 
      "latmin": 51.103675926457676
    }, 
    {
      "latmax": 51.10112938497973, 
      "name": "Pieter Pauwel Rubenslaan", 
      "lonmin": 4.400563297435464, 
      "sanName": "pieterpauwelrubenslaan", 
      "numOfAddr": 19, 
      "lonmax": 4.403809211283921, 
      "latmin": 51.100627990697795
    }, 
    {
      "latmax": 51.08207603514531, 
      "name": "Polder", 
      "lonmin": 4.387727025479792, 
      "sanName": "polder", 
      "numOfAddr": 10, 
      "lonmax": 4.390923105543202, 
      "latmin": 51.0802661935808
    }, 
    {
      "latmax": 51.08242927958029, 
      "name": "Pompstraat", 
      "lonmin": 4.389587546046557, 
      "sanName": "pompstraat", 
      "numOfAddr": 5, 
      "lonmax": 4.389929338402758, 
      "latmin": 51.08210996870138
    }, 
    {
      "latmax": 51.07806023139793, 
      "name": "Populierenlaan", 
      "lonmin": 4.395005242874568, 
      "sanName": "populierenlaan", 
      "numOfAddr": 49, 
      "lonmax": 4.4012640207591485, 
      "latmin": 51.07615677953563
    }, 
    {
      "latmax": 51.094737408262205, 
      "name": "Potaardestraat", 
      "lonmin": 4.452729856289564, 
      "sanName": "potaardestraat", 
      "numOfAddr": 5, 
      "lonmax": 4.453778662269885, 
      "latmin": 51.09374477793929
    }, 
    {
      "latmax": 51.11111664227858, 
      "name": "Predikherenhoevestraat", 
      "lonmin": 4.377893065723339, 
      "sanName": "predikherenhoevestraat", 
      "numOfAddr": 84, 
      "lonmax": 4.388624321781808, 
      "latmin": 51.10193666334479
    }, 
    {
      "latmax": 51.08748989759488, 
      "name": "Priester Daensstraat", 
      "lonmin": 4.437001739988025, 
      "sanName": "priesterdaensstraat", 
      "numOfAddr": 20, 
      "lonmax": 4.4395634880975186, 
      "latmin": 51.086957886034746
    }, 
    {
      "latmax": 51.104632063965255, 
      "name": "Processieweg", 
      "lonmin": 4.4090427154320855, 
      "sanName": "processieweg", 
      "numOfAddr": 6, 
      "lonmax": 4.410879648842738, 
      "latmin": 51.10322382308681
    }, 
    {
      "latmax": 51.081154592441386, 
      "name": "Putstraat", 
      "lonmin": 4.4021307377943355, 
      "sanName": "putstraat", 
      "numOfAddr": 30, 
      "lonmax": 4.402941611551168, 
      "latmin": 51.0801385668096
    }, 
    {
      "latmax": 51.104353567889575, 
      "name": "Quinten Matsijslaan", 
      "lonmin": 4.398122706978819, 
      "sanName": "quintenmatsijslaan", 
      "numOfAddr": 34, 
      "lonmax": 4.400292414068524, 
      "latmin": 51.10130145369409
    }, 
    {
      "latmax": 51.07962539426545, 
      "name": "Romeins Veld", 
      "lonmin": 4.419346287131097, 
      "sanName": "romeinsveld", 
      "numOfAddr": 46, 
      "lonmax": 4.421790800621987, 
      "latmin": 51.077577227834595
    }, 
    {
      "latmax": 51.1100746157628, 
      "name": "Rozenlaan", 
      "lonmin": 4.387128926790889, 
      "sanName": "rozenlaan", 
      "numOfAddr": 50, 
      "lonmax": 4.392049094511447, 
      "latmin": 51.1045554792647
    }, 
    {
      "latmax": 51.100990669976916, 
      "name": "Rumstsestraat", 
      "lonmin": 4.412428241223398, 
      "sanName": "rumstsestraat", 
      "numOfAddr": 46, 
      "lonmax": 4.418758102751817, 
      "latmin": 51.093329613204276
    }, 
    {
      "latmax": 51.08034860769698, 
      "name": "Rupelstraat", 
      "lonmin": 4.395090863507761, 
      "sanName": "rupelstraat", 
      "numOfAddr": 27, 
      "lonmax": 4.395897153147402, 
      "latmin": 51.07973981282333
    }, 
    {
      "latmax": 51.10952979367211, 
      "name": "Salvialaan", 
      "lonmin": 4.3874063030069825, 
      "sanName": "salvialaan", 
      "numOfAddr": 50, 
      "lonmax": 4.390088540006438, 
      "latmin": 51.10572008875984
    }, 
    {
      "latmax": 51.11152285462096, 
      "name": "Schanshoeveweg", 
      "lonmin": 4.418800500276453, 
      "sanName": "schanshoeveweg", 
      "numOfAddr": 8, 
      "lonmax": 4.424627980152368, 
      "latmin": 51.10986555352923
    }, 
    {
      "latmax": 51.10603586835409, 
      "name": "Schensbossen", 
      "lonmin": 4.400045381505565, 
      "sanName": "schensbossen", 
      "numOfAddr": 17, 
      "lonmax": 4.403788681288908, 
      "latmin": 51.10485234658108
    }, 
    {
      "latmax": 51.07872821666075, 
      "name": "Schoolstraat", 
      "lonmin": 4.425918889565165, 
      "sanName": "schoolstraat", 
      "numOfAddr": 5, 
      "lonmax": 4.427404481780732, 
      "latmin": 51.07819836901558
    }, 
    {
      "latmax": 51.07997589931103, 
      "name": "Schransstraat", 
      "lonmin": 4.404566601969463, 
      "sanName": "schransstraat", 
      "numOfAddr": 20, 
      "lonmax": 4.404934667470009, 
      "latmin": 51.07923009324441
    }, 
    {
      "latmax": 51.10826546247749, 
      "name": "Seringenlaan", 
      "lonmin": 4.389113392107139, 
      "sanName": "seringenlaan", 
      "numOfAddr": 10, 
      "lonmax": 4.390230575484826, 
      "latmin": 51.10765571906036
    }, 
    {
      "latmax": 51.10896913770616, 
      "name": "'s Herenbaan", 
      "lonmin": 2.306689562140502, 
      "sanName": "sherenbaan", 
      "numOfAddr": 126, 
      "lonmax": 4.402177042618563, 
      "latmin": 49.293335165093566
    }, 
    {
      "latmax": 51.11201604353416, 
      "name": "Sint Janstraat", 
      "lonmin": 4.383324254385889, 
      "sanName": "sintjanstraat", 
      "numOfAddr": 34, 
      "lonmax": 4.384021467656301, 
      "latmin": 51.11110879128189
    }, 
    {
      "latmax": 51.11187678952204, 
      "name": "Sint Jozefstraat", 
      "lonmin": 4.3829246976440315, 
      "sanName": "sintjozefstraat", 
      "numOfAddr": 34, 
      "lonmax": 4.385376997411779, 
      "latmin": 51.11057162247899
    }, 
    {
      "latmax": 51.07934367608302, 
      "name": "Sleutelhof", 
      "lonmin": 4.427482746169241, 
      "sanName": "sleutelhof", 
      "numOfAddr": 11, 
      "lonmax": 4.428252862757572, 
      "latmin": 51.07888477216063
    }, 
    {
      "latmax": 51.09721266585214, 
      "name": "Slijkenhoefstraat", 
      "lonmin": 4.4401172626333825, 
      "sanName": "slijkenhoefstraat", 
      "numOfAddr": 41, 
      "lonmax": 4.451012409776361, 
      "latmin": 51.09289492381071
    }, 
    {
      "latmax": 51.078277274682655, 
      "name": "Statiestraat", 
      "lonmin": 4.4237130438015875, 
      "sanName": "statiestraat", 
      "numOfAddr": 6, 
      "lonmax": 4.424429462230395, 
      "latmin": 51.078178981609454
    }, 
    {
      "latmax": 51.07964200119528, 
      "name": "Steenbakkerijstraat", 
      "lonmin": 4.403639556879554, 
      "sanName": "steenbakkerijstraat", 
      "numOfAddr": 13, 
      "lonmax": 4.40386789141709, 
      "latmin": 51.07910071289486
    }, 
    {
      "latmax": 51.08116268609102, 
      "name": "Steenberghoekstraat", 
      "lonmin": 4.41596444647658, 
      "sanName": "steenberghoekstraat", 
      "numOfAddr": 31, 
      "lonmax": 4.421293242210652, 
      "latmin": 51.07897688511481
    }, 
    {
      "latmax": 51.1047852468022, 
      "name": "Steenweg op Waarloos", 
      "lonmin": 4.417102378108503, 
      "sanName": "steenwegopwaarloos", 
      "numOfAddr": 57, 
      "lonmax": 4.4316034037735195, 
      "latmin": 51.10019810068141
    }, 
    {
      "latmax": 51.109381699367795, 
      "name": "Stijn Streuvelslaan", 
      "lonmin": 4.363911107119634, 
      "sanName": "stijnstreuvelslaan", 
      "numOfAddr": 8, 
      "lonmax": 4.365692701615056, 
      "latmin": 51.109240436699174
    }, 
    {
      "latmax": 51.079335305341786, 
      "name": "Stille Weg", 
      "lonmin": 4.397062299837438, 
      "sanName": "stilleweg", 
      "numOfAddr": 1, 
      "lonmax": 4.397062299837438, 
      "latmin": 51.079335305341786
    }, 
    {
      "latmax": 51.08521843846177, 
      "name": "Tiburstraat", 
      "lonmin": 4.434763919870661, 
      "sanName": "tiburstraat", 
      "numOfAddr": 40, 
      "lonmax": 4.441819006573182, 
      "latmin": 51.08150238807844
    }, 
    {
      "latmax": 51.08102568760963, 
      "name": "Tuinwijk", 
      "lonmin": 4.422554192412117, 
      "sanName": "tuinwijk", 
      "numOfAddr": 109, 
      "lonmax": 4.430912041224149, 
      "latmin": 51.07981963939954
    }, 
    {
      "latmax": 51.08066307439811, 
      "name": "Tuinwijklaan", 
      "lonmin": 4.4009540481762155, 
      "sanName": "tuinwijklaan", 
      "numOfAddr": 51, 
      "lonmax": 4.426364890727662, 
      "latmin": 51.07749821189924
    }, 
    {
      "latmax": 51.105709191061834, 
      "name": "Tulpenlaan", 
      "lonmin": 4.388669107057929, 
      "sanName": "tulpenlaan", 
      "numOfAddr": 29, 
      "lonmax": 4.392052397555105, 
      "latmin": 51.10472670565837
    }, 
    {
      "latmax": 51.07904949317104, 
      "name": "Uitbreidingstraat", 
      "lonmin": 4.39382229118571, 
      "sanName": "uitbreidingstraat", 
      "numOfAddr": 33, 
      "lonmax": 4.398540651918843, 
      "latmin": 51.07760632355223
    }, 
    {
      "latmax": 51.11174233704769, 
      "name": "Varenbroekstraat", 
      "lonmin": 4.425059163329178, 
      "sanName": "varenbroekstraat", 
      "numOfAddr": 8, 
      "lonmax": 4.431477885025724, 
      "latmin": 51.107863730258835
    }, 
    {
      "latmax": 51.110534030781146, 
      "name": "Varenlaan", 
      "lonmin": 4.392674724267261, 
      "sanName": "varenlaan", 
      "numOfAddr": 18, 
      "lonmax": 4.394648959984646, 
      "latmin": 51.109316390412936
    }, 
    {
      "latmax": 51.082694201521136, 
      "name": "Varenstraat", 
      "lonmin": 4.4529687620869804, 
      "sanName": "varenstraat", 
      "numOfAddr": 60, 
      "lonmax": 4.46512648190463, 
      "latmin": 51.0787543482948
    }, 
    {
      "latmax": 51.07726319573722, 
      "name": "Veerstraat", 
      "lonmin": 4.420038232260587, 
      "sanName": "veerstraat", 
      "numOfAddr": 94, 
      "lonmax": 4.424477442299136, 
      "latmin": 51.07511647751816
    }, 
    {
      "latmax": 51.08112841627657, 
      "name": "Veldstraat", 
      "lonmin": 4.3966319314223234, 
      "sanName": "veldstraat", 
      "numOfAddr": 54, 
      "lonmax": 4.399153051133769, 
      "latmin": 51.080069162017345
    }, 
    {
      "latmax": 51.0768691131834, 
      "name": "Vissersstraat", 
      "lonmin": 4.42064446553694, 
      "sanName": "vissersstraat", 
      "numOfAddr": 81, 
      "lonmax": 4.424398002682632, 
      "latmin": 51.074118461236075
    }, 
    {
      "latmax": 51.08312695410447, 
      "name": "Vorft", 
      "lonmin": 4.390142732373984, 
      "sanName": "vorft", 
      "numOfAddr": 5, 
      "lonmax": 4.390341516432592, 
      "latmin": 51.082999190597604
    }, 
    {
      "latmax": 51.07861394075472, 
      "name": "Waterkant", 
      "lonmin": 4.4043206576271245, 
      "sanName": "waterkant", 
      "numOfAddr": 6, 
      "lonmax": 4.404826302492814, 
      "latmin": 51.07790728069715
    }, 
    {
      "latmax": 51.08659874871627, 
      "name": "Weivelden", 
      "lonmin": 4.436091040852114, 
      "sanName": "weivelden", 
      "numOfAddr": 28, 
      "lonmax": 4.440497353211122, 
      "latmin": 51.08585605755399
    }, 
    {
      "latmax": 51.10678091641256, 
      "name": "Wilgenveld", 
      "lonmin": 4.411155567933406, 
      "sanName": "wilgenveld", 
      "numOfAddr": 32, 
      "lonmax": 4.413276425008256, 
      "latmin": 51.10578572844568
    }, 
    {
      "latmax": 51.111788213816276, 
      "name": "Zonnebloemlaan", 
      "lonmin": 4.390611654705056, 
      "sanName": "zonnebloemlaan", 
      "numOfAddr": 31, 
      "lonmax": 4.394822077005321, 
      "latmin": 51.11022056714119
    }
  ]
}