{
  "streets": [
    {
      "latmax": 51.33003207719448, 
      "name": "Abdijlaan", 
      "lonmin": 4.628858394179581, 
      "sanName": "abdijlaan", 
      "numOfAddr": 34, 
      "lonmax": 4.6414919935362295, 
      "latmin": 51.2948277992845
    }, 
    {
      "latmax": 51.32598209519762, 
      "name": "Achteromstraat", 
      "lonmin": 4.572929722635372, 
      "sanName": "achteromstraat", 
      "numOfAddr": 18, 
      "lonmax": 4.577351150019178, 
      "latmin": 51.32410533004736
    }, 
    {
      "latmax": 51.350240125288224, 
      "name": "A. Daenslaan", 
      "lonmin": 4.671599174396471, 
      "sanName": "adaenslaan", 
      "numOfAddr": 26, 
      "lonmax": 4.674289316917703, 
      "latmin": 51.34901004988409
    }, 
    {
      "latmax": 51.35182168384874, 
      "name": "A. Desmedtlaan", 
      "lonmin": 4.680456550061095, 
      "sanName": "adesmedtlaan", 
      "numOfAddr": 9, 
      "lonmax": 4.682425527730523, 
      "latmin": 51.35084582865885
    }, 
    {
      "latmax": 51.34947893479242, 
      "name": "Akkerweg", 
      "lonmin": 4.631917139333233, 
      "sanName": "akkerweg", 
      "numOfAddr": 8, 
      "lonmax": 4.632730022382054, 
      "latmin": 51.34834160195693
    }, 
    {
      "latmax": 51.31994220135114, 
      "name": "Albatrosdreef", 
      "lonmin": 4.558804421350439, 
      "sanName": "albatrosdreef", 
      "numOfAddr": 52, 
      "lonmax": 4.566976218663884, 
      "latmin": 51.317204329647566
    }, 
    {
      "latmax": 51.2945593416999, 
      "name": "Albertdreef", 
      "lonmin": 4.55196465308196, 
      "sanName": "albertdreef", 
      "numOfAddr": 19, 
      "lonmax": 4.553232644530197, 
      "latmin": 51.290120003526894
    }, 
    {
      "latmax": 51.29734932232262, 
      "name": "Alfons De Clerckstraat", 
      "lonmin": 4.570704752072144, 
      "sanName": "alfonsdeclerckstraat", 
      "numOfAddr": 9, 
      "lonmax": 4.571315582079347, 
      "latmin": 51.2964637264026
    }, 
    {
      "latmax": 51.35571784623753, 
      "name": "Ambachtslaan", 
      "lonmin": 4.633449699778512, 
      "sanName": "ambachtslaan", 
      "numOfAddr": 6, 
      "lonmax": 4.634783333769903, 
      "latmin": 51.35339558945874
    }, 
    {
      "latmax": 51.32258571173426, 
      "name": "Andr\u0082laan", 
      "lonmin": 4.573925172671207, 
      "sanName": "andrlaan", 
      "numOfAddr": 21, 
      "lonmax": 4.584635550328021, 
      "latmin": 51.316605159683014
    }, 
    {
      "latmax": 51.306104527630254, 
      "name": "Anjerslaan", 
      "lonmin": 4.5747895168596635, 
      "sanName": "anjerslaan", 
      "numOfAddr": 3, 
      "lonmax": 4.575507461969612, 
      "latmin": 51.30598625375015
    }, 
    {
      "latmax": 51.28958695584046, 
      "name": "Appelvinklaan", 
      "lonmin": 4.557581600718651, 
      "sanName": "appelvinklaan", 
      "numOfAddr": 13, 
      "lonmax": 4.559254189401508, 
      "latmin": 51.28837643686573
    }, 
    {
      "latmax": 51.30203243329582, 
      "name": "Arthur Winterslaan", 
      "lonmin": 4.563727880645724, 
      "sanName": "arthurwinterslaan", 
      "numOfAddr": 13, 
      "lonmax": 4.564830234496678, 
      "latmin": 51.30145741938156
    }, 
    {
      "latmax": 51.29959637096976, 
      "name": "Astridlaan", 
      "lonmin": 4.581666852935874, 
      "sanName": "astridlaan", 
      "numOfAddr": 10, 
      "lonmax": 4.58338792819505, 
      "latmin": 51.29879470485828
    }, 
    {
      "latmax": 51.30428318805748, 
      "name": "Baan op Sas 2", 
      "lonmin": 4.586655417114514, 
      "sanName": "baanopsas2", 
      "numOfAddr": 77, 
      "lonmax": 4.589883758021139, 
      "latmin": 51.29397665039085
    }, 
    {
      "latmax": 51.307758572900646, 
      "name": "Baan op Sas 3", 
      "lonmin": 4.577833288530513, 
      "sanName": "baanopsas3", 
      "numOfAddr": 10, 
      "lonmax": 4.579543902716099, 
      "latmin": 51.30653893413127
    }, 
    {
      "latmax": 51.32702244763352, 
      "name": "Bachlaan", 
      "lonmin": 4.573665907939621, 
      "sanName": "bachlaan", 
      "numOfAddr": 16, 
      "lonmax": 4.575106810207516, 
      "latmin": 51.32590280009374
    }, 
    {
      "latmax": 51.30999248732116, 
      "name": "Bareellaan", 
      "lonmin": 4.57741174757702, 
      "sanName": "bareellaan", 
      "numOfAddr": 5, 
      "lonmax": 4.578341330471266, 
      "latmin": 51.308631390876
    }, 
    {
      "latmax": 51.30200613348776, 
      "name": "Begonialaan", 
      "lonmin": 4.583766042952512, 
      "sanName": "begonialaan", 
      "numOfAddr": 26, 
      "lonmax": 4.58807293817531, 
      "latmin": 51.30081983548553
    }, 
    {
      "latmax": 51.30068643147015, 
      "name": "Bergsebaan", 
      "lonmin": 4.577382695368807, 
      "sanName": "bergsebaan", 
      "numOfAddr": 104, 
      "lonmax": 4.586483228910378, 
      "latmin": 51.29358856830783
    }, 
    {
      "latmax": 51.305530041589705, 
      "name": "Berkenlaan", 
      "lonmin": 4.560791309758528, 
      "sanName": "berkenlaan", 
      "numOfAddr": 13, 
      "lonmax": 4.5630976575334135, 
      "latmin": 51.304265350559525
    }, 
    {
      "latmax": 51.29257354895324, 
      "name": "Bethani\u0089nlei", 
      "lonmin": 4.585510456616701, 
      "sanName": "bethaninlei", 
      "numOfAddr": 43, 
      "lonmax": 4.600789013765797, 
      "latmin": 51.28421039294112
    }, 
    {
      "latmax": 51.356263464634765, 
      "name": "Bethovenstraat", 
      "lonmin": 4.625918312693229, 
      "sanName": "bethovenstraat", 
      "numOfAddr": 63, 
      "lonmax": 4.63763932276523, 
      "latmin": 51.349627673495185
    }, 
    {
      "latmax": 51.30737559177789, 
      "name": "Beukenlei", 
      "lonmin": 4.559512494650186, 
      "sanName": "beukenlei", 
      "numOfAddr": 60, 
      "lonmax": 4.568075646180723, 
      "latmin": 51.30428758573306
    }, 
    {
      "latmax": 51.35007795740626, 
      "name": "Bevrijdingsstraat", 
      "lonmin": 4.700483448387156, 
      "sanName": "bevrijdingsstraat", 
      "numOfAddr": 84, 
      "lonmax": 4.721890024251175, 
      "latmin": 51.3466854990963
    }, 
    {
      "latmax": 51.351431991555714, 
      "name": "Biest", 
      "lonmin": 4.640901215160571, 
      "sanName": "biest", 
      "numOfAddr": 21, 
      "lonmax": 4.6426308707865465, 
      "latmin": 51.350831508607854
    }, 
    {
      "latmax": 51.30272446619471, 
      "name": "Biezendreef", 
      "lonmin": 4.620735009120522, 
      "sanName": "biezendreef", 
      "numOfAddr": 12, 
      "lonmax": 4.622973046640172, 
      "latmin": 51.300518074725346
    }, 
    {
      "latmax": 51.33525869932099, 
      "name": "Bloemenstraat", 
      "lonmin": 4.680245244936669, 
      "sanName": "bloemenstraat", 
      "numOfAddr": 13, 
      "lonmax": 4.683760073950311, 
      "latmin": 51.33420192617072
    }, 
    {
      "latmax": 51.29431808265787, 
      "name": "Boogschutterlaan", 
      "lonmin": 4.581501221374014, 
      "sanName": "boogschutterlaan", 
      "numOfAddr": 7, 
      "lonmax": 4.583394707922728, 
      "latmin": 51.29402232053183
    }, 
    {
      "latmax": 51.35356123222647, 
      "name": "Borghthoevestraat", 
      "lonmin": 4.636254432823918, 
      "sanName": "borghthoevestraat", 
      "numOfAddr": 31, 
      "lonmax": 4.639898329318567, 
      "latmin": 51.351406870448514
    }, 
    {
      "latmax": 51.321869135843336, 
      "name": "Bosbesdreef", 
      "lonmin": 4.571360495157187, 
      "sanName": "bosbesdreef", 
      "numOfAddr": 23, 
      "lonmax": 4.575587207550764, 
      "latmin": 51.31953847347663
    }, 
    {
      "latmax": 51.308565428120374, 
      "name": "Bosduiflaan", 
      "lonmin": 4.559961938448748, 
      "sanName": "bosduiflaan", 
      "numOfAddr": 8, 
      "lonmax": 4.5623053240087, 
      "latmin": 51.30733787911834
    }, 
    {
      "latmax": 51.29060201596738, 
      "name": "Boslaan", 
      "lonmin": 4.564694953601841, 
      "sanName": "boslaan", 
      "numOfAddr": 6, 
      "lonmax": 4.565403354323953, 
      "latmin": 51.28983969449734
    }, 
    {
      "latmax": 51.29166021574326, 
      "name": "Bosschaertlaan", 
      "lonmin": 4.55792829528685, 
      "sanName": "bosschaertlaan", 
      "numOfAddr": 59, 
      "lonmax": 4.5717452901303925, 
      "latmin": 51.290464703024334
    }, 
    {
      "latmax": 51.34119645113304, 
      "name": "Bosstraat", 
      "lonmin": 4.665684434524549, 
      "sanName": "bosstraat", 
      "numOfAddr": 38, 
      "lonmax": 4.678558096119701, 
      "latmin": 51.33467260133435
    }, 
    {
      "latmax": 51.290070356772986, 
      "name": "Boswegel", 
      "lonmin": 4.57603029943606, 
      "sanName": "boswegel", 
      "numOfAddr": 12, 
      "lonmax": 4.577468469014321, 
      "latmin": 51.28945038351124
    }, 
    {
      "latmax": 51.33664742392493, 
      "name": "Boudewijnstraat", 
      "lonmin": 4.650934658660674, 
      "sanName": "boudewijnstraat", 
      "numOfAddr": 18, 
      "lonmax": 4.6557434281459145, 
      "latmin": 51.334666744044085
    }, 
    {
      "latmax": 51.29929065723735, 
      "name": "Braakstraat", 
      "lonmin": 4.5743721901360255, 
      "sanName": "braakstraat", 
      "numOfAddr": 46, 
      "lonmax": 4.578650400478289, 
      "latmin": 51.297398541758284
    }, 
    {
      "latmax": 51.31874066243439, 
      "name": "Braambeslaan", 
      "lonmin": 4.5753586727087425, 
      "sanName": "braambeslaan", 
      "numOfAddr": 38, 
      "lonmax": 4.581386281308551, 
      "latmin": 51.316312115649275
    }, 
    {
      "latmax": 51.32736296779528, 
      "name": "Brahmslaan", 
      "lonmin": 4.573518156651993, 
      "sanName": "brahmslaan", 
      "numOfAddr": 9, 
      "lonmax": 4.577017587986553, 
      "latmin": 51.32686477607377
    }, 
    {
      "latmax": 51.34297960828315, 
      "name": "Brasschaatbaan", 
      "lonmin": 4.546352627344987, 
      "sanName": "brasschaatbaan", 
      "numOfAddr": 47, 
      "lonmax": 4.5940309395425585, 
      "latmin": 51.32439597974427
    }, 
    {
      "latmax": 51.30503871305202, 
      "name": "Brechtsebaan", 
      "lonmin": 4.567970032193334, 
      "sanName": "brechtsebaan", 
      "numOfAddr": 20, 
      "lonmax": 4.569793508770183, 
      "latmin": 51.30406485659111
    }, 
    {
      "latmax": 51.337192765708025, 
      "name": "Bremstraat", 
      "lonmin": 4.662115037041585, 
      "sanName": "bremstraat", 
      "numOfAddr": 6, 
      "lonmax": 4.665559630853674, 
      "latmin": 51.336364215534886
    }, 
    {
      "latmax": 51.353407467801475, 
      "name": "Bristerstraat", 
      "lonmin": 4.643731923839811, 
      "sanName": "bristerstraat", 
      "numOfAddr": 33, 
      "lonmax": 4.645668651990566, 
      "latmin": 51.35159106648821
    }, 
    {
      "latmax": 51.353534102641206, 
      "name": "Broeckhovenstraat", 
      "lonmin": 4.654583766474653, 
      "sanName": "broeckhovenstraat", 
      "numOfAddr": 11, 
      "lonmax": 4.664415810105506, 
      "latmin": 51.352236810079845
    }, 
    {
      "latmax": 51.30229696979768, 
      "name": "Brugstraat", 
      "lonmin": 2.306689562140502, 
      "sanName": "brugstraat", 
      "numOfAddr": 170, 
      "lonmax": 4.577607648839672, 
      "latmin": 49.293335165093566
    }, 
    {
      "latmax": 51.30720080353842, 
      "name": "Buizerdlaan", 
      "lonmin": 4.570837692614092, 
      "sanName": "buizerdlaan", 
      "numOfAddr": 1, 
      "lonmax": 4.570837692614092, 
      "latmin": 51.30720080353842
    }, 
    {
      "latmax": 51.290797891716785, 
      "name": "Bunderlaan", 
      "lonmin": 4.575009594519319, 
      "sanName": "bunderlaan", 
      "numOfAddr": 15, 
      "lonmax": 4.576743484379681, 
      "latmin": 51.29027069703417
    }, 
    {
      "latmax": 51.29336838782648, 
      "name": "Burg.Alfons Lambrechtslaan", 
      "lonmin": 4.571912333494034, 
      "sanName": "burgalfonslambrechtslaan", 
      "numOfAddr": 19, 
      "lonmax": 4.574606340688189, 
      "latmin": 51.2928502827181
    }, 
    {
      "latmax": 51.31134858472992, 
      "name": "Cambeenbos laan A", 
      "lonmin": 4.5680623970741046, 
      "sanName": "cambeenboslaana", 
      "numOfAddr": 37, 
      "lonmax": 4.572114625409758, 
      "latmin": 51.30730859841772
    }, 
    {
      "latmax": 51.31173620237456, 
      "name": "Cambeenbos laan B", 
      "lonmin": 4.569556313359059, 
      "sanName": "cambeenboslaanb", 
      "numOfAddr": 30, 
      "lonmax": 4.573191382883297, 
      "latmin": 51.30796873949528
    }, 
    {
      "latmax": 51.31260363582545, 
      "name": "Cambeenbos laan C", 
      "lonmin": 4.570708973494526, 
      "sanName": "cambeenboslaanc", 
      "numOfAddr": 34, 
      "lonmax": 4.574356407613265, 
      "latmin": 51.3084681238033
    }, 
    {
      "latmax": 51.31198317106076, 
      "name": "Cambeenbos laan D", 
      "lonmin": 4.5727783847069245, 
      "sanName": "cambeenboslaand", 
      "numOfAddr": 21, 
      "lonmax": 4.5753029146995665, 
      "latmin": 51.30935794311897
    }, 
    {
      "latmax": 51.311952013647115, 
      "name": "Cambeenbos laan E", 
      "lonmin": 4.575077057403916, 
      "sanName": "cambeenboslaane", 
      "numOfAddr": 16, 
      "lonmax": 4.57666002149536, 
      "latmin": 51.31025186158767
    }, 
    {
      "latmax": 51.312068219697075, 
      "name": "Cambeenbos laan F", 
      "lonmin": 4.573536846064976, 
      "sanName": "cambeenboslaanf", 
      "numOfAddr": 7, 
      "lonmax": 4.574710517013188, 
      "latmin": 51.311457169190014
    }, 
    {
      "latmax": 51.31249692351503, 
      "name": "Cambeenbos laan G", 
      "lonmin": 4.568346622778386, 
      "sanName": "cambeenboslaang", 
      "numOfAddr": 10, 
      "lonmax": 4.570589716543172, 
      "latmin": 51.311352513901184
    }, 
    {
      "latmax": 51.3111328424852, 
      "name": "Cambeenbos laan H", 
      "lonmin": 4.571934247080764, 
      "sanName": "cambeenboslaanh", 
      "numOfAddr": 5, 
      "lonmax": 4.573711956614446, 
      "latmin": 51.3101760497652
    }, 
    {
      "latmax": 51.309850306085444, 
      "name": "Cambeenbos laan I", 
      "lonmin": 4.572402457451583, 
      "sanName": "cambeenboslaani", 
      "numOfAddr": 12, 
      "lonmax": 4.575925555512707, 
      "latmin": 51.307363585719216
    }, 
    {
      "latmax": 51.30435695045876, 
      "name": "Cambeenlei", 
      "lonmin": 4.5694044939362035, 
      "sanName": "cambeenlei", 
      "numOfAddr": 13, 
      "lonmax": 4.570442502164845, 
      "latmin": 51.30354533897327
    }, 
    {
      "latmax": 51.30485515254465, 
      "name": "Campinaweg", 
      "lonmin": 4.57039980136096, 
      "sanName": "campinaweg", 
      "numOfAddr": 17, 
      "lonmax": 4.572390131182548, 
      "latmin": 51.303448138284715
    }, 
    {
      "latmax": 51.30301578386203, 
      "name": "Canadalaan", 
      "lonmin": 4.565339144105408, 
      "sanName": "canadalaan", 
      "numOfAddr": 30, 
      "lonmax": 4.568007446695041, 
      "latmin": 51.30152750974901
    }, 
    {
      "latmax": 51.32809268998286, 
      "name": "Chopinlaan", 
      "lonmin": 4.572651073356552, 
      "sanName": "chopinlaan", 
      "numOfAddr": 8, 
      "lonmax": 4.573278782148021, 
      "latmin": 51.327148895779246
    }, 
    {
      "latmax": 51.32474918325908, 
      "name": "Condordreef", 
      "lonmin": 4.57504680794088, 
      "sanName": "condordreef", 
      "numOfAddr": 14, 
      "lonmax": 4.577076037199165, 
      "latmin": 51.323867224192234
    }, 
    {
      "latmax": 51.30018271383973, 
      "name": "Dalialaan", 
      "lonmin": 4.584871279716171, 
      "sanName": "dalialaan", 
      "numOfAddr": 24, 
      "lonmax": 4.587936212234492, 
      "latmin": 51.29942212617742
    }, 
    {
      "latmax": 51.316341259588086, 
      "name": "De Beemden", 
      "lonmin": 4.558195148269829, 
      "sanName": "debeemden", 
      "numOfAddr": 5, 
      "lonmax": 4.559424647220769, 
      "latmin": 51.31579397411952
    }, 
    {
      "latmax": 51.31641191015188, 
      "name": "De Biezen", 
      "lonmin": 4.5579121685204464, 
      "sanName": "debiezen", 
      "numOfAddr": 3, 
      "lonmax": 4.558549403637231, 
      "latmin": 51.31584859387289
    }, 
    {
      "latmax": 51.32747415047336, 
      "name": "De Eekhoorn", 
      "lonmin": 4.590451560491727, 
      "sanName": "deeekhoorn", 
      "numOfAddr": 24, 
      "lonmax": 4.591898082540504, 
      "latmin": 51.32683367397039
    }, 
    {
      "latmax": 51.29039052305669, 
      "name": "De Gauw", 
      "lonmin": 4.552322498984583, 
      "sanName": "degauw", 
      "numOfAddr": 48, 
      "lonmax": 4.557130706501786, 
      "latmin": 51.28639033430602
    }, 
    {
      "latmax": 51.30235618005365, 
      "name": "Dekheidelaan", 
      "lonmin": 4.588865726180768, 
      "sanName": "dekheidelaan", 
      "numOfAddr": 9, 
      "lonmax": 4.59366853509349, 
      "latmin": 51.29996451842725
    }, 
    {
      "latmax": 51.34962170312209, 
      "name": "de Lalainglaan", 
      "lonmin": 4.633313830470284, 
      "sanName": "delalainglaan", 
      "numOfAddr": 10, 
      "lonmax": 4.635155963414306, 
      "latmin": 51.34875498601499
    }, 
    {
      "latmax": 51.28890336123855, 
      "name": "De Moerkens", 
      "lonmin": 4.563608574920915, 
      "sanName": "demoerkens", 
      "numOfAddr": 8, 
      "lonmax": 4.565469179803235, 
      "latmin": 51.287860056078834
    }, 
    {
      "latmax": 51.34204931130661, 
      "name": "Den Eenen Boomstraat", 
      "lonmin": 4.606904928434738, 
      "sanName": "deneenenboomstraat", 
      "numOfAddr": 21, 
      "lonmax": 4.608470510018855, 
      "latmin": 51.34126269354546
    }, 
    {
      "latmax": 51.32040869474935, 
      "name": "Dennenbosdreef", 
      "lonmin": 4.571064708566315, 
      "sanName": "dennenbosdreef", 
      "numOfAddr": 20, 
      "lonmax": 4.574315578292514, 
      "latmin": 51.31868750289228
    }, 
    {
      "latmax": 51.30283601977742, 
      "name": "Dennenlaan", 
      "lonmin": 4.581348413592329, 
      "sanName": "dennenlaan", 
      "numOfAddr": 107, 
      "lonmax": 4.587040034873589, 
      "latmin": 51.29580269282613
    }, 
    {
      "latmax": 51.3018584781867, 
      "name": "De Renlaan", 
      "lonmin": 4.572663702020684, 
      "sanName": "derenlaan", 
      "numOfAddr": 42, 
      "lonmax": 4.57755746722401, 
      "latmin": 51.29991084055178
    }, 
    {
      "latmax": 51.29711867000521, 
      "name": "De Vraagstraat", 
      "lonmin": 4.59193747042597, 
      "sanName": "devraagstraat", 
      "numOfAddr": 2, 
      "lonmax": 4.607064532156429, 
      "latmin": 51.29484609460486
    }, 
    {
      "latmax": 51.34196505394736, 
      "name": "D'Hoef", 
      "lonmin": 4.674758634353356, 
      "sanName": "dhoef", 
      "numOfAddr": 5, 
      "lonmax": 4.675861867805705, 
      "latmin": 51.34078912047473
    }, 
    {
      "latmax": 51.34464199935624, 
      "name": "Dijkstraat", 
      "lonmin": 4.674335207606384, 
      "sanName": "dijkstraat", 
      "numOfAddr": 11, 
      "lonmax": 4.6776023400853255, 
      "latmin": 51.3444739808083
    }, 
    {
      "latmax": 51.338555589171214, 
      "name": "Doelstraat", 
      "lonmin": 4.6750891691938685, 
      "sanName": "doelstraat", 
      "numOfAddr": 11, 
      "lonmax": 4.678618610465006, 
      "latmin": 51.335806572213336
    }, 
    {
      "latmax": 51.308343901327355, 
      "name": "Donkerbosdreef", 
      "lonmin": 4.579077119311353, 
      "sanName": "donkerbosdreef", 
      "numOfAddr": 9, 
      "lonmax": 4.580298768176233, 
      "latmin": 51.307024242283
    }, 
    {
      "latmax": 51.305528099483105, 
      "name": "Dopheidelaan", 
      "lonmin": 4.578897878769339, 
      "sanName": "dopheidelaan", 
      "numOfAddr": 18, 
      "lonmax": 4.580531193191349, 
      "latmin": 51.30372006114262
    }, 
    {
      "latmax": 51.34981573448451, 
      "name": "Dorpsstraat", 
      "lonmin": 4.6727637842790894, 
      "sanName": "dorpsstraat", 
      "numOfAddr": 136, 
      "lonmax": 4.680987110895975, 
      "latmin": 51.34437340514317
    }, 
    {
      "latmax": 51.348095613657414, 
      "name": "Dr. De Brabanderelaan", 
      "lonmin": 4.6875885835740485, 
      "sanName": "drdebrabanderelaan", 
      "numOfAddr": 49, 
      "lonmax": 4.692036881811546, 
      "latmin": 51.346415209614676
    }, 
    {
      "latmax": 51.3040852893748, 
      "name": "Dremelheidebaan", 
      "lonmin": 4.5754380951059455, 
      "sanName": "dremelheidebaan", 
      "numOfAddr": 31, 
      "lonmax": 4.578764410834939, 
      "latmin": 51.30145057258616
    }, 
    {
      "latmax": 51.29687742908845, 
      "name": "Drie Meisjeslaan", 
      "lonmin": 4.584166797910757, 
      "sanName": "driemeisjeslaan", 
      "numOfAddr": 11, 
      "lonmax": 4.58540487237451, 
      "latmin": 51.295842826015495
    }, 
    {
      "latmax": 51.3446519681012, 
      "name": "Duivelstraatje", 
      "lonmin": 4.646312899237397, 
      "sanName": "duivelstraatje", 
      "numOfAddr": 13, 
      "lonmax": 4.6505852289298835, 
      "latmin": 51.342774503160875
    }, 
    {
      "latmax": 51.318460055956, 
      "name": "Dwarsdreef", 
      "lonmin": 4.563568604305898, 
      "sanName": "dwarsdreef", 
      "numOfAddr": 17, 
      "lonmax": 4.568346562417022, 
      "latmin": 51.31608840477532
    }, 
    {
      "latmax": 51.30713298537044, 
      "name": "Ebeslaan", 
      "lonmin": 4.572772890714467, 
      "sanName": "ebeslaan", 
      "numOfAddr": 35, 
      "lonmax": 4.584429717180684, 
      "latmin": 51.303002632584395
    }, 
    {
      "latmax": 51.350218526554656, 
      "name": "E.Claeslaan", 
      "lonmin": 4.683275023835076, 
      "sanName": "eclaeslaan", 
      "numOfAddr": 14, 
      "lonmax": 4.6850253206706505, 
      "latmin": 51.34916419051853
    }, 
    {
      "latmax": 51.296300591998055, 
      "name": "Edith Cavelllaan", 
      "lonmin": 4.571455879435554, 
      "sanName": "edithcavelllaan", 
      "numOfAddr": 34, 
      "lonmax": 4.573856933984827, 
      "latmin": 51.29347907837665
    }, 
    {
      "latmax": 51.30683933948055, 
      "name": "Eekhoornlaan", 
      "lonmin": 4.585354094866369, 
      "sanName": "eekhoornlaan", 
      "numOfAddr": 5, 
      "lonmax": 4.58628309773945, 
      "latmin": 51.30571629472031
    }, 
    {
      "latmax": 51.318964136185514, 
      "name": "Eendrachtslaan", 
      "lonmin": 4.590571260516344, 
      "sanName": "eendrachtslaan", 
      "numOfAddr": 30, 
      "lonmax": 4.594325405863071, 
      "latmin": 51.316145788926384
    }, 
    {
      "latmax": 51.29810892871322, 
      "name": "Eendrachtstraat", 
      "lonmin": 4.555454375136309, 
      "sanName": "eendrachtstraat", 
      "numOfAddr": 15, 
      "lonmax": 4.558063183853273, 
      "latmin": 51.29703154269587
    }, 
    {
      "latmax": 51.35726846570276, 
      "name": "Eester", 
      "lonmin": 4.69409511137926, 
      "sanName": "eester", 
      "numOfAddr": 23, 
      "lonmax": 4.702689742049181, 
      "latmin": 51.35049861600329
    }, 
    {
      "latmax": 51.30620252175688, 
      "name": "Egellaan", 
      "lonmin": 4.584141510437008, 
      "sanName": "egellaan", 
      "numOfAddr": 6, 
      "lonmax": 4.585702203033386, 
      "latmin": 51.3050689416818
    }, 
    {
      "latmax": 51.30446654059705, 
      "name": "Eikenlei", 
      "lonmin": 4.5514162786586825, 
      "sanName": "eikenlei", 
      "numOfAddr": 157, 
      "lonmax": 4.567928051767493, 
      "latmin": 51.29572158068354
    }, 
    {
      "latmax": 51.31500065996124, 
      "name": "Eksterdreef", 
      "lonmin": 4.561025658566084, 
      "sanName": "eksterdreef", 
      "numOfAddr": 18, 
      "lonmax": 4.564019260140256, 
      "latmin": 51.3141075501505
    }, 
    {
      "latmax": 51.30578292891033, 
      "name": "Elshoutlaan", 
      "lonmin": 4.552097180176215, 
      "sanName": "elshoutlaan", 
      "numOfAddr": 36, 
      "lonmax": 4.555429465715967, 
      "latmin": 51.30344792120061
    }, 
    {
      "latmax": 51.31442688815621, 
      "name": "Elzenkouter", 
      "lonmin": 4.566590463401513, 
      "sanName": "elzenkouter", 
      "numOfAddr": 27, 
      "lonmax": 4.57102952385047, 
      "latmin": 51.31175605926359
    }, 
    {
      "latmax": 51.31990537823976, 
      "name": "Elzenlaan", 
      "lonmin": 4.597136206878006, 
      "sanName": "elzenlaan", 
      "numOfAddr": 5, 
      "lonmax": 4.59800341329988, 
      "latmin": 51.319122848996464
    }, 
    {
      "latmax": 51.356166772233216, 
      "name": "Energielaan", 
      "lonmin": 4.636365963533296, 
      "sanName": "energielaan", 
      "numOfAddr": 3, 
      "lonmax": 4.63739322820621, 
      "latmin": 51.355351828843986
    }, 
    {
      "latmax": 51.35230850199946, 
      "name": "Engelakker", 
      "lonmin": 4.6746527895761325, 
      "sanName": "engelakker", 
      "numOfAddr": 24, 
      "lonmax": 4.675860822460131, 
      "latmin": 51.35106395793982
    }, 
    {
      "latmax": 51.31683001098929, 
      "name": "Ericadreef", 
      "lonmin": 4.567531715150321, 
      "sanName": "ericadreef", 
      "numOfAddr": 4, 
      "lonmax": 4.56776826438305, 
      "latmin": 51.31625912900967
    }, 
    {
      "latmax": 51.33142857438289, 
      "name": "Erving Berlinlaan", 
      "lonmin": 4.576014868721485, 
      "sanName": "ervingberlinlaan", 
      "numOfAddr": 17, 
      "lonmax": 4.57722402384514, 
      "latmin": 51.33012586115086
    }, 
    {
      "latmax": 51.30296008035939, 
      "name": "Esdoornlaan", 
      "lonmin": 4.556479190775843, 
      "sanName": "esdoornlaan", 
      "numOfAddr": 14, 
      "lonmax": 4.558405076619002, 
      "latmin": 51.30177904150901
    }, 
    {
      "latmax": 51.30152421387999, 
      "name": "Eurolaan", 
      "lonmin": 4.564152392649947, 
      "sanName": "eurolaan", 
      "numOfAddr": 13, 
      "lonmax": 4.565638352449602, 
      "latmin": 51.30071707726064
    }, 
    {
      "latmax": 51.3526562952833, 
      "name": "E.Van Notenlaan", 
      "lonmin": 4.666462253419371, 
      "sanName": "evannotenlaan", 
      "numOfAddr": 66, 
      "lonmax": 4.674684203900777, 
      "latmin": 51.35169954648309
    }, 
    {
      "latmax": 51.346758381600054, 
      "name": "Eyndovensteenweg", 
      "lonmin": 4.634928417566315, 
      "sanName": "eyndovensteenweg", 
      "numOfAddr": 127, 
      "lonmax": 4.642555099133365, 
      "latmin": 51.33478552935794
    }, 
    {
      "latmax": 51.28756341244229, 
      "name": "Fazantenhoek", 
      "lonmin": 4.56247298613063, 
      "sanName": "fazantenhoek", 
      "numOfAddr": 6, 
      "lonmax": 4.563356773817958, 
      "latmin": 51.28674811111789
    }, 
    {
      "latmax": 51.289676765276454, 
      "name": "Fazantenlaan", 
      "lonmin": 4.55984326805967, 
      "sanName": "fazantenlaan", 
      "numOfAddr": 18, 
      "lonmax": 4.562447076733664, 
      "latmin": 51.2868936722662
    }, 
    {
      "latmax": 51.352542358041546, 
      "name": "Felix Pacqu\u0082elaan", 
      "lonmin": 4.689039394880559, 
      "sanName": "felixpacquelaan", 
      "numOfAddr": 1, 
      "lonmax": 4.689039394880559, 
      "latmin": 51.352542358041546
    }, 
    {
      "latmax": 51.29834815648307, 
      "name": "Framalaan", 
      "lonmin": 4.582530337050071, 
      "sanName": "framalaan", 
      "numOfAddr": 21, 
      "lonmax": 4.584921128492594, 
      "latmin": 51.29693228786316
    }, 
    {
      "latmax": 51.300365541662586, 
      "name": "Franciscanessenlaan", 
      "lonmin": 4.562023165880085, 
      "sanName": "franciscanessenlaan", 
      "numOfAddr": 1, 
      "lonmax": 4.562023165880085, 
      "latmin": 51.300365541662586
    }, 
    {
      "latmax": 51.30209464093511, 
      "name": "Frans De Meyerstraat", 
      "lonmin": 4.567598945584168, 
      "sanName": "fransdemeyerstraat", 
      "numOfAddr": 8, 
      "lonmax": 4.568537778475768, 
      "latmin": 51.301762382147494
    }, 
    {
      "latmax": 51.30160530008331, 
      "name": "Fresialaan", 
      "lonmin": 4.578319114575133, 
      "sanName": "fresialaan", 
      "numOfAddr": 29, 
      "lonmax": 4.581217839343555, 
      "latmin": 51.30016648325512
    }, 
    {
      "latmax": 51.35302185027586, 
      "name": "Fruithoflaan", 
      "lonmin": 4.67631539359304, 
      "sanName": "fruithoflaan", 
      "numOfAddr": 46, 
      "lonmax": 4.682775137905624, 
      "latmin": 51.34859395873838
    }, 
    {
      "latmax": 51.295415619330306, 
      "name": "Gabrielle Petitlaan", 
      "lonmin": 4.57099451605638, 
      "sanName": "gabriellepetitlaan", 
      "numOfAddr": 30, 
      "lonmax": 4.572629879309248, 
      "latmin": 51.293428402863725
    }, 
    {
      "latmax": 51.35126570944186, 
      "name": "Gasthuisstraat", 
      "lonmin": 4.6337943401356005, 
      "sanName": "gasthuisstraat", 
      "numOfAddr": 53, 
      "lonmax": 4.640745737345446, 
      "latmin": 51.346467266569775
    }, 
    {
      "latmax": 51.3182873540595, 
      "name": "Gemeenschapslaan", 
      "lonmin": 4.590293640597758, 
      "sanName": "gemeenschapslaan", 
      "numOfAddr": 41, 
      "lonmax": 4.592971852785657, 
      "latmin": 51.31442016243133
    }, 
    {
      "latmax": 51.34882169011139, 
      "name": "Gemeentepark", 
      "lonmin": 4.638947372031639, 
      "sanName": "gemeentepark", 
      "numOfAddr": 2, 
      "lonmax": 4.639853787478758, 
      "latmin": 51.34848463405013
    }, 
    {
      "latmax": 51.35101972075052, 
      "name": "Gemeenteplaats", 
      "lonmin": 4.642535296116145, 
      "sanName": "gemeenteplaats", 
      "numOfAddr": 32, 
      "lonmax": 4.644206313536357, 
      "latmin": 51.349471963416725
    }, 
    {
      "latmax": 51.31565622116489, 
      "name": "Geraniumlaan", 
      "lonmin": 4.556451798743584, 
      "sanName": "geraniumlaan", 
      "numOfAddr": 13, 
      "lonmax": 4.5578627395753974, 
      "latmin": 51.31460760441349
    }, 
    {
      "latmax": 51.3767673077394, 
      "name": "Geuzenstraat", 
      "lonmin": 4.709782635457393, 
      "sanName": "geuzenstraat", 
      "numOfAddr": 3, 
      "lonmax": 4.713802793755145, 
      "latmin": 51.37564241878872
    }, 
    {
      "latmax": 51.29965290754416, 
      "name": "Gildelaan", 
      "lonmin": 4.566612942241481, 
      "sanName": "gildelaan", 
      "numOfAddr": 15, 
      "lonmax": 4.567712721783517, 
      "latmin": 51.29810276259649
    }, 
    {
      "latmax": 51.32563273562698, 
      "name": "Gloriantdreef", 
      "lonmin": 4.5739171820434334, 
      "sanName": "gloriantdreef", 
      "numOfAddr": 24, 
      "lonmax": 4.577019595498528, 
      "latmin": 51.32450799230231
    }, 
    {
      "latmax": 51.35999575632822, 
      "name": "Gooreindbaan", 
      "lonmin": 4.566347110617679, 
      "sanName": "gooreindbaan", 
      "numOfAddr": 1, 
      "lonmax": 4.566347110617679, 
      "latmin": 51.35999575632822
    }, 
    {
      "latmax": 51.28919150517839, 
      "name": "Goorstraat", 
      "lonmin": 4.552147484086711, 
      "sanName": "goorstraat", 
      "numOfAddr": 13, 
      "lonmax": 4.554277650408864, 
      "latmin": 51.28810379967185
    }, 
    {
      "latmax": 51.3059051113501, 
      "name": "Goudregenlaan", 
      "lonmin": 4.5719338417412265, 
      "sanName": "goudregenlaan", 
      "numOfAddr": 21, 
      "lonmax": 4.574047252574475, 
      "latmin": 51.30421310387909
    }, 
    {
      "latmax": 51.290913004087834, 
      "name": "Goudvinklaan", 
      "lonmin": 4.556213576816439, 
      "sanName": "goudvinklaan", 
      "numOfAddr": 15, 
      "lonmax": 4.560883535360048, 
      "latmin": 51.28775154359458
    }, 
    {
      "latmax": 51.28912146007948, 
      "name": "Gramyelaan", 
      "lonmin": 4.5709185044254, 
      "sanName": "gramyelaan", 
      "numOfAddr": 24, 
      "lonmax": 4.5734994975820715, 
      "latmin": 51.28794956439924
    }, 
    {
      "latmax": 51.29082495689378, 
      "name": "Grasveld", 
      "lonmin": 4.578991001108549, 
      "sanName": "grasveld", 
      "numOfAddr": 3, 
      "lonmax": 4.580083710856229, 
      "latmin": 51.28959509285546
    }, 
    {
      "latmax": 51.3582707326656, 
      "name": "Grensstraat", 
      "lonmin": 4.722044053865138, 
      "sanName": "grensstraat", 
      "numOfAddr": 12, 
      "lonmax": 4.7229235670439405, 
      "latmin": 51.35073782815845
    }, 
    {
      "latmax": 51.34702693012614, 
      "name": "Groenstraat", 
      "lonmin": 4.693551230510426, 
      "sanName": "groenstraat", 
      "numOfAddr": 33, 
      "lonmax": 4.705370198919777, 
      "latmin": 51.342257596436326
    }, 
    {
      "latmax": 51.33144270285093, 
      "name": "Groot Veerle", 
      "lonmin": 4.673604155431373, 
      "sanName": "grootveerle", 
      "numOfAddr": 56, 
      "lonmax": 4.688508599155417, 
      "latmin": 51.32293640282802
    }, 
    {
      "latmax": 51.30074109150266, 
      "name": "Grote Vraagstraat", 
      "lonmin": 4.619973068791296, 
      "sanName": "grotevraagstraat", 
      "numOfAddr": 2, 
      "lonmax": 4.623755684381031, 
      "latmin": 51.29984274206818
    }, 
    {
      "latmax": 51.30213543561185, 
      "name": "Gruttosingel", 
      "lonmin": 4.612393094871472, 
      "sanName": "gruttosingel", 
      "numOfAddr": 14, 
      "lonmax": 4.615360406042378, 
      "latmin": 51.30037371986063
    }, 
    {
      "latmax": 51.35059845998475, 
      "name": "Guido Gezellelaan", 
      "lonmin": 4.684558080134283, 
      "sanName": "guidogezellelaan", 
      "numOfAddr": 16, 
      "lonmax": 4.685801484661863, 
      "latmin": 51.349647824242226
    }, 
    {
      "latmax": 51.28911485325393, 
      "name": "Guldensporenlei", 
      "lonmin": 4.565661697245218, 
      "sanName": "guldensporenlei", 
      "numOfAddr": 13, 
      "lonmax": 4.566524935174254, 
      "latmin": 51.287806315726876
    }, 
    {
      "latmax": 51.29731286482085, 
      "name": "Handbooglaan", 
      "lonmin": 4.557122074003107, 
      "sanName": "handbooglaan", 
      "numOfAddr": 28, 
      "lonmax": 4.560306259366281, 
      "latmin": 51.29485786385894
    }, 
    {
      "latmax": 51.30399511912269, 
      "name": "Handelslei", 
      "lonmin": 4.567815403834508, 
      "sanName": "handelslei", 
      "numOfAddr": 34, 
      "lonmax": 4.570176151438763, 
      "latmin": 51.30232289979281
    }, 
    {
      "latmax": 51.351188246456864, 
      "name": "Hanepad", 
      "lonmin": 4.614135334621426, 
      "sanName": "hanepad", 
      "numOfAddr": 26, 
      "lonmax": 4.635016408488082, 
      "latmin": 51.34900781349261
    }, 
    {
      "latmax": 51.31947638173316, 
      "name": "Haringdreef", 
      "lonmin": 4.567545678387589, 
      "sanName": "haringdreef", 
      "numOfAddr": 23, 
      "lonmax": 4.569414706421175, 
      "latmin": 51.31705705892013
    }, 
    {
      "latmax": 51.32023615974034, 
      "name": "Harmonielaan", 
      "lonmin": 4.591399770053284, 
      "sanName": "harmonielaan", 
      "numOfAddr": 30, 
      "lonmax": 4.594553501756244, 
      "latmin": 51.31875805273555
    }, 
    {
      "latmax": 51.32688925271784, 
      "name": "Haydnlaan", 
      "lonmin": 4.572151890202448, 
      "sanName": "haydnlaan", 
      "numOfAddr": 15, 
      "lonmax": 4.573219311534058, 
      "latmin": 51.32559874553006
    }, 
    {
      "latmax": 51.30651247356557, 
      "name": "Hazelaarsdreef", 
      "lonmin": 4.556686921727856, 
      "sanName": "hazelaarsdreef", 
      "numOfAddr": 26, 
      "lonmax": 4.559372523653475, 
      "latmin": 51.30419107717184
    }, 
    {
      "latmax": 51.35026758855429, 
      "name": "Heiakker", 
      "lonmin": 4.6473024543196795, 
      "sanName": "heiakker", 
      "numOfAddr": 10, 
      "lonmax": 4.648767724246377, 
      "latmin": 51.349664258721596
    }, 
    {
      "latmax": 51.30653572292862, 
      "name": "Heidelaan", 
      "lonmin": 4.58126813272325, 
      "sanName": "heidelaan", 
      "numOfAddr": 35, 
      "lonmax": 4.584778645582974, 
      "latmin": 51.303075039864915
    }, 
    {
      "latmax": 51.34357316833384, 
      "name": "Heihoefke", 
      "lonmin": 4.675322751609266, 
      "sanName": "heihoefke", 
      "numOfAddr": 37, 
      "lonmax": 4.680768739629295, 
      "latmin": 51.33160084555278
    }, 
    {
      "latmax": 51.35128131684932, 
      "name": "Heiken", 
      "lonmin": 4.659699330562897, 
      "sanName": "heiken", 
      "numOfAddr": 86, 
      "lonmax": 4.673252631515483, 
      "latmin": 51.34767507993361
    }, 
    {
      "latmax": 51.301794855148025, 
      "name": "Hendrik Consciencelaan", 
      "lonmin": 4.571882203297866, 
      "sanName": "hendrikconsciencelaan", 
      "numOfAddr": 25, 
      "lonmax": 4.57600826318601, 
      "latmin": 51.29863366457672
    }, 
    {
      "latmax": 51.34943497991017, 
      "name": "Hendrik Schoofsstraat", 
      "lonmin": 4.642815505209319, 
      "sanName": "hendrikschoofsstraat", 
      "numOfAddr": 29, 
      "lonmax": 4.643841431464467, 
      "latmin": 51.347298171426104
    }, 
    {
      "latmax": 51.29585001835057, 
      "name": "Henri Dunantlei", 
      "lonmin": 4.570368614123637, 
      "sanName": "henridunantlei", 
      "numOfAddr": 10, 
      "lonmax": 4.5714838077449595, 
      "latmin": 51.29523642436114
    }, 
    {
      "latmax": 51.34387063960537, 
      "name": "Hensel laan A", 
      "lonmin": 4.6489975411283595, 
      "sanName": "hensellaana", 
      "numOfAddr": 22, 
      "lonmax": 4.6511340432690025, 
      "latmin": 51.34231404368155
    }, 
    {
      "latmax": 51.344363194315754, 
      "name": "Hensel laan B", 
      "lonmin": 4.6502546915688585, 
      "sanName": "hensellaanb", 
      "numOfAddr": 20, 
      "lonmax": 4.651986100486466, 
      "latmin": 51.3430137021262
    }, 
    {
      "latmax": 51.3427428660912, 
      "name": "Hensel laan C", 
      "lonmin": 4.650280736527096, 
      "sanName": "hensellaanc", 
      "numOfAddr": 15, 
      "lonmax": 4.6524026211841685, 
      "latmin": 51.34163272548593
    }, 
    {
      "latmax": 51.345381534152374, 
      "name": "Hensel laan D", 
      "lonmin": 4.646701794442025, 
      "sanName": "hensellaand", 
      "numOfAddr": 20, 
      "lonmax": 4.649046578196255, 
      "latmin": 51.34412346001852
    }, 
    {
      "latmax": 51.37337583615415, 
      "name": "Henxbroek", 
      "lonmin": 4.664448583923901, 
      "sanName": "henxbroek", 
      "numOfAddr": 20, 
      "lonmax": 4.680198430459911, 
      "latmin": 51.36339982180738
    }, 
    {
      "latmax": 51.36363713028448, 
      "name": "Henxbroekweg", 
      "lonmin": 4.655775092220984, 
      "sanName": "henxbroekweg", 
      "numOfAddr": 7, 
      "lonmax": 4.660284787973236, 
      "latmin": 51.357376341562755
    }, 
    {
      "latmax": 51.28737342797791, 
      "name": "Hertenbos", 
      "lonmin": 4.556183226491734, 
      "sanName": "hertenbos", 
      "numOfAddr": 4, 
      "lonmax": 4.560320372621707, 
      "latmin": 51.28549458513265
    }, 
    {
      "latmax": 51.35157344974593, 
      "name": "Het Lindeken", 
      "lonmin": 4.633322258084786, 
      "sanName": "hetlindeken", 
      "numOfAddr": 11, 
      "lonmax": 4.634285978023989, 
      "latmin": 51.35095177340864
    }, 
    {
      "latmax": 51.28984303745088, 
      "name": "Heyaard", 
      "lonmin": 4.554333724863558, 
      "sanName": "heyaard", 
      "numOfAddr": 48, 
      "lonmax": 4.5577594957601475, 
      "latmin": 51.28577212720866
    }, 
    {
      "latmax": 51.32706018430039, 
      "name": "H\u0084ndellaan", 
      "lonmin": 4.575256846324623, 
      "sanName": "hndellaan", 
      "numOfAddr": 14, 
      "lonmax": 4.576498683464359, 
      "latmin": 51.326051028412124
    }, 
    {
      "latmax": 51.31407345306581, 
      "name": "Hoefijzerdreef", 
      "lonmin": 4.558222940148667, 
      "sanName": "hoefijzerdreef", 
      "numOfAddr": 27, 
      "lonmax": 4.560456644667511, 
      "latmin": 51.312357027951904
    }, 
    {
      "latmax": 51.35599184862306, 
      "name": "Hoekakkerstraat", 
      "lonmin": 4.613334977689949, 
      "sanName": "hoekakkerstraat", 
      "numOfAddr": 2, 
      "lonmax": 4.614194424394902, 
      "latmin": 51.355533930215955
    }, 
    {
      "latmax": 51.31696507525415, 
      "name": "Hoeksedreef", 
      "lonmin": 4.562482368873852, 
      "sanName": "hoeksedreef", 
      "numOfAddr": 19, 
      "lonmax": 4.564186769355884, 
      "latmin": 51.31511202885658
    }, 
    {
      "latmax": 51.35959998315625, 
      "name": "Hoekstraat", 
      "lonmin": 4.612193669146874, 
      "sanName": "hoekstraat", 
      "numOfAddr": 21, 
      "lonmax": 4.6255171517834475, 
      "latmin": 51.35525624679291
    }, 
    {
      "latmax": 51.291792052025116, 
      "name": "Hoeveweg", 
      "lonmin": 4.5808435878160365, 
      "sanName": "hoeveweg", 
      "numOfAddr": 3, 
      "lonmax": 4.581445519374539, 
      "latmin": 51.29156397874376
    }, 
    {
      "latmax": 51.35260394715166, 
      "name": "Hofstraat", 
      "lonmin": 4.640297694602268, 
      "sanName": "hofstraat", 
      "numOfAddr": 22, 
      "lonmax": 4.641230089029343, 
      "latmin": 51.351345987470104
    }, 
    {
      "latmax": 51.298249810782465, 
      "name": "Hogebaan", 
      "lonmin": 4.558627404487196, 
      "sanName": "hogebaan", 
      "numOfAddr": 91, 
      "lonmax": 4.572433918365165, 
      "latmin": 51.29237951721677
    }, 
    {
      "latmax": 51.3245761393575, 
      "name": "Hogeheidelaan", 
      "lonmin": 4.593348526344064, 
      "sanName": "hogeheidelaan", 
      "numOfAddr": 13, 
      "lonmax": 4.595767835097756, 
      "latmin": 51.32354971531004
    }, 
    {
      "latmax": 51.323573698362615, 
      "name": "Hoge Meerheuvel", 
      "lonmin": 4.591088777938009, 
      "sanName": "hogemeerheuvel", 
      "numOfAddr": 15, 
      "lonmax": 4.594175616634107, 
      "latmin": 51.32247731398601
    }, 
    {
      "latmax": 51.34189250858758, 
      "name": "Hoge Mereyt", 
      "lonmin": 4.585676103751148, 
      "sanName": "hogemereyt", 
      "numOfAddr": 27, 
      "lonmax": 4.598052287884591, 
      "latmin": 51.332241248337944
    }, 
    {
      "latmax": 51.29430399511824, 
      "name": "Hogeweg", 
      "lonmin": 4.55989190847318, 
      "sanName": "hogeweg", 
      "numOfAddr": 43, 
      "lonmax": 4.567095050755811, 
      "latmin": 51.29239305049752
    }, 
    {
      "latmax": 51.29508692980464, 
      "name": "Holleweg", 
      "lonmin": 4.554658283283793, 
      "sanName": "holleweg", 
      "numOfAddr": 17, 
      "lonmax": 4.558477921567901, 
      "latmin": 51.29413238622307
    }, 
    {
      "latmax": 51.375684255742435, 
      "name": "Hoogstraatsebaan", 
      "lonmin": 4.674604336032262, 
      "sanName": "hoogstraatsebaan", 
      "numOfAddr": 171, 
      "lonmax": 4.718018378105467, 
      "latmin": 51.349841005644684
    }, 
    {
      "latmax": 51.30942770545054, 
      "name": "Houtsniplaan", 
      "lonmin": 4.563201852059988, 
      "sanName": "houtsniplaan", 
      "numOfAddr": 11, 
      "lonmax": 4.565944101507252, 
      "latmin": 51.30829479842949
    }, 
    {
      "latmax": 51.34915130312668, 
      "name": "Houtstraat", 
      "lonmin": 4.6801213599093385, 
      "sanName": "houtstraat", 
      "numOfAddr": 143, 
      "lonmax": 4.698132083702476, 
      "latmin": 51.343493257177514
    }, 
    {
      "latmax": 51.290793454500516, 
      "name": "H. Van Bukentoplaan", 
      "lonmin": 4.570107611894315, 
      "sanName": "hvanbukentoplaan", 
      "numOfAddr": 41, 
      "lonmax": 4.573316537606364, 
      "latmin": 51.28714397019268
    }, 
    {
      "latmax": 51.30488914578443, 
      "name": "Iepenlaan", 
      "lonmin": 4.55498995909179, 
      "sanName": "iepenlaan", 
      "numOfAddr": 17, 
      "lonmax": 4.5566795199132475, 
      "latmin": 51.3032096880755
    }, 
    {
      "latmax": 51.355424238417925, 
      "name": "Industrielaan", 
      "lonmin": 4.634251371640459, 
      "sanName": "industrielaan", 
      "numOfAddr": 3, 
      "lonmax": 4.634986742778439, 
      "latmin": 51.354224278242675
    }, 
    {
      "latmax": 51.28733163210894, 
      "name": "Jan Tasselaan", 
      "lonmin": 4.555712563540897, 
      "sanName": "jantasselaan", 
      "numOfAddr": 20, 
      "lonmax": 4.558199393913511, 
      "latmin": 51.28608005732082
    }, 
    {
      "latmax": 51.351963028251575, 
      "name": "J.Cardijnlaan", 
      "lonmin": 4.672265238621299, 
      "sanName": "jcardijnlaan", 
      "numOfAddr": 22, 
      "lonmax": 4.673807032696628, 
      "latmin": 51.35022539262087
    }, 
    {
      "latmax": 51.353201933627695, 
      "name": "J.de Costerstraat", 
      "lonmin": 4.635209156397487, 
      "sanName": "jdecosterstraat", 
      "numOfAddr": 27, 
      "lonmax": 4.637604055654298, 
      "latmin": 51.35162846213783
    }, 
    {
      "latmax": 51.350890911132, 
      "name": "Jonkheerlaan", 
      "lonmin": 4.68160847292825, 
      "sanName": "jonkheerlaan", 
      "numOfAddr": 8, 
      "lonmax": 4.6826244829613355, 
      "latmin": 51.35028783934827
    }, 
    {
      "latmax": 51.31678890004339, 
      "name": "Jos Nuytsdreef", 
      "lonmin": 4.556240930100246, 
      "sanName": "josnuytsdreef", 
      "numOfAddr": 51, 
      "lonmax": 4.561725192373693, 
      "latmin": 51.30996204554671
    }, 
    {
      "latmax": 51.354068121074114, 
      "name": "J. Van der Nootstraat", 
      "lonmin": 4.636712068057908, 
      "sanName": "jvandernootstraat", 
      "numOfAddr": 10, 
      "lonmax": 4.6386854802457185, 
      "latmin": 51.353452450740576
    }, 
    {
      "latmax": 51.28822296597594, 
      "name": "Kaaistraat", 
      "lonmin": 4.57988321560081, 
      "sanName": "kaaistraat", 
      "numOfAddr": 3, 
      "lonmax": 4.58244872016308, 
      "latmin": 51.28762682778652
    }, 
    {
      "latmax": 51.30514572465986, 
      "name": "Kabouterlaan", 
      "lonmin": 4.56197439326113, 
      "sanName": "kabouterlaan", 
      "numOfAddr": 17, 
      "lonmax": 4.564179301673542, 
      "latmin": 51.303302106686886
    }, 
    {
      "latmax": 51.34061090592897, 
      "name": "Kanaallaan", 
      "lonmin": 4.651098812550293, 
      "sanName": "kanaallaan", 
      "numOfAddr": 30, 
      "lonmax": 4.657107855250028, 
      "latmin": 51.33800641966026
    }, 
    {
      "latmax": 51.34984839412664, 
      "name": "Kapelakker", 
      "lonmin": 4.68610924692965, 
      "sanName": "kapelakker", 
      "numOfAddr": 8, 
      "lonmax": 4.690108550604425, 
      "latmin": 51.348843777480404
    }, 
    {
      "latmax": 51.34272885167124, 
      "name": "Kapelstraat", 
      "lonmin": 4.606995857872635, 
      "sanName": "kapelstraat", 
      "numOfAddr": 65, 
      "lonmax": 4.6188756511116065, 
      "latmin": 51.340307358871634
    }, 
    {
      "latmax": 51.300102451576315, 
      "name": "Kapelweg", 
      "lonmin": 4.567253898946028, 
      "sanName": "kapelweg", 
      "numOfAddr": 29, 
      "lonmax": 4.570887092011272, 
      "latmin": 51.297910964581895
    }, 
    {
      "latmax": 51.33682390480566, 
      "name": "Karel Engelslaan", 
      "lonmin": 4.662751615004068, 
      "sanName": "karelengelslaan", 
      "numOfAddr": 28, 
      "lonmax": 4.665773746192811, 
      "latmin": 51.335672441704645
    }, 
    {
      "latmax": 51.30391170317545, 
      "name": "Kastanjelaan", 
      "lonmin": 4.558908788900983, 
      "sanName": "kastanjelaan", 
      "numOfAddr": 28, 
      "lonmax": 4.561174029458825, 
      "latmin": 51.30249513709843
    }, 
    {
      "latmax": 51.292404343589915, 
      "name": "Kattenhoflaan", 
      "lonmin": 4.565888219432542, 
      "sanName": "kattenhoflaan", 
      "numOfAddr": 86, 
      "lonmax": 4.576877310482138, 
      "latmin": 51.28420435873343
    }, 
    {
      "latmax": 51.32175801497179, 
      "name": "Kempendreef", 
      "lonmin": 4.573377407063258, 
      "sanName": "kempendreef", 
      "numOfAddr": 20, 
      "lonmax": 4.576269760260588, 
      "latmin": 51.3202342013986
    }, 
    {
      "latmax": 51.34861222254316, 
      "name": "Kempendries", 
      "lonmin": 4.647030591321946, 
      "sanName": "kempendries", 
      "numOfAddr": 3, 
      "lonmax": 4.647050948204582, 
      "latmin": 51.34858422203849
    }, 
    {
      "latmax": 51.31155611152658, 
      "name": "Kemphaanlaan", 
      "lonmin": 4.561268771779712, 
      "sanName": "kemphaanlaan", 
      "numOfAddr": 24, 
      "lonmax": 4.567373906819454, 
      "latmin": 51.30905276164323
    }, 
    {
      "latmax": 51.34150533389318, 
      "name": "Kenisweg", 
      "lonmin": 4.5978062716349495, 
      "sanName": "kenisweg", 
      "numOfAddr": 1, 
      "lonmax": 4.5978062716349495, 
      "latmin": 51.34150533389318
    }, 
    {
      "latmax": 51.35072943103309, 
      "name": "Kerkhofstraat", 
      "lonmin": 4.57519656867952, 
      "sanName": "kerkhofstraat", 
      "numOfAddr": 66, 
      "lonmax": 4.649729236437684, 
      "latmin": 51.29289583423301
    }, 
    {
      "latmax": 51.35485682251814, 
      "name": "Kerkhovenakker laan A", 
      "lonmin": 4.645339110432119, 
      "sanName": "kerkhovenakkerlaana", 
      "numOfAddr": 39, 
      "lonmax": 4.648330258993763, 
      "latmin": 51.35285523621629
    }, 
    {
      "latmax": 51.354568860753794, 
      "name": "Kerkhovenakker laan B", 
      "lonmin": 4.644176132652161, 
      "sanName": "kerkhovenakkerlaanb", 
      "numOfAddr": 28, 
      "lonmax": 4.645748157485247, 
      "latmin": 51.353537094406626
    }, 
    {
      "latmax": 51.354960178938605, 
      "name": "Kerkhovenakker laan C", 
      "lonmin": 4.645694649070963, 
      "sanName": "kerkhovenakkerlaanc", 
      "numOfAddr": 21, 
      "lonmax": 4.646397902287569, 
      "latmin": 51.35369570930004
    }, 
    {
      "latmax": 51.35536295543172, 
      "name": "Kerkhovenakker laan D", 
      "lonmin": 4.646408922613559, 
      "sanName": "kerkhovenakkerlaand", 
      "numOfAddr": 28, 
      "lonmax": 4.647451243922599, 
      "latmin": 51.35418659944609
    }, 
    {
      "latmax": 51.29341756992637, 
      "name": "Kerklei", 
      "lonmin": 4.577197842820954, 
      "sanName": "kerklei", 
      "numOfAddr": 72, 
      "lonmax": 4.58603062527886, 
      "latmin": 51.29141417397672
    }, 
    {
      "latmax": 51.34959467557101, 
      "name": "Kerkstraat", 
      "lonmin": 4.681366769315642, 
      "sanName": "kerkstraat", 
      "numOfAddr": 77, 
      "lonmax": 4.698392507662908, 
      "latmin": 51.34664442064922
    }, 
    {
      "latmax": 51.30826879864461, 
      "name": "Kievitlaan", 
      "lonmin": 4.5632300453293695, 
      "sanName": "kievitlaan", 
      "numOfAddr": 15, 
      "lonmax": 4.566795181504399, 
      "latmin": 51.3068094649547
    }, 
    {
      "latmax": 51.29558932736469, 
      "name": "Kippendaallaan", 
      "lonmin": 4.585651087648974, 
      "sanName": "kippendaallaan", 
      "numOfAddr": 9, 
      "lonmax": 4.586776420559526, 
      "latmin": 51.29504546533599
    }, 
    {
      "latmax": 51.3539284487695, 
      "name": "Klaprooslaan", 
      "lonmin": 4.668045577591956, 
      "sanName": "klaprooslaan", 
      "numOfAddr": 16, 
      "lonmax": 4.670601485251343, 
      "latmin": 51.35262420138204
    }, 
    {
      "latmax": 51.31749050139404, 
      "name": "Klaverdreef", 
      "lonmin": 4.564425666221107, 
      "sanName": "klaverdreef", 
      "numOfAddr": 4, 
      "lonmax": 4.564862597015392, 
      "latmin": 51.316977489349526
    }, 
    {
      "latmax": 51.29339240951145, 
      "name": "Klaverheide", 
      "lonmin": 4.5681414047786335, 
      "sanName": "klaverheide", 
      "numOfAddr": 8, 
      "lonmax": 4.568737730684404, 
      "latmin": 51.292713448828486
    }, 
    {
      "latmax": 51.350119490049586, 
      "name": "Kleine Kasteeltjesweg", 
      "lonmin": 4.633091206847407, 
      "sanName": "kleinekasteeltjesweg", 
      "numOfAddr": 4, 
      "lonmax": 4.635450898333602, 
      "latmin": 51.34974553846641
    }, 
    {
      "latmax": 51.294172109155596, 
      "name": "Kleine Vraagstraat", 
      "lonmin": 4.605576249247581, 
      "sanName": "kleinevraagstraat", 
      "numOfAddr": 2, 
      "lonmax": 4.6059934674123175, 
      "latmin": 51.292806328297786
    }, 
    {
      "latmax": 51.33782213252983, 
      "name": "Klein Veerle", 
      "lonmin": 4.658484457831899, 
      "sanName": "kleinveerle", 
      "numOfAddr": 133, 
      "lonmax": 4.6739394609723135, 
      "latmin": 51.33132551362537
    }, 
    {
      "latmax": 51.34604681605127, 
      "name": "Kleipikker", 
      "lonmin": 4.67426206017009, 
      "sanName": "kleipikker", 
      "numOfAddr": 21, 
      "lonmax": 4.678554674609082, 
      "latmin": 51.34503433863083
    }, 
    {
      "latmax": 51.31785462610849, 
      "name": "Klimopdreef", 
      "lonmin": 4.564874401264907, 
      "sanName": "klimopdreef", 
      "numOfAddr": 17, 
      "lonmax": 4.5669984825486205, 
      "latmin": 51.315896070247184
    }, 
    {
      "latmax": 51.35922757364894, 
      "name": "Kloosterakker", 
      "lonmin": 4.682209969336534, 
      "sanName": "kloosterakker", 
      "numOfAddr": 8, 
      "lonmax": 4.689881738797036, 
      "latmin": 51.35693095235673
    }, 
    {
      "latmax": 51.355996210380084, 
      "name": "Kloosterakkerweg", 
      "lonmin": 4.67938108013853, 
      "sanName": "kloosterakkerweg", 
      "numOfAddr": 3, 
      "lonmax": 4.680781766068788, 
      "latmin": 51.35419250464852
    }, 
    {
      "latmax": 51.37344320461003, 
      "name": "Kloosterheide", 
      "lonmin": 4.679763339147579, 
      "sanName": "kloosterheide", 
      "numOfAddr": 4, 
      "lonmax": 4.6881168866581175, 
      "latmin": 51.37081087435452
    }, 
    {
      "latmax": 51.37586385016682, 
      "name": "Kloosterstraat", 
      "lonmin": 4.677251496713972, 
      "sanName": "kloosterstraat", 
      "numOfAddr": 26, 
      "lonmax": 4.692151896732825, 
      "latmin": 51.355856429120905
    }, 
    {
      "latmax": 51.30181567587554, 
      "name": "Kloosterveld", 
      "lonmin": 4.556011685871699, 
      "sanName": "kloosterveld", 
      "numOfAddr": 28, 
      "lonmax": 4.55846716684082, 
      "latmin": 51.300744037818156
    }, 
    {
      "latmax": 51.31486787347166, 
      "name": "K.Madoudreef", 
      "lonmin": 4.556781540047888, 
      "sanName": "kmadoudreef", 
      "numOfAddr": 23, 
      "lonmax": 4.559012251445496, 
      "latmin": 51.31333350637375
    }, 
    {
      "latmax": 51.327954249372155, 
      "name": "Koekoeksdreef", 
      "lonmin": 4.577267797078269, 
      "sanName": "koekoeksdreef", 
      "numOfAddr": 20, 
      "lonmax": 4.579926462513844, 
      "latmin": 51.32486457980767
    }, 
    {
      "latmax": 51.29303966583457, 
      "name": "Koningin Elisabethlei", 
      "lonmin": 4.552517944689712, 
      "sanName": "koninginelisabethlei", 
      "numOfAddr": 8, 
      "lonmax": 4.554125317772094, 
      "latmin": 51.29265856600768
    }, 
    {
      "latmax": 51.29333652595447, 
      "name": "Koningin Fabiolalaan", 
      "lonmin": 4.574821154945659, 
      "sanName": "koninginfabiolalaan", 
      "numOfAddr": 6, 
      "lonmax": 4.575612165002206, 
      "latmin": 51.292833547199805
    }, 
    {
      "latmax": 51.354587366155414, 
      "name": "Koningsstoel", 
      "lonmin": 4.664466161912767, 
      "sanName": "koningsstoel", 
      "numOfAddr": 42, 
      "lonmax": 4.66749290475606, 
      "latmin": 51.349256410595196
    }, 
    {
      "latmax": 51.33772443242469, 
      "name": "Koningsstraat", 
      "lonmin": 4.578700593013819, 
      "sanName": "koningsstraat", 
      "numOfAddr": 1, 
      "lonmax": 4.578700593013819, 
      "latmin": 51.33772443242469
    }, 
    {
      "latmax": 51.334330969235424, 
      "name": "Kooldriespark", 
      "lonmin": 4.649313341646177, 
      "sanName": "kooldriespark", 
      "numOfAddr": 50, 
      "lonmax": 4.652481042544233, 
      "latmin": 51.33285540199314
    }, 
    {
      "latmax": 51.32899924603031, 
      "name": "Kooldriesstraat", 
      "lonmin": 4.647585826689174, 
      "sanName": "kooldriesstraat", 
      "numOfAddr": 4, 
      "lonmax": 4.654848927236406, 
      "latmin": 51.32561990862725
    }, 
    {
      "latmax": 51.31845505304546, 
      "name": "Korenbloemdreef", 
      "lonmin": 4.5599292362913655, 
      "sanName": "korenbloemdreef", 
      "numOfAddr": 39, 
      "lonmax": 4.566115439076479, 
      "latmin": 51.316243850719
    }, 
    {
      "latmax": 51.30221472108788, 
      "name": "Korhoendreef", 
      "lonmin": 4.613721905147741, 
      "sanName": "korhoendreef", 
      "numOfAddr": 5, 
      "lonmax": 4.6164312710308435, 
      "latmin": 51.30124800352502
    }, 
    {
      "latmax": 51.298903993145835, 
      "name": "Kortelaan", 
      "lonmin": 4.581942774671569, 
      "sanName": "kortelaan", 
      "numOfAddr": 8, 
      "lonmax": 4.582859556756777, 
      "latmin": 51.29833590532446
    }, 
    {
      "latmax": 51.29714753309182, 
      "name": "Korte Nieuwstraat", 
      "lonmin": 4.56909337267484, 
      "sanName": "kortenieuwstraat", 
      "numOfAddr": 34, 
      "lonmax": 4.573178495149699, 
      "latmin": 51.2960240537074
    }, 
    {
      "latmax": 51.339730663602545, 
      "name": "Kraaienhorst", 
      "lonmin": 4.680855480308346, 
      "sanName": "kraaienhorst", 
      "numOfAddr": 21, 
      "lonmax": 4.69396167888103, 
      "latmin": 51.327215016523326
    }, 
    {
      "latmax": 51.29756014303018, 
      "name": "Kreeftlaan", 
      "lonmin": 4.577935795239881, 
      "sanName": "kreeftlaan", 
      "numOfAddr": 14, 
      "lonmax": 4.579664279786693, 
      "latmin": 51.29675841400042
    }, 
    {
      "latmax": 51.33760747593271, 
      "name": "Krekelbergstraat", 
      "lonmin": 4.62116901093092, 
      "sanName": "krekelbergstraat", 
      "numOfAddr": 11, 
      "lonmax": 4.627059177568417, 
      "latmin": 51.33240211573277
    }, 
    {
      "latmax": 51.33908421904921, 
      "name": "Kreolienstraat", 
      "lonmin": 4.567853064672109, 
      "sanName": "kreolienstraat", 
      "numOfAddr": 6, 
      "lonmax": 4.570831338848215, 
      "latmin": 51.33839149133195
    }, 
    {
      "latmax": 51.32097177093536, 
      "name": "Kromvenlaan", 
      "lonmin": 4.568901584641055, 
      "sanName": "kromvenlaan", 
      "numOfAddr": 39, 
      "lonmax": 4.572571989768333, 
      "latmin": 51.31698639089057
    }, 
    {
      "latmax": 51.29846646774158, 
      "name": "Kruisbooglaan", 
      "lonmin": 4.56081007104171, 
      "sanName": "kruisbooglaan", 
      "numOfAddr": 37, 
      "lonmax": 4.563686483346739, 
      "latmin": 51.29577144752508
    }, 
    {
      "latmax": 51.305533311131306, 
      "name": "Laaglandlaan", 
      "lonmin": 4.571372885446441, 
      "sanName": "laaglandlaan", 
      "numOfAddr": 8, 
      "lonmax": 4.571867133383494, 
      "latmin": 51.30457677063081
    }, 
    {
      "latmax": 51.34677841212698, 
      "name": "Laarweg", 
      "lonmin": 4.636950076352139, 
      "sanName": "laarweg", 
      "numOfAddr": 3, 
      "lonmax": 4.637624689462292, 
      "latmin": 51.34649420411674
    }, 
    {
      "latmax": 51.37332247663445, 
      "name": "Laboureur", 
      "lonmin": 4.696151372227982, 
      "sanName": "laboureur", 
      "numOfAddr": 7, 
      "lonmax": 4.709408866561173, 
      "latmin": 51.370616968076085
    }, 
    {
      "latmax": 51.315247575826746, 
      "name": "Lage Vlier", 
      "lonmin": 4.57770857614891, 
      "sanName": "lagevlier", 
      "numOfAddr": 53, 
      "lonmax": 4.582230502550645, 
      "latmin": 51.312329466799284
    }, 
    {
      "latmax": 51.317408007301175, 
      "name": "Lakvenheidedreef", 
      "lonmin": 4.556524053373797, 
      "sanName": "lakvenheidedreef", 
      "numOfAddr": 13, 
      "lonmax": 4.559061809366801, 
      "latmin": 51.316408134407254
    }, 
    {
      "latmax": 51.35487780545831, 
      "name": "Langbos", 
      "lonmin": 4.700440794976486, 
      "sanName": "langbos", 
      "numOfAddr": 5, 
      "lonmax": 4.71261079288446, 
      "latmin": 51.35156729858797
    }, 
    {
      "latmax": 51.35058176407288, 
      "name": "Lange Pad", 
      "lonmin": 4.64125656287548, 
      "sanName": "langepad", 
      "numOfAddr": 7, 
      "lonmax": 4.642210657472011, 
      "latmin": 51.34989470504044
    }, 
    {
      "latmax": 51.33076155378248, 
      "name": "Langvenlaan", 
      "lonmin": 4.592346626273216, 
      "sanName": "langvenlaan", 
      "numOfAddr": 2, 
      "lonmax": 4.592945511460883, 
      "latmin": 51.33014563808125
    }, 
    {
      "latmax": 51.28840152683064, 
      "name": "Larkendreef", 
      "lonmin": 4.556353998307445, 
      "sanName": "larkendreef", 
      "numOfAddr": 21, 
      "lonmax": 4.55967216650433, 
      "latmin": 51.2866591692593
    }, 
    {
      "latmax": 51.35302721290973, 
      "name": "Leemstraat", 
      "lonmin": 4.651396993319785, 
      "sanName": "leemstraat", 
      "numOfAddr": 44, 
      "lonmax": 4.6635026746810855, 
      "latmin": 51.34537916087344
    }, 
    {
      "latmax": 51.35972289902018, 
      "name": "Leeuwerk", 
      "lonmin": 4.7083009685928054, 
      "sanName": "leeuwerk", 
      "numOfAddr": 11, 
      "lonmax": 4.7177960182272045, 
      "latmin": 51.34171179388177
    }, 
    {
      "latmax": 51.29497311263874, 
      "name": "Leeuwlaan", 
      "lonmin": 4.580604440450181, 
      "sanName": "leeuwlaan", 
      "numOfAddr": 8, 
      "lonmax": 4.5818284492732575, 
      "latmin": 51.294514260002785
    }, 
    {
      "latmax": 51.32293086546744, 
      "name": "Legeheideweg", 
      "lonmin": 4.661937406318098, 
      "sanName": "legeheideweg", 
      "numOfAddr": 4, 
      "lonmax": 4.669264348437583, 
      "latmin": 51.319946971224546
    }, 
    {
      "latmax": 51.3445553497308, 
      "name": "Lege Mereyt", 
      "lonmin": 4.58262942128151, 
      "sanName": "legemereyt", 
      "numOfAddr": 6, 
      "lonmax": 4.58612300828992, 
      "latmin": 51.343103524496506
    }, 
    {
      "latmax": 51.35682417657653, 
      "name": "Lege Weg", 
      "lonmin": 4.6611646727341, 
      "sanName": "legeweg", 
      "numOfAddr": 9, 
      "lonmax": 4.669329229621704, 
      "latmin": 51.35420935971292
    }, 
    {
      "latmax": 51.30050911249501, 
      "name": "Lenteweg", 
      "lonmin": 4.558901863974257, 
      "sanName": "lenteweg", 
      "numOfAddr": 24, 
      "lonmax": 4.561614738700113, 
      "latmin": 51.29872962938269
    }, 
    {
      "latmax": 51.34600067280743, 
      "name": "Leonarduslaan", 
      "lonmin": 4.683314486388831, 
      "sanName": "leonarduslaan", 
      "numOfAddr": 28, 
      "lonmax": 4.686348576787393, 
      "latmin": 51.34481378997536
    }, 
    {
      "latmax": 51.34783907491812, 
      "name": "Leopoldstraat", 
      "lonmin": 4.673136133718107, 
      "sanName": "leopoldstraat", 
      "numOfAddr": 35, 
      "lonmax": 4.676686587999943, 
      "latmin": 51.34624753996088
    }, 
    {
      "latmax": 51.35278896254954, 
      "name": "Lessiusstraat", 
      "lonmin": 4.643300983412007, 
      "sanName": "lessiusstraat", 
      "numOfAddr": 101, 
      "lonmax": 4.659914470760012, 
      "latmin": 51.3506815921137
    }, 
    {
      "latmax": 51.31796638021787, 
      "name": "Lijsterbeslaan", 
      "lonmin": 4.5790156019278445, 
      "sanName": "lijsterbeslaan", 
      "numOfAddr": 18, 
      "lonmax": 4.581335047989792, 
      "latmin": 51.31639875839481
    }, 
    {
      "latmax": 51.304647345187036, 
      "name": "Lindenlaan", 
      "lonmin": 4.581671567993016, 
      "sanName": "lindenlaan", 
      "numOfAddr": 30, 
      "lonmax": 4.584495719628349, 
      "latmin": 51.30150554600986
    }, 
    {
      "latmax": 51.29599565573881, 
      "name": "Lochtenberg", 
      "lonmin": 4.556363434721958, 
      "sanName": "lochtenberg", 
      "numOfAddr": 6, 
      "lonmax": 4.556715582538874, 
      "latmin": 51.295401911259695
    }, 
    {
      "latmax": 51.30232345567382, 
      "name": "Lochtenbergplein", 
      "lonmin": 4.558872041280819, 
      "sanName": "lochtenbergplein", 
      "numOfAddr": 3, 
      "lonmax": 4.560350438312134, 
      "latmin": 51.300580290328185
    }, 
    {
      "latmax": 51.329876716914555, 
      "name": "Lochtsebaan", 
      "lonmin": 4.618324136579686, 
      "sanName": "lochtsebaan", 
      "numOfAddr": 4, 
      "lonmax": 4.627474670787577, 
      "latmin": 51.32778233134397
    }, 
    {
      "latmax": 51.36170908577557, 
      "name": "Luyckstraat", 
      "lonmin": 4.642764986698023, 
      "sanName": "luyckstraat", 
      "numOfAddr": 17, 
      "lonmax": 4.6585572089321055, 
      "latmin": 51.3568082618071
    }, 
    {
      "latmax": 51.347480252598494, 
      "name": "Luyckvoort", 
      "lonmin": 4.685769162947244, 
      "sanName": "luyckvoort", 
      "numOfAddr": 12, 
      "lonmax": 4.687307233706439, 
      "latmin": 51.34704484637144
    }, 
    {
      "latmax": 51.34044104492099, 
      "name": "Mallebaan", 
      "lonmin": 4.6756294170039245, 
      "sanName": "mallebaan", 
      "numOfAddr": 5, 
      "lonmax": 4.68375941347375, 
      "latmin": 51.336577917793534
    }, 
    {
      "latmax": 51.34984547455392, 
      "name": "Man Jobweg", 
      "lonmin": 4.631205168869792, 
      "sanName": "manjobweg", 
      "numOfAddr": 11, 
      "lonmax": 4.632553304746809, 
      "latmin": 51.34882784043484
    }, 
    {
      "latmax": 51.30041872265426, 
      "name": "Markieslaan", 
      "lonmin": 4.580782459275512, 
      "sanName": "markieslaan", 
      "numOfAddr": 12, 
      "lonmax": 4.58262759520707, 
      "latmin": 51.29977362086885
    }, 
    {
      "latmax": 51.31959319747033, 
      "name": "Mastboomdreef", 
      "lonmin": 4.571478135947084, 
      "sanName": "mastboomdreef", 
      "numOfAddr": 13, 
      "lonmax": 4.573725587235196, 
      "latmin": 51.3183239583685
    }, 
    {
      "latmax": 51.349582124773704, 
      "name": "Meestersweg", 
      "lonmin": 4.632753975860235, 
      "sanName": "meestersweg", 
      "numOfAddr": 3, 
      "lonmax": 4.6331982650032995, 
      "latmin": 51.34833540753647
    }, 
    {
      "latmax": 51.3071690854541, 
      "name": "Meidoornlaan", 
      "lonmin": 4.559917111964975, 
      "sanName": "meidoornlaan", 
      "numOfAddr": 52, 
      "lonmax": 4.565579119663737, 
      "latmin": 51.30401770554121
    }, 
    {
      "latmax": 51.329697029845605, 
      "name": "Mendelssohnlaan", 
      "lonmin": 4.5747622562921855, 
      "sanName": "mendelssohnlaan", 
      "numOfAddr": 31, 
      "lonmax": 4.576374123510126, 
      "latmin": 51.32735628408608
    }, 
    {
      "latmax": 51.33910025122919, 
      "name": "Mieksebaan", 
      "lonmin": 4.555807401011773, 
      "sanName": "mieksebaan", 
      "numOfAddr": 96, 
      "lonmax": 4.612276854598406, 
      "latmin": 51.31705782071046
    }, 
    {
      "latmax": 51.33891425654072, 
      "name": "Moervenweg", 
      "lonmin": 4.599295738386619, 
      "sanName": "moervenweg", 
      "numOfAddr": 1, 
      "lonmax": 4.599295738386619, 
      "latmin": 51.33891425654072
    }, 
    {
      "latmax": 51.29578933538627, 
      "name": "Moeshofstraat", 
      "lonmin": 4.565603957150095, 
      "sanName": "moeshofstraat", 
      "numOfAddr": 26, 
      "lonmax": 4.568927850070479, 
      "latmin": 51.2926013487501
    }, 
    {
      "latmax": 51.3303730903887, 
      "name": "Moessorgskylaan", 
      "lonmin": 4.576651816318599, 
      "sanName": "moessorgskylaan", 
      "numOfAddr": 13, 
      "lonmax": 4.578324983517649, 
      "latmin": 51.32988925572052
    }, 
    {
      "latmax": 51.349245794972106, 
      "name": "Molenakkerlaan", 
      "lonmin": 4.631750479405388, 
      "sanName": "molenakkerlaan", 
      "numOfAddr": 22, 
      "lonmax": 4.6354397021869955, 
      "latmin": 51.34662073434826
    }, 
    {
      "latmax": 51.34829576910131, 
      "name": "Molenheiken", 
      "lonmin": 4.654297974514018, 
      "sanName": "molenheiken", 
      "numOfAddr": 73, 
      "lonmax": 4.66895838893295, 
      "latmin": 51.3419143498111
    }, 
    {
      "latmax": 51.34831126891528, 
      "name": "Molenstraat", 
      "lonmin": 4.6191039757133785, 
      "sanName": "molenstraat", 
      "numOfAddr": 95, 
      "lonmax": 4.6386225582282, 
      "latmin": 51.3403549867651
    }, 
    {
      "latmax": 51.35836824113191, 
      "name": "Mollenweg", 
      "lonmin": 4.714783875620962, 
      "sanName": "mollenweg", 
      "numOfAddr": 1, 
      "lonmax": 4.714783875620962, 
      "latmin": 51.35836824113191
    }, 
    {
      "latmax": 51.34869979825398, 
      "name": "Mortelstraat", 
      "lonmin": 4.605851493765475, 
      "sanName": "mortelstraat", 
      "numOfAddr": 21, 
      "lonmax": 4.6082892949863625, 
      "latmin": 51.34311467667047
    }, 
    {
      "latmax": 51.290119849835285, 
      "name": "Moskoeylaan", 
      "lonmin": 4.5610845553012895, 
      "sanName": "moskoeylaan", 
      "numOfAddr": 35, 
      "lonmax": 4.568135250284769, 
      "latmin": 51.28919593621054
    }, 
    {
      "latmax": 51.322690346047494, 
      "name": "Mostvenlaan", 
      "lonmin": 4.56829913342484, 
      "sanName": "mostvenlaan", 
      "numOfAddr": 8, 
      "lonmax": 4.568962927201159, 
      "latmin": 51.321694955482066
    }, 
    {
      "latmax": 51.34949212112745, 
      "name": "Mudaeusstraat", 
      "lonmin": 4.641767098435975, 
      "sanName": "mudaeusstraat", 
      "numOfAddr": 6, 
      "lonmax": 4.643060641229402, 
      "latmin": 51.34794131370048
    }, 
    {
      "latmax": 51.349072382566916, 
      "name": "Museumstraat", 
      "lonmin": 4.64355391452076, 
      "sanName": "museumstraat", 
      "numOfAddr": 10, 
      "lonmax": 4.64513586442022, 
      "latmin": 51.34860508661271
    }, 
    {
      "latmax": 51.31742901212019, 
      "name": "Nachtegaallaan", 
      "lonmin": 4.595193278348691, 
      "sanName": "nachtegaallaan", 
      "numOfAddr": 1, 
      "lonmax": 4.595193278348691, 
      "latmin": 51.31742901212019
    }, 
    {
      "latmax": 51.366777136128945, 
      "name": "Neervenbaan", 
      "lonmin": 4.634914533276701, 
      "sanName": "neervenbaan", 
      "numOfAddr": 6, 
      "lonmax": 4.637586066416553, 
      "latmin": 51.36269451386483
    }, 
    {
      "latmax": 51.32753165806907, 
      "name": "Nieuw Rommersheide", 
      "lonmin": 4.577974307079623, 
      "sanName": "nieuwrommersheide", 
      "numOfAddr": 77, 
      "lonmax": 4.581511226330358, 
      "latmin": 51.32430324777182
    }, 
    {
      "latmax": 51.34663016286254, 
      "name": "Nieuwstraat", 
      "lonmin": 4.672957494306171, 
      "sanName": "nieuwstraat", 
      "numOfAddr": 53, 
      "lonmax": 4.678913356260086, 
      "latmin": 51.34511558619292
    }, 
    {
      "latmax": 51.29989291650045, 
      "name": "Nijverheidsstraat", 
      "lonmin": 4.551449032283143, 
      "sanName": "nijverheidsstraat", 
      "numOfAddr": 10, 
      "lonmax": 4.5545814234929916, 
      "latmin": 51.29837700709031
    }, 
    {
      "latmax": 51.30268153867657, 
      "name": "Noenheuvel", 
      "lonmin": 4.616711877460732, 
      "sanName": "noenheuvel", 
      "numOfAddr": 16, 
      "lonmax": 4.62358509306407, 
      "latmin": 51.30049068511369
    }, 
    {
      "latmax": 51.35579936418836, 
      "name": "Nollekensweg", 
      "lonmin": 4.641914054909972, 
      "sanName": "nollekensweg", 
      "numOfAddr": 57, 
      "lonmax": 4.6467160937943275, 
      "latmin": 51.3513870096097
    }, 
    {
      "latmax": 51.3061422506462, 
      "name": "Noorderveld", 
      "lonmin": 4.5549705914493375, 
      "sanName": "noorderveld", 
      "numOfAddr": 30, 
      "lonmax": 4.558196955423472, 
      "latmin": 51.3035316722386
    }, 
    {
      "latmax": 51.30287371859726, 
      "name": "Noordkriekenlaan", 
      "lonmin": 4.554861081375559, 
      "sanName": "noordkriekenlaan", 
      "numOfAddr": 15, 
      "lonmax": 4.556551928377864, 
      "latmin": 51.301712064090175
    }, 
    {
      "latmax": 51.30406153437824, 
      "name": "Olmenlaan", 
      "lonmin": 4.5531224448437255, 
      "sanName": "olmenlaan", 
      "numOfAddr": 18, 
      "lonmax": 4.555699554302618, 
      "latmin": 51.30270320631108
    }, 
    {
      "latmax": 51.287729361492275, 
      "name": "Ontspanningslaan", 
      "lonmin": 4.5712536758293485, 
      "sanName": "ontspanningslaan", 
      "numOfAddr": 4, 
      "lonmax": 4.574158762156762, 
      "latmin": 51.28653796559322
    }, 
    {
      "latmax": 51.343106260434226, 
      "name": "Oostmalsebaan", 
      "lonmin": 4.678992382985542, 
      "sanName": "oostmalsebaan", 
      "numOfAddr": 98, 
      "lonmax": 4.710825388542827, 
      "latmin": 51.32526536051786
    }, 
    {
      "latmax": 51.366265192679236, 
      "name": "Oudaenstraat", 
      "lonmin": 4.626987202883735, 
      "sanName": "oudaenstraat", 
      "numOfAddr": 12, 
      "lonmax": 4.640191322025819, 
      "latmin": 51.357631975580254
    }, 
    {
      "latmax": 51.34143568017457, 
      "name": "Oude Pastorijstraat", 
      "lonmin": 4.606830283499842, 
      "sanName": "oudepastorijstraat", 
      "numOfAddr": 17, 
      "lonmax": 4.608899541933706, 
      "latmin": 51.34054021760607
    }, 
    {
      "latmax": 51.3570889315666, 
      "name": "Oude Veldstraat", 
      "lonmin": 4.641268853161279, 
      "sanName": "oudeveldstraat", 
      "numOfAddr": 62, 
      "lonmax": 4.644619953718286, 
      "latmin": 51.35301005840007
    }, 
    {
      "latmax": 51.303626500955616, 
      "name": "Oud Geleg", 
      "lonmin": 4.574521719581327, 
      "sanName": "oudgeleg", 
      "numOfAddr": 17, 
      "lonmax": 4.575893705806741, 
      "latmin": 51.302293885460784
    }, 
    {
      "latmax": 51.35016774990789, 
      "name": "Overbroekstraat", 
      "lonmin": 4.586291295379711, 
      "sanName": "overbroekstraat", 
      "numOfAddr": 29, 
      "lonmax": 4.606735949981326, 
      "latmin": 51.34351889050849
    }, 
    {
      "latmax": 51.34299854134037, 
      "name": "Paepestraat", 
      "lonmin": 4.644366958157118, 
      "sanName": "paepestraat", 
      "numOfAddr": 5, 
      "lonmax": 4.65033471134893, 
      "latmin": 51.33553575534882
    }, 
    {
      "latmax": 51.30290323488462, 
      "name": "Pallieterlaan", 
      "lonmin": 4.573508280776104, 
      "sanName": "pallieterlaan", 
      "numOfAddr": 20, 
      "lonmax": 4.574800575236703, 
      "latmin": 51.30105369989903
    }, 
    {
      "latmax": 51.36496574034396, 
      "name": "Papbosstraat", 
      "lonmin": 4.623805321184452, 
      "sanName": "papbosstraat", 
      "numOfAddr": 6, 
      "lonmax": 4.633891903514061, 
      "latmin": 51.3562455751084
    }, 
    {
      "latmax": 51.30885166705219, 
      "name": "Patrijslaan", 
      "lonmin": 4.5609777004745675, 
      "sanName": "patrijslaan", 
      "numOfAddr": 13, 
      "lonmax": 4.563821474345629, 
      "latmin": 51.30747380838209
    }, 
    {
      "latmax": 51.301204153080654, 
      "name": "Peter Benoitlaan", 
      "lonmin": 4.573018777440073, 
      "sanName": "peterbenoitlaan", 
      "numOfAddr": 36, 
      "lonmax": 4.57827858070543, 
      "latmin": 51.299264616260885
    }, 
    {
      "latmax": 51.32222235961209, 
      "name": "Pierrelaan", 
      "lonmin": 4.581212092508041, 
      "sanName": "pierrelaan", 
      "numOfAddr": 43, 
      "lonmax": 4.58881386162004, 
      "latmin": 51.31700291097128
    }, 
    {
      "latmax": 51.29720009012692, 
      "name": "Pijlstraat", 
      "lonmin": 4.561989983203515, 
      "sanName": "pijlstraat", 
      "numOfAddr": 17, 
      "lonmax": 4.564272979694697, 
      "latmin": 51.2963135786249
    }, 
    {
      "latmax": 51.30341404692474, 
      "name": "Platanendreef", 
      "lonmin": 4.557777204204146, 
      "sanName": "platanendreef", 
      "numOfAddr": 28, 
      "lonmax": 4.559554281402564, 
      "latmin": 51.30167474293145
    }, 
    {
      "latmax": 51.3385633547358, 
      "name": "Ploegsdijk", 
      "lonmin": 4.625010572011478, 
      "sanName": "ploegsdijk", 
      "numOfAddr": 1, 
      "lonmax": 4.625010572011478, 
      "latmin": 51.3385633547358
    }, 
    {
      "latmax": 51.31648122145043, 
      "name": "Poedeldreef", 
      "lonmin": 4.558821059770642, 
      "sanName": "poedeldreef", 
      "numOfAddr": 18, 
      "lonmax": 4.56135054673539, 
      "latmin": 51.31517401118898
    }, 
    {
      "latmax": 51.29722455745098, 
      "name": "Polderdreef", 
      "lonmin": 4.593397501023206, 
      "sanName": "polderdreef", 
      "numOfAddr": 1, 
      "lonmax": 4.593397501023206, 
      "latmin": 51.29722455745098
    }, 
    {
      "latmax": 51.2998449690739, 
      "name": "Poppelaerstraat", 
      "lonmin": 4.588747271817243, 
      "sanName": "poppelaerstraat", 
      "numOfAddr": 17, 
      "lonmax": 4.590119249792441, 
      "latmin": 51.29527137985904
    }, 
    {
      "latmax": 51.34750693396146, 
      "name": "Pothoek", 
      "lonmin": 4.683510543378594, 
      "sanName": "pothoek", 
      "numOfAddr": 26, 
      "lonmax": 4.687340780345099, 
      "latmin": 51.34579543214842
    }, 
    {
      "latmax": 51.34960983494396, 
      "name": "Potterij", 
      "lonmin": 4.647027853024772, 
      "sanName": "potterij", 
      "numOfAddr": 5, 
      "lonmax": 4.648290684894415, 
      "latmin": 51.34861034151069
    }, 
    {
      "latmax": 51.347787454954656, 
      "name": "Prinsstraat", 
      "lonmin": 4.671544417657855, 
      "sanName": "prinsstraat", 
      "numOfAddr": 51, 
      "lonmax": 4.6738130292037265, 
      "latmin": 51.34430580802603
    }, 
    {
      "latmax": 51.34911921007871, 
      "name": "Processieweg", 
      "lonmin": 4.674755213058285, 
      "sanName": "processieweg", 
      "numOfAddr": 42, 
      "lonmax": 4.678687882467945, 
      "latmin": 51.34680170554926
    }, 
    {
      "latmax": 51.357293026461626, 
      "name": "Pullemansstraat", 
      "lonmin": 4.654019362765847, 
      "sanName": "pullemansstraat", 
      "numOfAddr": 5, 
      "lonmax": 4.6549330183713815, 
      "latmin": 51.35319149990531
    }, 
    {
      "latmax": 51.347484400126504, 
      "name": "P. Verbernelaan", 
      "lonmin": 4.629776939167396, 
      "sanName": "pverbernelaan", 
      "numOfAddr": 45, 
      "lonmax": 4.632024270342229, 
      "latmin": 51.345630089565404
    }, 
    {
      "latmax": 51.34890754625739, 
      "name": "P. Wabbeslaan", 
      "lonmin": 4.680654092838809, 
      "sanName": "pwabbeslaan", 
      "numOfAddr": 18, 
      "lonmax": 4.684162247007389, 
      "latmin": 51.34827443337886
    }, 
    {
      "latmax": 51.328498054179924, 
      "name": "Rachmaninovlaan", 
      "lonmin": 4.576058604025629, 
      "sanName": "rachmaninovlaan", 
      "numOfAddr": 16, 
      "lonmax": 4.577450218218615, 
      "latmin": 51.32739351463639
    }, 
    {
      "latmax": 51.34860641460598, 
      "name": "Raeventuyn", 
      "lonmin": 4.691324970665971, 
      "sanName": "raeventuyn", 
      "numOfAddr": 15, 
      "lonmax": 4.693734173614627, 
      "latmin": 51.347567914428836
    }, 
    {
      "latmax": 51.29920884041942, 
      "name": "Reeboklaan", 
      "lonmin": 4.585702886638622, 
      "sanName": "reeboklaan", 
      "numOfAddr": 4, 
      "lonmax": 4.586171586785366, 
      "latmin": 51.29885441971436
    }, 
    {
      "latmax": 51.30171503640806, 
      "name": "Reigerspad", 
      "lonmin": 4.61358721519819, 
      "sanName": "reigerspad", 
      "numOfAddr": 3, 
      "lonmax": 4.614102313658735, 
      "latmin": 51.30117183666323
    }, 
    {
      "latmax": 51.30007419005043, 
      "name": "Ridderslaan", 
      "lonmin": 4.580175350779496, 
      "sanName": "ridderslaan", 
      "numOfAddr": 12, 
      "lonmax": 4.5818677977910065, 
      "latmin": 51.29906709017036
    }, 
    {
      "latmax": 51.355282019125546, 
      "name": "Ringlaan", 
      "lonmin": 4.633921723839679, 
      "sanName": "ringlaan", 
      "numOfAddr": 9, 
      "lonmax": 4.638648539303457, 
      "latmin": 51.353033050133426
    }, 
    {
      "latmax": 51.34460819190595, 
      "name": "Ringovenlaan", 
      "lonmin": 4.6848806395263445, 
      "sanName": "ringovenlaan", 
      "numOfAddr": 25, 
      "lonmax": 4.688175531881611, 
      "latmin": 51.343173706494504
    }, 
    {
      "latmax": 51.287323362424836, 
      "name": "Ringven", 
      "lonmin": 4.590358411974242, 
      "sanName": "ringven", 
      "numOfAddr": 2, 
      "lonmax": 4.597148795705739, 
      "latmin": 51.28436193250693
    }, 
    {
      "latmax": 51.29526362936827, 
      "name": "Rode Kruislaan", 
      "lonmin": 4.57341632910373, 
      "sanName": "rodekruislaan", 
      "numOfAddr": 28, 
      "lonmax": 4.575180708972472, 
      "latmin": 51.293516048812215
    }, 
    {
      "latmax": 51.3090249158586, 
      "name": "Roerdomplaan", 
      "lonmin": 4.56915636971056, 
      "sanName": "roerdomplaan", 
      "numOfAddr": 3, 
      "lonmax": 4.5696023223128455, 
      "latmin": 51.30842825976405
    }, 
    {
      "latmax": 51.321508659974846, 
      "name": "Rommersheide A", 
      "lonmin": 4.563288689899682, 
      "sanName": "rommersheidea", 
      "numOfAddr": 10, 
      "lonmax": 4.565406993966382, 
      "latmin": 51.32017315018572
    }, 
    {
      "latmax": 51.32165641635385, 
      "name": "Rommersheide B", 
      "lonmin": 4.564791431547921, 
      "sanName": "rommersheideb", 
      "numOfAddr": 10, 
      "lonmax": 4.566824943057064, 
      "latmin": 51.320681241016885
    }, 
    {
      "latmax": 51.323822676334984, 
      "name": "Rommersheide C", 
      "lonmin": 4.5638311455189955, 
      "sanName": "rommersheidec", 
      "numOfAddr": 23, 
      "lonmax": 4.568163444746723, 
      "latmin": 51.32135978069231
    }, 
    {
      "latmax": 51.32405172250334, 
      "name": "Rommersheide D", 
      "lonmin": 4.568531806100836, 
      "sanName": "rommersheided", 
      "numOfAddr": 18, 
      "lonmax": 4.5708340022337515, 
      "latmin": 51.32213766903717
    }, 
    {
      "latmax": 51.32548469203103, 
      "name": "Rommersheide E", 
      "lonmin": 4.568806353563851, 
      "sanName": "rommersheidee", 
      "numOfAddr": 15, 
      "lonmax": 4.571174343170063, 
      "latmin": 51.32424805694946
    }, 
    {
      "latmax": 51.32542679533337, 
      "name": "Rommersheide F", 
      "lonmin": 4.571640293316314, 
      "sanName": "rommersheidef", 
      "numOfAddr": 20, 
      "lonmax": 4.574589692324548, 
      "latmin": 51.323162644053035
    }, 
    {
      "latmax": 51.325896009751176, 
      "name": "Rommersheide G", 
      "lonmin": 4.567907447599458, 
      "sanName": "rommersheideg", 
      "numOfAddr": 12, 
      "lonmax": 4.570299451142294, 
      "latmin": 51.324323655914185
    }, 
    {
      "latmax": 51.328119676624766, 
      "name": "Rommersheide H", 
      "lonmin": 4.570651278392847, 
      "sanName": "rommersheideh", 
      "numOfAddr": 14, 
      "lonmax": 4.571800242224023, 
      "latmin": 51.325727034831786
    }, 
    {
      "latmax": 51.32697904882597, 
      "name": "Rommersheide I", 
      "lonmin": 4.56650795010004, 
      "sanName": "rommersheidei", 
      "numOfAddr": 30, 
      "lonmax": 4.570681992804216, 
      "latmin": 51.324526587961586
    }, 
    {
      "latmax": 51.32780222203154, 
      "name": "Rommersheide J", 
      "lonmin": 4.565846725270568, 
      "sanName": "rommersheidej", 
      "numOfAddr": 30, 
      "lonmax": 4.570119807402788, 
      "latmin": 51.32522532626212
    }, 
    {
      "latmax": 51.32538666993628, 
      "name": "Rommersheide K", 
      "lonmin": 4.565387210122163, 
      "sanName": "rommersheidek", 
      "numOfAddr": 5, 
      "lonmax": 4.56624928538903, 
      "latmin": 51.324520475773255
    }, 
    {
      "latmax": 51.300902344698336, 
      "name": "Rozenlaan", 
      "lonmin": 4.584619243108861, 
      "sanName": "rozenlaan", 
      "numOfAddr": 25, 
      "lonmax": 4.587887167911959, 
      "latmin": 51.299911670362164
    }, 
    {
      "latmax": 51.34735821650413, 
      "name": "Rozenstraat", 
      "lonmin": 4.67604488719854, 
      "sanName": "rozenstraat", 
      "numOfAddr": 9, 
      "lonmax": 4.676891005712571, 
      "latmin": 51.34667028382352
    }, 
    {
      "latmax": 51.3282196964067, 
      "name": "Rubinsteinlaan", 
      "lonmin": 4.577507076544208, 
      "sanName": "rubinsteinlaan", 
      "numOfAddr": 14, 
      "lonmax": 4.578729026996946, 
      "latmin": 51.32731477092326
    }, 
    {
      "latmax": 51.3481370142718, 
      "name": "R. Van Ostaeyenlaan", 
      "lonmin": 4.628622767709104, 
      "sanName": "rvanostaeyenlaan", 
      "numOfAddr": 52, 
      "lonmax": 4.631019091454247, 
      "latmin": 51.34660681896677
    }, 
    {
      "latmax": 51.31904898309788, 
      "name": "Salviadreef", 
      "lonmin": 4.5636323335875355, 
      "sanName": "salviadreef", 
      "numOfAddr": 23, 
      "lonmax": 4.566323785807826, 
      "latmin": 51.315752998426966
    }, 
    {
      "latmax": 51.315308175007345, 
      "name": "Scheepvaartlaan", 
      "lonmin": 4.585135666610761, 
      "sanName": "scheepvaartlaan", 
      "numOfAddr": 5, 
      "lonmax": 4.586791197239501, 
      "latmin": 51.31473225430743
    }, 
    {
      "latmax": 51.304853804996654, 
      "name": "Scherpenbergstraat", 
      "lonmin": 4.5771107913010445, 
      "sanName": "scherpenbergstraat", 
      "numOfAddr": 27, 
      "lonmax": 4.581030902086755, 
      "latmin": 51.3019978508869
    }, 
    {
      "latmax": 51.29152431576215, 
      "name": "Schijndallaan", 
      "lonmin": 4.576903685057547, 
      "sanName": "schijndallaan", 
      "numOfAddr": 16, 
      "lonmax": 4.5785747002176596, 
      "latmin": 51.290224170860014
    }, 
    {
      "latmax": 51.352172717593284, 
      "name": "Schooldries", 
      "lonmin": 4.641854018995078, 
      "sanName": "schooldries", 
      "numOfAddr": 5, 
      "lonmax": 4.642158348392965, 
      "latmin": 51.351709948518405
    }, 
    {
      "latmax": 51.350641072741276, 
      "name": "Schoolplein", 
      "lonmin": 4.6438178999572015, 
      "sanName": "schoolplein", 
      "numOfAddr": 9, 
      "lonmax": 4.6455796908972555, 
      "latmin": 51.34966595231783
    }, 
    {
      "latmax": 51.35085041241713, 
      "name": "Schoolstraat", 
      "lonmin": 4.644856765442401, 
      "sanName": "schoolstraat", 
      "numOfAddr": 24, 
      "lonmax": 4.646222844364141, 
      "latmin": 51.347398292421495
    }, 
    {
      "latmax": 51.351728363994646, 
      "name": "Schoordijkweg", 
      "lonmin": 4.598348036802768, 
      "sanName": "schoordijkweg", 
      "numOfAddr": 9, 
      "lonmax": 4.608141065051253, 
      "latmin": 51.34948796609303
    }, 
    {
      "latmax": 51.29567163275025, 
      "name": "Schorpioenlaan", 
      "lonmin": 4.579601759507042, 
      "sanName": "schorpioenlaan", 
      "numOfAddr": 17, 
      "lonmax": 4.582260828132808, 
      "latmin": 51.29326970419699
    }, 
    {
      "latmax": 51.340242724757964, 
      "name": "Schotensteenweg", 
      "lonmin": 4.569290305724909, 
      "sanName": "schotensteenweg", 
      "numOfAddr": 239, 
      "lonmax": 4.620219203068192, 
      "latmin": 51.30493858249106
    }, 
    {
      "latmax": 51.32786479194396, 
      "name": "Schubertlaan", 
      "lonmin": 4.571260889616036, 
      "sanName": "schubertlaan", 
      "numOfAddr": 11, 
      "lonmax": 4.572474149840584, 
      "latmin": 51.32734539955048
    }, 
    {
      "latmax": 51.35073983295598, 
      "name": "Simon Goossenslaan", 
      "lonmin": 4.67796531024473, 
      "sanName": "simongoossenslaan", 
      "numOfAddr": 37, 
      "lonmax": 4.6807603714349115, 
      "latmin": 51.34918476014664
    }, 
    {
      "latmax": 51.31146431459849, 
      "name": "Sint Jobbaan", 
      "lonmin": 4.557418867955743, 
      "sanName": "sintjobbaan", 
      "numOfAddr": 2, 
      "lonmax": 4.595063271982667, 
      "latmin": 51.29724914980125
    }, 
    {
      "latmax": 51.36763776302876, 
      "name": "Sint Lenaartsbaan", 
      "lonmin": 4.65185956633674, 
      "sanName": "sintlenaartsbaan", 
      "numOfAddr": 11, 
      "lonmax": 4.664422661910588, 
      "latmin": 51.355387100332386
    }, 
    {
      "latmax": 51.34400424293732, 
      "name": "Sint Willebrordusstraat", 
      "lonmin": 4.597056658424593, 
      "sanName": "sintwillebrordusstraat", 
      "numOfAddr": 75, 
      "lonmax": 4.60663687192797, 
      "latmin": 51.34177181923743
    }, 
    {
      "latmax": 51.29898904754039, 
      "name": "Sluisvijfbaan", 
      "lonmin": 4.5576016307648635, 
      "sanName": "sluisvijfbaan", 
      "numOfAddr": 9, 
      "lonmax": 4.558751104239351, 
      "latmin": 51.29829073167158
    }, 
    {
      "latmax": 51.30264472508944, 
      "name": "Smederijstraat", 
      "lonmin": 4.549627697792399, 
      "sanName": "smederijstraat", 
      "numOfAddr": 13, 
      "lonmax": 4.554016912105432, 
      "latmin": 51.300048716133354
    }, 
    {
      "latmax": 51.328429388915886, 
      "name": "Solvijnslaan", 
      "lonmin": 4.599687913990054, 
      "sanName": "solvijnslaan", 
      "numOfAddr": 11, 
      "lonmax": 4.60133435500156, 
      "latmin": 51.32721849523563
    }, 
    {
      "latmax": 51.32076169849361, 
      "name": "Sorbenlaan", 
      "lonmin": 4.572449497196521, 
      "sanName": "sorbenlaan", 
      "numOfAddr": 34, 
      "lonmax": 4.5775582172381055, 
      "latmin": 51.31762967895787
    }, 
    {
      "latmax": 51.31752415952839, 
      "name": "Sparrenlaan", 
      "lonmin": 4.577810462778175, 
      "sanName": "sparrenlaan", 
      "numOfAddr": 24, 
      "lonmax": 4.580632612886174, 
      "latmin": 51.31584630267238
    }, 
    {
      "latmax": 51.29096597502385, 
      "name": "Sparreweg", 
      "lonmin": 4.5588646401690704, 
      "sanName": "sparreweg", 
      "numOfAddr": 19, 
      "lonmax": 4.563563976341396, 
      "latmin": 51.290102703672254
    }, 
    {
      "latmax": 51.32034084841487, 
      "name": "Spechtendreef", 
      "lonmin": 4.564382312025625, 
      "sanName": "spechtendreef", 
      "numOfAddr": 69, 
      "lonmax": 4.571100210651226, 
      "latmin": 51.31408959015266
    }, 
    {
      "latmax": 51.29032487193268, 
      "name": "Sportveldlaan", 
      "lonmin": 4.577643688044968, 
      "sanName": "sportveldlaan", 
      "numOfAddr": 6, 
      "lonmax": 4.578759344966905, 
      "latmin": 51.28965722808146
    }, 
    {
      "latmax": 51.30429573520758, 
      "name": "Staf Larochelaan", 
      "lonmin": 4.577903632063501, 
      "sanName": "staflarochelaan", 
      "numOfAddr": 37, 
      "lonmax": 4.586526279622686, 
      "latmin": 51.30177648082942
    }, 
    {
      "latmax": 51.29774781238201, 
      "name": "Steenboklaan", 
      "lonmin": 4.576686998260518, 
      "sanName": "steenboklaan", 
      "numOfAddr": 18, 
      "lonmax": 4.579229825706482, 
      "latmin": 51.29527244387091
    }, 
    {
      "latmax": 51.307529139789374, 
      "name": "Steenweg Withof", 
      "lonmin": 4.566280211477693, 
      "sanName": "steenwegwithof", 
      "numOfAddr": 17, 
      "lonmax": 4.568090401915748, 
      "latmin": 51.30567387626426
    }, 
    {
      "latmax": 51.290751333458196, 
      "name": "Steydlinlaan", 
      "lonmin": 4.570603739642112, 
      "sanName": "steydlinlaan", 
      "numOfAddr": 42, 
      "lonmax": 4.57499264002278, 
      "latmin": 51.28856825030399
    }, 
    {
      "latmax": 51.35148183639974, 
      "name": "Stijn Streuvelslaan", 
      "lonmin": 4.685555990798654, 
      "sanName": "stijnstreuvelslaan", 
      "numOfAddr": 10, 
      "lonmax": 4.687919381525773, 
      "latmin": 51.35014199672986
    }, 
    {
      "latmax": 51.32991541901512, 
      "name": "Strausslaan", 
      "lonmin": 4.5733640349324105, 
      "sanName": "strausslaan", 
      "numOfAddr": 11, 
      "lonmax": 4.574000098707056, 
      "latmin": 51.32887168480895
    }, 
    {
      "latmax": 51.327033805899674, 
      "name": "Strawinskylaan", 
      "lonmin": 4.576695874810193, 
      "sanName": "strawinskylaan", 
      "numOfAddr": 13, 
      "lonmax": 4.577773396832642, 
      "latmin": 51.32614979891619
    }, 
    {
      "latmax": 51.32932885432914, 
      "name": "Sullivanlaan", 
      "lonmin": 4.572213281121094, 
      "sanName": "sullivanlaan", 
      "numOfAddr": 12, 
      "lonmax": 4.57291251349299, 
      "latmin": 51.32825529013791
    }, 
    {
      "latmax": 51.313803768164725, 
      "name": "Tabakshoevedreef", 
      "lonmin": 4.561577820511273, 
      "sanName": "tabakshoevedreef", 
      "numOfAddr": 9, 
      "lonmax": 4.5640855460538665, 
      "latmin": 51.31274764042488
    }, 
    {
      "latmax": 51.351052214048856, 
      "name": "Ten Colcke", 
      "lonmin": 4.671275922588113, 
      "sanName": "tencolcke", 
      "numOfAddr": 27, 
      "lonmax": 4.673066381667165, 
      "latmin": 51.349857605937764
    }, 
    {
      "latmax": 51.31804017706173, 
      "name": "Terheidelaan", 
      "lonmin": 4.593859367289163, 
      "sanName": "terheidelaan", 
      "numOfAddr": 24, 
      "lonmax": 4.598708659500291, 
      "latmin": 51.314855326807525
    }, 
    {
      "latmax": 51.319789657966155, 
      "name": "Thomas Van der Vekenlaan", 
      "lonmin": 4.584455331362759, 
      "sanName": "thomasvandervekenlaan", 
      "numOfAddr": 21, 
      "lonmax": 4.588399057016212, 
      "latmin": 51.31701428620866
    }, 
    {
      "latmax": 51.34205217130764, 
      "name": "Tilburgbaan", 
      "lonmin": 4.572933258273494, 
      "sanName": "tilburgbaan", 
      "numOfAddr": 91, 
      "lonmax": 4.65362398889853, 
      "latmin": 51.306078807617446
    }, 
    {
      "latmax": 51.30089589659051, 
      "name": "Toekomstlaan", 
      "lonmin": 4.568542091255289, 
      "sanName": "toekomstlaan", 
      "numOfAddr": 28, 
      "lonmax": 4.570929956942495, 
      "latmin": 51.2990559703016
    }, 
    {
      "latmax": 51.32999005928882, 
      "name": "Tsjaikowskylaan", 
      "lonmin": 4.573271447503778, 
      "sanName": "tsjaikowskylaan", 
      "numOfAddr": 13, 
      "lonmax": 4.575805801122218, 
      "latmin": 51.32827245918826
    }, 
    {
      "latmax": 51.34944211847575, 
      "name": "Tuinwijk", 
      "lonmin": 4.678911024127571, 
      "sanName": "tuinwijk", 
      "numOfAddr": 27, 
      "lonmax": 4.681076490011096, 
      "latmin": 51.3478235101597
    }, 
    {
      "latmax": 51.34702280381259, 
      "name": "Tulpstraat", 
      "lonmin": 4.675188349872764, 
      "sanName": "tulpstraat", 
      "numOfAddr": 12, 
      "lonmax": 4.675982124969745, 
      "latmin": 51.34643332341557
    }, 
    {
      "latmax": 51.29258650674847, 
      "name": "Uniondreef", 
      "lonmin": 4.552724480461273, 
      "sanName": "uniondreef", 
      "numOfAddr": 24, 
      "lonmax": 4.555059723514764, 
      "latmin": 51.291273756737155
    }, 
    {
      "latmax": 51.334605862235996, 
      "name": "Vaartdijk", 
      "lonmin": 4.5894408595812015, 
      "sanName": "vaartdijk", 
      "numOfAddr": 19, 
      "lonmax": 4.650821360599497, 
      "latmin": 51.309681562025844
    }, 
    {
      "latmax": 51.34483758194075, 
      "name": "Vaartkant Links", 
      "lonmin": 4.68797356563214, 
      "sanName": "vaartkantlinks", 
      "numOfAddr": 25, 
      "lonmax": 4.718586230183121, 
      "latmin": 51.33671355760388
    }, 
    {
      "latmax": 51.34101654738558, 
      "name": "Vaartkant Rechts", 
      "lonmin": 4.686850528085422, 
      "sanName": "vaartkantrechts", 
      "numOfAddr": 14, 
      "lonmax": 4.712148607772978, 
      "latmin": 51.33711795859365
    }, 
    {
      "latmax": 51.30163405717014, 
      "name": "Vaartlaan", 
      "lonmin": 4.552415459449836, 
      "sanName": "vaartlaan", 
      "numOfAddr": 63, 
      "lonmax": 4.569654057150481, 
      "latmin": 51.29461661434223
    }, 
    {
      "latmax": 51.34760858150427, 
      "name": "Vaartstraat", 
      "lonmin": 4.640947054247978, 
      "sanName": "vaartstraat", 
      "numOfAddr": 184, 
      "lonmax": 4.658298641882984, 
      "latmin": 51.33810950786666
    }, 
    {
      "latmax": 51.310437348773604, 
      "name": "Valklaan", 
      "lonmin": 4.567642012043169, 
      "sanName": "valklaan", 
      "numOfAddr": 5, 
      "lonmax": 4.5686423323260135, 
      "latmin": 51.3098005647762
    }, 
    {
      "latmax": 51.32106069800661, 
      "name": "Van Bavellaan", 
      "lonmin": 4.593893783797442, 
      "sanName": "vanbavellaan", 
      "numOfAddr": 32, 
      "lonmax": 4.599405379904108, 
      "latmin": 51.31474232470461
    }, 
    {
      "latmax": 51.33025893446574, 
      "name": "Van De Reydtlaan", 
      "lonmin": 4.588725130294151, 
      "sanName": "vandereydtlaan", 
      "numOfAddr": 84, 
      "lonmax": 4.601778259919047, 
      "latmin": 51.32271474678295
    }, 
    {
      "latmax": 51.346785520259175, 
      "name": "Van Pulstraat", 
      "lonmin": 4.642876093418068, 
      "sanName": "vanpulstraat", 
      "numOfAddr": 104, 
      "lonmax": 4.650977553305312, 
      "latmin": 51.34085735764164
    }, 
    {
      "latmax": 51.34088896039835, 
      "name": "Varenstraat", 
      "lonmin": 4.66557766902141, 
      "sanName": "varenstraat", 
      "numOfAddr": 11, 
      "lonmax": 4.666897621998038, 
      "latmin": 51.33758999131222
    }, 
    {
      "latmax": 51.30350303056364, 
      "name": "Veenlaan", 
      "lonmin": 4.583599464860039, 
      "sanName": "veenlaan", 
      "numOfAddr": 46, 
      "lonmax": 4.588758132516594, 
      "latmin": 51.302042075976765
    }, 
    {
      "latmax": 51.37313522967769, 
      "name": "Veldstraat", 
      "lonmin": 4.6402516104434675, 
      "sanName": "veldstraat", 
      "numOfAddr": 116, 
      "lonmax": 4.6475874599803815, 
      "latmin": 51.35276081587595
    }, 
    {
      "latmax": 51.31554245727888, 
      "name": "Venheidedreef", 
      "lonmin": 4.5606452715535095, 
      "sanName": "venheidedreef", 
      "numOfAddr": 10, 
      "lonmax": 4.562633418053911, 
      "latmin": 51.31494660927381
    }, 
    {
      "latmax": 51.28927781660809, 
      "name": "Venlaan", 
      "lonmin": 4.562641422535961, 
      "sanName": "venlaan", 
      "numOfAddr": 14, 
      "lonmax": 4.564768588225917, 
      "latmin": 51.28808535115189
    }, 
    {
      "latmax": 51.34924251591351, 
      "name": "Venusstraat", 
      "lonmin": 4.637814951794294, 
      "sanName": "venusstraat", 
      "numOfAddr": 14, 
      "lonmax": 4.640567879469307, 
      "latmin": 51.3470968691579
    }, 
    {
      "latmax": 51.292575112577886, 
      "name": "Vestlaan", 
      "lonmin": 4.55501024650253, 
      "sanName": "vestlaan", 
      "numOfAddr": 10, 
      "lonmax": 4.555919825726305, 
      "latmin": 51.291189766521896
    }, 
    {
      "latmax": 51.3385169864393, 
      "name": "Veulenweg", 
      "lonmin": 4.565148957369525, 
      "sanName": "veulenweg", 
      "numOfAddr": 10, 
      "lonmax": 4.570452967223591, 
      "latmin": 51.33792129642226
    }, 
    {
      "latmax": 51.30669883508464, 
      "name": "Vijf Gezusterslaan", 
      "lonmin": 4.574774093938283, 
      "sanName": "vijfgezusterslaan", 
      "numOfAddr": 24, 
      "lonmax": 4.5779284403714104, 
      "latmin": 51.30519064005527
    }, 
    {
      "latmax": 51.291296975368354, 
      "name": "Vijfhoeklaan", 
      "lonmin": 4.565322762219996, 
      "sanName": "vijfhoeklaan", 
      "numOfAddr": 16, 
      "lonmax": 4.5677647749866725, 
      "latmin": 51.29015570325456
    },