{
  "streets": [
    {
      "latmax": 51.24706704126573, 
      "name": "Akkerstraat", 
      "lonmin": 4.584139659987829, 
      "sanName": "akkerstraat", 
      "numOfAddr": 32, 
      "lonmax": 4.587332052035749, 
      "latmin": 51.24495641810833
    }, 
    {
      "latmax": 51.24542851076075, 
      "name": "Albert Van Dyckstraat", 
      "lonmin": 4.5913982416418495, 
      "sanName": "albertvandyckstraat", 
      "numOfAddr": 8, 
      "lonmax": 4.592261610704874, 
      "latmin": 51.24495526537313
    }, 
    {
      "latmax": 51.23729400725966, 
      "name": "Alf.Van den Sandelaan", 
      "lonmin": 4.585146841832906, 
      "sanName": "alfvandensandelaan", 
      "numOfAddr": 43, 
      "lonmax": 4.596756855761501, 
      "latmin": 51.23479626383481
    }, 
    {
      "latmax": 51.25797420415753, 
      "name": "Amazonenlaan", 
      "lonmin": 4.55559086765082, 
      "sanName": "amazonenlaan", 
      "numOfAddr": 12, 
      "lonmax": 4.556799182965746, 
      "latmin": 51.256943892024864
    }, 
    {
      "latmax": 51.241235799797934, 
      "name": "Anemonenlaan", 
      "lonmin": 4.553772684108766, 
      "sanName": "anemonenlaan", 
      "numOfAddr": 8, 
      "lonmax": 4.555870675599871, 
      "latmin": 51.24021816266099
    }, 
    {
      "latmax": 51.236845640357025, 
      "name": "August Dierckxlaan", 
      "lonmin": 4.585279852927039, 
      "sanName": "augustdierckxlaan", 
      "numOfAddr": 48, 
      "lonmax": 4.5888704100984326, 
      "latmin": 51.23587494658925
    }, 
    {
      "latmax": 51.260466539423625, 
      "name": "August Dilslei", 
      "lonmin": 4.552287572983401, 
      "sanName": "augustdilslei", 
      "numOfAddr": 44, 
      "lonmax": 4.553894964851932, 
      "latmin": 51.25755179291963
    }, 
    {
      "latmax": 51.24169229131095, 
      "name": "Azalealaan", 
      "lonmin": 4.552468617167245, 
      "sanName": "azalealaan", 
      "numOfAddr": 35, 
      "lonmax": 4.562537945770928, 
      "latmin": 51.23840205442479
    }, 
    {
      "latmax": 51.26767114177843, 
      "name": "Baron Delbekelaan", 
      "lonmin": 4.605722083907408, 
      "sanName": "barondelbekelaan", 
      "numOfAddr": 31, 
      "lonmax": 4.611862989247889, 
      "latmin": 51.26075349604438
    }, 
    {
      "latmax": 51.251359011509095, 
      "name": "Beemdenlaan", 
      "lonmin": 4.57963145391008, 
      "sanName": "beemdenlaan", 
      "numOfAddr": 31, 
      "lonmax": 4.58532234555451, 
      "latmin": 51.2478611171468
    }, 
    {
      "latmax": 51.24342930518107, 
      "name": "Begonialaan", 
      "lonmin": 4.5486483337978205, 
      "sanName": "begonialaan", 
      "numOfAddr": 20, 
      "lonmax": 4.555613246243555, 
      "latmin": 51.24002711168499
    }, 
    {
      "latmax": 51.247732516184854, 
      "name": "Bellemond", 
      "lonmin": 4.559947886670125, 
      "sanName": "bellemond", 
      "numOfAddr": 23, 
      "lonmax": 4.566400288471993, 
      "latmin": 51.24271817917908
    }, 
    {
      "latmax": 51.23434204134164, 
      "name": "Bellevuedreef", 
      "lonmin": 4.5656445809413535, 
      "sanName": "bellevuedreef", 
      "numOfAddr": 29, 
      "lonmax": 4.571040933878839, 
      "latmin": 51.224865423464706
    }, 
    {
      "latmax": 51.22951249917693, 
      "name": "Bergendreef", 
      "lonmin": 4.560482390728212, 
      "sanName": "bergendreef", 
      "numOfAddr": 10, 
      "lonmax": 4.562148941836801, 
      "latmin": 51.228075224717976
    }, 
    {
      "latmax": 51.28257396475023, 
      "name": "Berkenheide", 
      "lonmin": 4.6206594440267645, 
      "sanName": "berkenheide", 
      "numOfAddr": 12, 
      "lonmax": 4.623296959062626, 
      "latmin": 51.28069392548042
    }, 
    {
      "latmax": 51.2604208525649, 
      "name": "Berkenlaan", 
      "lonmin": 4.559454884679921, 
      "sanName": "berkenlaan", 
      "numOfAddr": 18, 
      "lonmax": 4.56353610361216, 
      "latmin": 51.25870705558483
    }, 
    {
      "latmax": 51.284427159350685, 
      "name": "Bethani\u0089lei", 
      "lonmin": 4.598654184432408, 
      "sanName": "bethanilei", 
      "numOfAddr": 47, 
      "lonmax": 4.6238565789717425, 
      "latmin": 51.27863459925361
    }, 
    {
      "latmax": 51.24948764307748, 
      "name": "Beukendreef", 
      "lonmin": 4.555541598628942, 
      "sanName": "beukendreef", 
      "numOfAddr": 2, 
      "lonmax": 4.556434362935307, 
      "latmin": 51.2492208899872
    }, 
    {
      "latmax": 51.232692494224466, 
      "name": "Beukenlaan", 
      "lonmin": 4.558629917135657, 
      "sanName": "beukenlaan", 
      "numOfAddr": 53, 
      "lonmax": 4.560681154117207, 
      "latmin": 51.228210741275845
    }, 
    {
      "latmax": 51.26408897648131, 
      "name": "Biekenshei", 
      "lonmin": 4.577155726473592, 
      "sanName": "biekenshei", 
      "numOfAddr": 18, 
      "lonmax": 4.580134629776035, 
      "latmin": 51.263288718561775
    }, 
    {
      "latmax": 51.26329953199438, 
      "name": "Blijde Inkomst", 
      "lonmin": 4.571623507050416, 
      "sanName": "blijdeinkomst", 
      "numOfAddr": 26, 
      "lonmax": 4.5741525353442, 
      "latmin": 51.25766328127759
    }, 
    {
      "latmax": 51.233548347134466, 
      "name": "Boerendreef", 
      "lonmin": 4.562691480160225, 
      "sanName": "boerendreef", 
      "numOfAddr": 22, 
      "lonmax": 4.5664872833065955, 
      "latmin": 51.22848690709559
    }, 
    {
      "latmax": 51.27489430250394, 
      "name": "Bosduifdreef", 
      "lonmin": 4.614373106442487, 
      "sanName": "bosduifdreef", 
      "numOfAddr": 7, 
      "lonmax": 4.615652905494166, 
      "latmin": 51.27337774943312
    }, 
    {
      "latmax": 51.261193368583385, 
      "name": "Boskant", 
      "lonmin": 4.600721308509122, 
      "sanName": "boskant", 
      "numOfAddr": 31, 
      "lonmax": 4.60687028055499, 
      "latmin": 51.25795389555259
    }, 
    {
      "latmax": 51.261122896840725, 
      "name": "Bospad", 
      "lonmin": 4.588431022577606, 
      "sanName": "bospad", 
      "numOfAddr": 3, 
      "lonmax": 4.58888720390149, 
      "latmin": 51.260900118740025
    }, 
    {
      "latmax": 51.25061804815931, 
      "name": "Boterlaarbaan", 
      "lonmin": 4.557656243320067, 
      "sanName": "boterlaarbaan", 
      "numOfAddr": 19, 
      "lonmax": 4.565236731031917, 
      "latmin": 51.244156860682175
    }, 
    {
      "latmax": 51.24476068458783, 
      "name": "Braamstraat", 
      "lonmin": 4.580742162809836, 
      "sanName": "braamstraat", 
      "numOfAddr": 9, 
      "lonmax": 4.581341005877364, 
      "latmin": 51.244178472851104
    }, 
    {
      "latmax": 51.25631328073894, 
      "name": "Brabolaan", 
      "lonmin": 4.59965134090311, 
      "sanName": "brabolaan", 
      "numOfAddr": 8, 
      "lonmax": 4.601929964008929, 
      "latmin": 51.25503162568362
    }, 
    {
      "latmax": 51.249440683049215, 
      "name": "Brasschaatsebaan", 
      "lonmin": 4.571119919486684, 
      "sanName": "brasschaatsebaan", 
      "numOfAddr": 94, 
      "lonmax": 4.578956685205928, 
      "latmin": 51.239271991530366
    }, 
    {
      "latmax": 51.29448329256746, 
      "name": "Brechtseheideweg", 
      "lonmin": 4.6262437531006455, 
      "sanName": "brechtseheideweg", 
      "numOfAddr": 18, 
      "lonmax": 4.628264366912527, 
      "latmin": 51.292945872313155
    }, 
    {
      "latmax": 51.24370014291938, 
      "name": "Breeveld", 
      "lonmin": 4.611508134675148, 
      "sanName": "breeveld", 
      "numOfAddr": 29, 
      "lonmax": 4.617376258172622, 
      "latmin": 51.238300109221385
    }, 
    {
      "latmax": 51.23695219345409, 
      "name": "Breeveldpad", 
      "lonmin": 4.599658076799267, 
      "sanName": "breeveldpad", 
      "numOfAddr": 6, 
      "lonmax": 4.60171541049953, 
      "latmin": 51.23586918566597
    }, 
    {
      "latmax": 51.243627694558725, 
      "name": "Breeveldse Masten", 
      "lonmin": 4.613776017783485, 
      "sanName": "breeveldsemasten", 
      "numOfAddr": 14, 
      "lonmax": 4.616713305808872, 
      "latmin": 51.24108287847824
    }, 
    {
      "latmax": 51.23304809096111, 
      "name": "Bremboslaan", 
      "lonmin": 4.570508870108184, 
      "sanName": "bremboslaan", 
      "numOfAddr": 18, 
      "lonmax": 4.573964691826841, 
      "latmin": 51.23113048039553
    }, 
    {
      "latmax": 51.24146982335224, 
      "name": "Brouwerijstraat", 
      "lonmin": 4.581413041750019, 
      "sanName": "brouwerijstraat", 
      "numOfAddr": 7, 
      "lonmax": 4.581900049544636, 
      "latmin": 51.240880719031956
    }, 
    {
      "latmax": 51.25236465296004, 
      "name": "Buizerdlaan", 
      "lonmin": 4.559375192104359, 
      "sanName": "buizerdlaan", 
      "numOfAddr": 20, 
      "lonmax": 4.564282440659995, 
      "latmin": 51.24989655419527
    }, 
    {
      "latmax": 51.265496117899, 
      "name": "Bunder", 
      "lonmin": 4.598196591950506, 
      "sanName": "bunder", 
      "numOfAddr": 9, 
      "lonmax": 4.599887467808391, 
      "latmin": 51.264213419995514
    }, 
    {
      "latmax": 51.242672112583094, 
      "name": "Camelialaan", 
      "lonmin": 4.555762186428124, 
      "sanName": "camelialaan", 
      "numOfAddr": 12, 
      "lonmax": 4.558666703098692, 
      "latmin": 51.240605767921515
    }, 
    {
      "latmax": 51.271901572999134, 
      "name": "Catersdreef", 
      "lonmin": 4.605023086909479, 
      "sanName": "catersdreef", 
      "numOfAddr": 16, 
      "lonmax": 4.609655396376256, 
      "latmin": 51.27026216264208
    }, 
    {
      "latmax": 51.29017202057176, 
      "name": "Caterskapeldreef", 
      "lonmin": 4.601084542962041, 
      "sanName": "caterskapeldreef", 
      "numOfAddr": 5, 
      "lonmax": 4.603230611283951, 
      "latmin": 51.290131204950455
    }, 
    {
      "latmax": 51.28087909063298, 
      "name": "Catharinadreef", 
      "lonmin": 4.61156783601377, 
      "sanName": "catharinadreef", 
      "numOfAddr": 44, 
      "lonmax": 4.61860518480454, 
      "latmin": 51.272255282040526
    }, 
    {
      "latmax": 51.272823937478734, 
      "name": "Cirkellaan", 
      "lonmin": 4.6086761387442925, 
      "sanName": "cirkellaan", 
      "numOfAddr": 8, 
      "lonmax": 4.611855286718969, 
      "latmin": 51.26985543279019
    }, 
    {
      "latmax": 51.2607140136374, 
      "name": "Constant Joossenslei", 
      "lonmin": 4.550612921816614, 
      "sanName": "constantjoossenslei", 
      "numOfAddr": 48, 
      "lonmax": 4.552850767521363, 
      "latmin": 51.258484088205485
    }, 
    {
      "latmax": 51.27047813675334, 
      "name": "Dageraad", 
      "lonmin": 4.563817011647389, 
      "sanName": "dageraad", 
      "numOfAddr": 5, 
      "lonmax": 4.565730066761289, 
      "latmin": 51.27042201670831
    }, 
    {
      "latmax": 51.255054438156876, 
      "name": "Damhertenlaan", 
      "lonmin": 4.547684218883678, 
      "sanName": "damhertenlaan", 
      "numOfAddr": 27, 
      "lonmax": 4.55087204023319, 
      "latmin": 51.25311239013072
    }, 
    {
      "latmax": 51.22952025829864, 
      "name": "De Biesaard", 
      "lonmin": 4.583725219189565, 
      "sanName": "debiesaard", 
      "numOfAddr": 6, 
      "lonmax": 4.585619774219417, 
      "latmin": 51.22737386165978
    }, 
    {
      "latmax": 51.25518015186215, 
      "name": "De Dreef van Duyvendael", 
      "lonmin": 4.560887965861216, 
      "sanName": "dedreefvanduyvendael", 
      "numOfAddr": 22, 
      "lonmax": 4.566495223851698, 
      "latmin": 51.25203194877614
    }, 
    {
      "latmax": 51.260252872037356, 
      "name": "De Dreef van Hertebos", 
      "lonmin": 4.554334231064671, 
      "sanName": "dedreefvanhertebos", 
      "numOfAddr": 31, 
      "lonmax": 4.558570026064468, 
      "latmin": 51.25758060394265
    }, 
    {
      "latmax": 51.27249211207379, 
      "name": "De Dreef van Zonnebos", 
      "lonmin": 4.562290656692451, 
      "sanName": "dedreefvanzonnebos", 
      "numOfAddr": 24, 
      "lonmax": 4.568951605639488, 
      "latmin": 51.27147040185424
    }, 
    {
      "latmax": 51.25064936403499, 
      "name": "De Goudvink", 
      "lonmin": 4.5374363891532665, 
      "sanName": "degoudvink", 
      "numOfAddr": 30, 
      "lonmax": 4.54246673537957, 
      "latmin": 51.24502123690149
    }, 
    {
      "latmax": 51.27082808897946, 
      "name": "De Haar", 
      "lonmin": 4.580282749737891, 
      "sanName": "dehaar", 
      "numOfAddr": 3, 
      "lonmax": 4.583953140004777, 
      "latmin": 51.26466945591314
    }, 
    {
      "latmax": 51.26527007700054, 
      "name": "De Kaak", 
      "lonmin": 4.548076302689331, 
      "sanName": "dekaak", 
      "numOfAddr": 2, 
      "lonmax": 4.550477977243521, 
      "latmin": 51.26378207892129
    }, 
    {
      "latmax": 51.24176154090825, 
      "name": "De Kleve", 
      "lonmin": 4.591153844101452, 
      "sanName": "dekleve", 
      "numOfAddr": 46, 
      "lonmax": 4.593273509874493, 
      "latmin": 51.23977264635246
    }, 
    {
      "latmax": 51.249049638554986, 
      "name": "De Kluis", 
      "lonmin": 4.564565372778877, 
      "sanName": "dekluis", 
      "numOfAddr": 36, 
      "lonmax": 4.570780467205247, 
      "latmin": 51.24109560564411
    }, 
    {
      "latmax": 51.235059049551914, 
      "name": "De Loock", 
      "lonmin": 4.567960845501592, 
      "sanName": "deloock", 
      "numOfAddr": 24, 
      "lonmax": 4.576233832607123, 
      "latmin": 51.23161977620299
    }, 
    {
      "latmax": 51.26875954755491, 
      "name": "Den Aard", 
      "lonmin": 4.600288760540694, 
      "sanName": "denaard", 
      "numOfAddr": 21, 
      "lonmax": 4.607256891746166, 
      "latmin": 51.264573280284885
    }, 
    {
      "latmax": 51.25187881766648, 
      "name": "De Nachtegaal", 
      "lonmin": 4.534023402248542, 
      "sanName": "denachtegaal", 
      "numOfAddr": 46, 
      "lonmax": 4.54080244491356, 
      "latmin": 51.24351404449879
    }, 
    {
      "latmax": 51.24391139786628, 
      "name": "Den Hert", 
      "lonmin": 4.587714028416121, 
      "sanName": "denhert", 
      "numOfAddr": 20, 
      "lonmax": 4.588653935309051, 
      "latmin": 51.24308637525638
    }, 
    {
      "latmax": 51.226720923426726, 
      "name": "Den Heuvel", 
      "lonmin": 4.585040209818892, 
      "sanName": "denheuvel", 
      "numOfAddr": 16, 
      "lonmax": 4.591833096828475, 
      "latmin": 51.22428084714656
    }, 
    {
      "latmax": 51.24969816038339, 
      "name": "Dennenlaan", 
      "lonmin": 4.574666712370071, 
      "sanName": "dennenlaan", 
      "numOfAddr": 42, 
      "lonmax": 4.586695762431948, 
      "latmin": 51.24430565861119
    }, 
    {
      "latmax": 51.229457824645614, 
      "name": "De Pont", 
      "lonmin": 4.571953614717885, 
      "sanName": "depont", 
      "numOfAddr": 31, 
      "lonmax": 4.581783186443224, 
      "latmin": 51.223863524688596
    }, 
    {
      "latmax": 51.24808897760435, 
      "name": "De Reep", 
      "lonmin": 4.586674981102755, 
      "sanName": "dereep", 
      "numOfAddr": 28, 
      "lonmax": 4.588749936525585, 
      "latmin": 51.245014849521525
    }, 
    {
      "latmax": 51.22944945767127, 
      "name": "De Rentfort", 
      "lonmin": 4.5775804527509525, 
      "sanName": "derentfort", 
      "numOfAddr": 11, 
      "lonmax": 4.5793024148566825, 
      "latmin": 51.22804280022117
    }, 
    {
      "latmax": 51.24968834117046, 
      "name": "De Rest", 
      "lonmin": 4.588339015170269, 
      "sanName": "derest", 
      "numOfAddr": 44, 
      "lonmax": 4.592994982859218, 
      "latmin": 51.245160999464844
    }, 
    {
      "latmax": 51.26180090794944, 
      "name": "De Roskam", 
      "lonmin": 4.606155703704619, 
      "sanName": "deroskam", 
      "numOfAddr": 38, 
      "lonmax": 4.610078032565567, 
      "latmin": 51.254709834442096
    }, 
    {
      "latmax": 51.26135890093659, 
      "name": "De Schietboog", 
      "lonmin": 4.600702002929124, 
      "sanName": "deschietboog", 
      "numOfAddr": 56, 
      "lonmax": 4.608080792426, 
      "latmin": 51.255808296348434
    }, 
    {
      "latmax": 51.27077752226517, 
      "name": "De Singel", 
      "lonmin": 4.6086027225860065, 
      "sanName": "desingel", 
      "numOfAddr": 26, 
      "lonmax": 4.613433192938076, 
      "latmin": 51.266321216912225
    }, 
    {
      "latmax": 51.2426945998108, 
      "name": "De Spildoren", 
      "lonmin": 4.591896436818243, 
      "sanName": "despildoren", 
      "numOfAddr": 71, 
      "lonmax": 4.595150786579448, 
      "latmin": 51.239165823004974
    }, 
    {
      "latmax": 51.231854230629665, 
      "name": "De Vennen", 
      "lonmin": 4.562399343357897, 
      "sanName": "devennen", 
      "numOfAddr": 8, 
      "lonmax": 4.566175843269425, 
      "latmin": 51.23014836250323
    }, 
    {
      "latmax": 51.23574123972046, 
      "name": "De Zevenster", 
      "lonmin": 4.548923274508935, 
      "sanName": "dezevenster", 
      "numOfAddr": 43, 
      "lonmax": 4.553963126433334, 
      "latmin": 51.2316063334836
    }, 
    {
      "latmax": 51.256159534985706, 
      "name": "Dianalaan", 
      "lonmin": 4.548202333605662, 
      "sanName": "dianalaan", 
      "numOfAddr": 24, 
      "lonmax": 4.552665345073401, 
      "latmin": 51.25546659983625
    }, 
    {
      "latmax": 51.23684019990578, 
      "name": "Dieghemveldweg", 
      "lonmin": 4.586417506305576, 
      "sanName": "dieghemveldweg", 
      "numOfAddr": 4, 
      "lonmax": 4.587258893803248, 
      "latmin": 51.235918819224835
    }, 
    {
      "latmax": 51.233883820865756, 
      "name": "Dobbelhoefseweg", 
      "lonmin": 4.606916560750322, 
      "sanName": "dobbelhoefseweg", 
      "numOfAddr": 19, 
      "lonmax": 4.60957578498285, 
      "latmin": 51.23011949931358
    }, 
    {
      "latmax": 51.234682049282284, 
      "name": "Dorpsstraat", 
      "lonmin": 4.582635283636606, 
      "sanName": "dorpsstraat", 
      "numOfAddr": 47, 
      "lonmax": 4.58503350320057, 
      "latmin": 51.23209739948123
    }, 
    {
      "latmax": 51.264743771259454, 
      "name": "Driepikkel", 
      "lonmin": 4.590659050984831, 
      "sanName": "driepikkel", 
      "numOfAddr": 9, 
      "lonmax": 4.591885424858739, 
      "latmin": 51.26420012458719
    }, 
    {
      "latmax": 51.249997436784646, 
      "name": "Drijhoekdreef", 
      "lonmin": 4.607869084938607, 
      "sanName": "drijhoekdreef", 
      "numOfAddr": 29, 
      "lonmax": 4.617900864033929, 
      "latmin": 51.24206639305726
    }, 
    {
      "latmax": 51.25719347856628, 
      "name": "Drijverslaan", 
      "lonmin": 4.5542955489400025, 
      "sanName": "drijverslaan", 
      "numOfAddr": 16, 
      "lonmax": 4.557306690320953, 
      "latmin": 51.25637310721559
    }, 
    {
      "latmax": 51.27920783368989, 
      "name": "Dwarsdreef", 
      "lonmin": 4.6083590088305835, 
      "sanName": "dwarsdreef", 
      "numOfAddr": 37, 
      "lonmax": 4.62140143607773, 
      "latmin": 51.27516880132654
    }, 
    {
      "latmax": 51.253344099141266, 
      "name": "Eekhoornlaan", 
      "lonmin": 4.552059333097396, 
      "sanName": "eekhoornlaan", 
      "numOfAddr": 32, 
      "lonmax": 4.558583527462252, 
      "latmin": 51.2523372417569
    }, 
    {
      "latmax": 51.23957697145673, 
      "name": "Egelvoortstraat", 
      "lonmin": 4.591530748003666, 
      "sanName": "egelvoortstraat", 
      "numOfAddr": 41, 
      "lonmax": 4.597781086284618, 
      "latmin": 51.23807196052276
    }, 
    {
      "latmax": 51.26269453166806, 
      "name": "Eikenlei", 
      "lonmin": 4.555736439457518, 
      "sanName": "eikenlei", 
      "numOfAddr": 37, 
      "lonmax": 4.557242754345157, 
      "latmin": 51.26072964610874
    }, 
    {
      "latmax": 51.24945063798209, 
      "name": "Eksterdreef", 
      "lonmin": 4.613454907523913, 
      "sanName": "eksterdreef", 
      "numOfAddr": 11, 
      "lonmax": 4.615402866856966, 
      "latmin": 51.248028673479794
    }, 
    {
      "latmax": 51.27958250761393, 
      "name": "Elzendreef", 
      "lonmin": 4.617710424223632, 
      "sanName": "elzendreef", 
      "numOfAddr": 28, 
      "lonmax": 4.622447336243482, 
      "latmin": 51.27682427148596
    }, 
    {
      "latmax": 51.245140674149155, 
      "name": "Emiel De Backerlaan", 
      "lonmin": 4.584011727038463, 
      "sanName": "emieldebackerlaan", 
      "numOfAddr": 16, 
      "lonmax": 4.5856383081161525, 
      "latmin": 51.24382938037069
    }, 
    {
      "latmax": 51.230546380341984, 
      "name": "Engelendreef", 
      "lonmin": 4.561311479192423, 
      "sanName": "engelendreef", 
      "numOfAddr": 16, 
      "lonmax": 4.563950536529917, 
      "latmin": 51.22750967235355
    }, 
    {
      "latmax": 51.25463480514586, 
      "name": "Epicialaan", 
      "lonmin": 4.568051852368453, 
      "sanName": "epicialaan", 
      "numOfAddr": 14, 
      "lonmax": 4.573942140460595, 
      "latmin": 51.25323985660028
    }, 
    {
      "latmax": 51.23836453394742, 
      "name": "Eugeen Dierckxlaan", 
      "lonmin": 4.577061913189997, 
      "sanName": "eugeendierckxlaan", 
      "numOfAddr": 35, 
      "lonmax": 4.5831737729383875, 
      "latmin": 51.23637557737166
    }, 
    {
      "latmax": 51.245524878731366, 
      "name": "Eugeen Van de Vellaan", 
      "lonmin": 4.5705351643809555, 
      "sanName": "eugeenvandevellaan", 
      "numOfAddr": 79, 
      "lonmax": 4.577086849543562, 
      "latmin": 51.23849251533834
    }, 
    {
      "latmax": 51.25621091605799, 
      "name": "Fazantenlaan", 
      "lonmin": 4.55382295813688, 
      "sanName": "fazantenlaan", 
      "numOfAddr": 21, 
      "lonmax": 4.557066520076037, 
      "latmin": 51.255360690531184
    }, 
    {
      "latmax": 51.23195125099101, 
      "name": "Fondatiedreef", 
      "lonmin": 4.586421828467615, 
      "sanName": "fondatiedreef", 
      "numOfAddr": 18, 
      "lonmax": 4.588426484674591, 
      "latmin": 51.22929175656321
    }, 
    {
      "latmax": 51.264313964326085, 
      "name": "Fortsteenweg", 
      "lonmin": 4.571311720814849, 
      "sanName": "fortsteenweg", 
      "numOfAddr": 55, 
      "lonmax": 4.584526630403462, 
      "latmin": 51.26112852651193
    }, 
    {
      "latmax": 51.24225504261537, 
      "name": "Frans De Beuckeleerlaan", 
      "lonmin": 4.587197192632386, 
      "sanName": "fransdebeuckeleerlaan", 
      "numOfAddr": 28, 
      "lonmax": 4.588749050796143, 
      "latmin": 51.24086328149306
    }, 
    {
      "latmax": 51.2629631171244, 
      "name": "Frans Pauwelslei", 
      "lonmin": 4.552406071413004, 
      "sanName": "franspauwelslei", 
      "numOfAddr": 30, 
      "lonmax": 4.555242561382963, 
      "latmin": 51.26124130674235
    }, 
    {
      "latmax": 51.26462515245768, 
      "name": "Friedadreef", 
      "lonmin": 4.58829419334103, 
      "sanName": "friedadreef", 
      "numOfAddr": 89, 
      "lonmax": 4.594317990783913, 
      "latmin": 51.26017372963768
    }, 
    {
      "latmax": 51.23703552355753, 
      "name": "Galgenstraat", 
      "lonmin": 4.53789406573775, 
      "sanName": "galgenstraat", 
      "numOfAddr": 11, 
      "lonmax": 4.541812527716586, 
      "latmin": 51.23514811977102
    }, 
    {
      "latmax": 51.246918177084886, 
      "name": "Gazelledreef", 
      "lonmin": 4.608405946154183, 
      "sanName": "gazelledreef", 
      "numOfAddr": 10, 
      "lonmax": 4.610905120379651, 
      "latmin": 51.24580516025549
    }, 
    {
      "latmax": 51.24504318650634, 
      "name": "Gersblok", 
      "lonmin": 4.588912257499975, 
      "sanName": "gersblok", 
      "numOfAddr": 18, 
      "lonmax": 4.591176799767412, 
      "latmin": 51.243935588195136
    }, 
    {
      "latmax": 51.2629710897114, 
      "name": "Gill\u008as de P\u0082lichylei", 
      "lonmin": 4.557470952450661, 
      "sanName": "gillsdeplichylei", 
      "numOfAddr": 106, 
      "lonmax": 4.571788321626236, 
      "latmin": 51.24860491466591
    }, 
    {
      "latmax": 51.241251067231374, 
      "name": "Gladiolenlaan", 
      "lonmin": 4.551735329915652, 
      "sanName": "gladiolenlaan", 
      "numOfAddr": 7, 
      "lonmax": 4.553279624265492, 
      "latmin": 51.23986217515636
    }, 
    {
      "latmax": 51.229446756310274, 
      "name": "Goorstraat", 
      "lonmin": 4.597250441630107, 
      "sanName": "goorstraat", 
      "numOfAddr": 17, 
      "lonmax": 4.607164619494348, 
      "latmin": 51.227225639971586
    }, 
    {
      "latmax": 51.2295513130504, 
      "name": "Goorstraatsevelden", 
      "lonmin": 4.594378156926874, 
      "sanName": "goorstraatsevelden", 
      "numOfAddr": 2, 
      "lonmax": 4.5984760649289145, 
      "latmin": 51.227890612508176
    }, 
    {
      "latmax": 51.233210637313476, 
      "name": "Goudbloemlaan", 
      "lonmin": 4.560633167134065, 
      "sanName": "goudbloemlaan", 
      "numOfAddr": 28, 
      "lonmax": 4.5626402918540085, 
      "latmin": 51.2308134249014
    }, 
    {
      "latmax": 51.23907294928214, 
      "name": "Gouwberg", 
      "lonmin": 4.55616808647085, 
      "sanName": "gouwberg", 
      "numOfAddr": 35, 
      "lonmax": 4.572160474028756, 
      "latmin": 51.233559502405754
    }, 
    {
      "latmax": 51.25775734095434, 
      "name": "Graaf Charles Cornetlaan", 
      "lonmin": 4.549299559386358, 
      "sanName": "graafcharlescornetlaan", 
      "numOfAddr": 32, 
      "lonmax": 4.5536054611217756, 
      "latmin": 51.25626137617792
    }, 
    {
      "latmax": 51.244560281606965, 
      "name": "Groenelaan", 
      "lonmin": 4.576472330371389, 
      "sanName": "groenelaan", 
      "numOfAddr": 53, 
      "lonmax": 4.58126408770555, 
      "latmin": 51.24079934438271
    }, 
    {
      "latmax": 51.26250788490283, 
      "name": "Groene Wandeling", 
      "lonmin": 4.574013077779612, 
      "sanName": "groenewandeling", 
      "numOfAddr": 58, 
      "lonmax": 4.585126191132314, 
      "latmin": 51.26005890129205
    }, 
    {
      "latmax": 51.25748329596598, 
      "name": "Grote Beemd", 
      "lonmin": 4.580950752058579, 
      "sanName": "grotebeemd", 
      "numOfAddr": 55, 
      "lonmax": 4.58555815948209, 
      "latmin": 51.25524277600669
    }, 
    {
      "latmax": 51.290281913401934, 
      "name": "Grovedreef", 
      "lonmin": 4.60060706748361, 
      "sanName": "grovedreef", 
      "numOfAddr": 12, 
      "lonmax": 4.601157598535212, 
      "latmin": 51.286872438300456
    }, 
    {
      "latmax": 51.23666520860818, 
      "name": "Hagedoornlaan", 
      "lonmin": 4.57353830071153, 
      "sanName": "hagedoornlaan", 
      "numOfAddr": 27, 
      "lonmax": 4.576794637187769, 
      "latmin": 51.23279029902403
    }, 
    {
      "latmax": 51.288258108652265, 
      "name": "Haksellaan", 
      "lonmin": 4.621427649763158, 
      "sanName": "haksellaan", 
      "numOfAddr": 23, 
      "lonmax": 4.625312521842364, 
      "latmin": 51.28736994837014
    }, 
    {
      "latmax": 51.24923194259154, 
      "name": "Hazendreef", 
      "lonmin": 4.608913163036513, 
      "sanName": "hazendreef", 
      "numOfAddr": 29, 
      "lonmax": 4.6125319688267545, 
      "latmin": 51.24454855069224
    }, 
    {
      "latmax": 51.244544723275716, 
      "name": "Heerbaan", 
      "lonmin": 4.550871819483401, 
      "sanName": "heerbaan", 
      "numOfAddr": 4, 
      "lonmax": 4.552730943914851, 
      "latmin": 51.24390078794378
    }, 
    {
      "latmax": 51.2416916321095, 
      "name": "Heidedreef", 
      "lonmin": 4.554701230754355, 
      "sanName": "heidedreef", 
      "numOfAddr": 60, 
      "lonmax": 4.575871368428496, 
      "latmin": 51.23472542220032
    }, 
    {
      "latmax": 51.28622764970089, 
      "name": "Heidemolen", 
      "lonmin": 4.616415127432403, 
      "sanName": "heidemolen", 
      "numOfAddr": 38, 
      "lonmax": 4.625928811851528, 
      "latmin": 51.28191353550392
    }, 
    {
      "latmax": 51.23762025666945, 
      "name": "Hendrik Consciencestraat", 
      "lonmin": 4.575412853261162, 
      "sanName": "hendrikconsciencestraat", 
      "numOfAddr": 26, 
      "lonmax": 4.577931496604794, 
      "latmin": 51.23559046599421
    }, 
    {
      "latmax": 51.244931143008834, 
      "name": "Hertendreef", 
      "lonmin": 4.612651414620591, 
      "sanName": "hertendreef", 
      "numOfAddr": 4, 
      "lonmax": 4.615386176820423, 
      "latmin": 51.24377103968264
    }, 
    {
      "latmax": 51.2393075252693, 
      "name": "Het Schoemeken", 
      "lonmin": 4.586276698195337, 
      "sanName": "hetschoemeken", 
      "numOfAddr": 23, 
      "lonmax": 4.587536882731282, 
      "latmin": 51.23786470663424
    }, 
    {
      "latmax": 51.257109645814495, 
      "name": "Hindelaan", 
      "lonmin": 4.5504875523600585, 
      "sanName": "hindelaan", 
      "numOfAddr": 33, 
      "lonmax": 4.552885078194934, 
      "latmin": 51.25357623691449
    }, 
    {
      "latmax": 51.28936738536715, 
      "name": "Hoeklaan", 
      "lonmin": 4.61982708055505, 
      "sanName": "hoeklaan", 
      "numOfAddr": 13, 
      "lonmax": 4.621278047598007, 
      "latmin": 51.2875412111676
    }, 
    {
      "latmax": 51.23332416363754, 
      "name": "Hoevedreef", 
      "lonmin": 4.573492623122556, 
      "sanName": "hoevedreef", 
      "numOfAddr": 12, 
      "lonmax": 4.577896591454515, 
      "latmin": 51.23078892991071
    }, 
    {
      "latmax": 51.24429068755688, 
      "name": "Hofdreef", 
      "lonmin": 4.5407479557049815, 
      "sanName": "hofdreef", 
      "numOfAddr": 5, 
      "lonmax": 4.544254176758074, 
      "latmin": 51.24313420608521
    }, 
    {
      "latmax": 51.256858761429044, 
      "name": "Hofse Velden", 
      "lonmin": 4.570875366493604, 
      "sanName": "hofsevelden", 
      "numOfAddr": 10, 
      "lonmax": 4.574135006288092, 
      "latmin": 51.255120431975115
    }, 
    {
      "latmax": 51.249214667226255, 
      "name": "Hof ter Linden", 
      "lonmin": 4.554632340948965, 
      "sanName": "hofterlinden", 
      "numOfAddr": 2, 
      "lonmax": 4.557630495717882, 
      "latmin": 51.2490343594858
    }, 
    {
      "latmax": 51.26233741017991, 
      "name": "Hoge Haar", 
      "lonmin": 4.57119822112014, 
      "sanName": "hogehaar", 
      "numOfAddr": 76, 
      "lonmax": 4.579879283264922, 
      "latmin": 51.2494288937318
    }, 
    {
      "latmax": 51.233611927418885, 
      "name": "Houtlaan", 
      "lonmin": 4.54507971880039, 
      "sanName": "houtlaan", 
      "numOfAddr": 1, 
      "lonmax": 4.54507971880039, 
      "latmin": 51.233611927418885
    }, 
    {
      "latmax": 51.23590010260705, 
      "name": "Hovenierslaan", 
      "lonmin": 4.59357459088755, 
      "sanName": "hovenierslaan", 
      "numOfAddr": 9, 
      "lonmax": 4.595228660007732, 
      "latmin": 51.234166553665794
    }, 
    {
      "latmax": 51.27357535655116, 
      "name": "Huldekens", 
      "lonmin": 4.570336465392438, 
      "sanName": "huldekens", 
      "numOfAddr": 28, 
      "lonmax": 4.5727661569668685, 
      "latmin": 51.26865011462399
    }, 
    {
      "latmax": 51.242848407881226, 
      "name": "Hyacintenlaan", 
      "lonmin": 4.545778702657537, 
      "sanName": "hyacintenlaan", 
      "numOfAddr": 6, 
      "lonmax": 4.547465785438586, 
      "latmin": 51.241250824270054
    }, 
    {
      "latmax": 51.25961174961465, 
      "name": "Jachthoornlaan", 
      "lonmin": 4.551732218526082, 
      "sanName": "jachthoornlaan", 
      "numOfAddr": 60, 
      "lonmax": 4.55493786613544, 
      "latmin": 51.2532446258059
    }, 
    {
      "latmax": 51.26571006948551, 
      "name": "Jagerande", 
      "lonmin": 4.601417835910344, 
      "sanName": "jagerande", 
      "numOfAddr": 13, 
      "lonmax": 4.6042071979130235, 
      "latmin": 51.26391919277347
    }, 
    {
      "latmax": 51.25361185062737, 
      "name": "Jagersdreef", 
      "lonmin": 4.546004603022771, 
      "sanName": "jagersdreef", 
      "numOfAddr": 25, 
      "lonmax": 4.55169288779309, 
      "latmin": 51.252437502229455
    }, 
    {
      "latmax": 51.22782764370043, 
      "name": "Jagershoek", 
      "lonmin": 4.554173161215688, 
      "sanName": "jagershoek", 
      "numOfAddr": 19, 
      "lonmax": 4.559315021177741, 
      "latmin": 51.22525656720098
    }, 
    {
      "latmax": 51.28246157180815, 
      "name": "Kampdreef", 
      "lonmin": 4.612376404606806, 
      "sanName": "kampdreef", 
      "numOfAddr": 36, 
      "lonmax": 4.6153213183612944, 
      "latmin": 51.276081316403186
    }, 
    {
      "latmax": 51.242818119843314, 
      "name": "Kapelstraat", 
      "lonmin": 4.576746732815916, 
      "sanName": "kapelstraat", 
      "numOfAddr": 14, 
      "lonmax": 4.580134393445474, 
      "latmin": 51.24131620492573
    }, 
    {
      "latmax": 51.263190931187154, 
      "name": "Karekiet", 
      "lonmin": 4.588364527155393, 
      "sanName": "karekiet", 
      "numOfAddr": 55, 
      "lonmax": 4.591949625481613, 
      "latmin": 51.26012861590426
    }, 
    {
      "latmax": 51.25858337860245, 
      "name": "Karel Werrebroecklei", 
      "lonmin": 4.549783595436309, 
      "sanName": "karelwerrebroecklei", 
      "numOfAddr": 29, 
      "lonmax": 4.5528107531626905, 
      "latmin": 51.25789692259607
    }, 
    {
      "latmax": 51.23204288497703, 
      "name": "Kasteeldreef", 
      "lonmin": 4.55285416316179, 
      "sanName": "kasteeldreef", 
      "numOfAddr": 102, 
      "lonmax": 4.582468540813629, 
      "latmin": 51.22651019813387
    }, 
    {
      "latmax": 51.23034574467004, 
      "name": "Kempischveldweg", 
      "lonmin": 4.580149521659702, 
      "sanName": "kempischveldweg", 
      "numOfAddr": 38, 
      "lonmax": 4.587406578254583, 
      "latmin": 51.225206062792594
    }, 
    {
      "latmax": 51.240349760942124, 
      "name": "Kerkelei", 
      "lonmin": 4.582345175896431, 
      "sanName": "kerkelei", 
      "numOfAddr": 85, 
      "lonmax": 4.584981518090865, 
      "latmin": 51.23545343978526
    }, 
    {
      "latmax": 51.2316774909779, 
      "name": "Kerkplein", 
      "lonmin": 4.582477454544285, 
      "sanName": "kerkplein", 
      "numOfAddr": 2, 
      "lonmax": 4.582684077830861, 
      "latmin": 51.23128063847549
    }, 
    {
      "latmax": 51.26411340467803, 
      "name": "Kerkstraat", 
      "lonmin": 4.551227294277911, 
      "sanName": "kerkstraat", 
      "numOfAddr": 53, 
      "lonmax": 4.557323588889415, 
      "latmin": 51.26263943209116
    }, 
    {
      "latmax": 51.230044078309966, 
      "name": "Kleinbeekweg", 
      "lonmin": 4.583038107655533, 
      "sanName": "kleinbeekweg", 
      "numOfAddr": 16, 
      "lonmax": 4.586642063587761, 
      "latmin": 51.22765490027608
    }, 
    {
      "latmax": 51.24782556116488, 
      "name": "Kleinhoefsedreef", 
      "lonmin": 4.614551683140743, 
      "sanName": "kleinhoefsedreef", 
      "numOfAddr": 5, 
      "lonmax": 4.615690711025106, 
      "latmin": 51.246889400821985
    }, 
    {
      "latmax": 51.23833140048294, 
      "name": "Kleinveldweg", 
      "lonmin": 4.584484715727506, 
      "sanName": "kleinveldweg", 
      "numOfAddr": 25, 
      "lonmax": 4.586741066377879, 
      "latmin": 51.23771781863008
    }, 
    {
      "latmax": 51.259327669621875, 
      "name": "Klein Waterstraat", 
      "lonmin": 4.5941874412005115, 
      "sanName": "kleinwaterstraat", 
      "numOfAddr": 50, 
      "lonmax": 4.602672489312206, 
      "latmin": 51.25112753126462
    }, 
    {
      "latmax": 51.240197593770176, 
      "name": "Kluisdreef", 
      "lonmin": 4.563092077938036, 
      "sanName": "kluisdreef", 
      "numOfAddr": 18, 
      "lonmax": 4.5662950479275395, 
      "latmin": 51.23578069121933
    }, 
    {
      "latmax": 51.29178955888637, 
      "name": "Koeistraat", 
      "lonmin": 4.570584285025165, 
      "sanName": "koeistraat", 
      "numOfAddr": 4, 
      "lonmax": 4.586704925382122, 
      "latmin": 51.28081848923451
    }, 
    {
      "latmax": 51.24140695270494, 
      "name": "Koekoeksdreef", 
      "lonmin": 4.614929714943702, 
      "sanName": "koekoeksdreef", 
      "numOfAddr": 10, 
      "lonmax": 4.618980938118957, 
      "latmin": 51.23981697610408
    }, 
    {
      "latmax": 51.24436109173404, 
      "name": "Koeputten", 
      "lonmin": 4.591699528200648, 
      "sanName": "koeputten", 
      "numOfAddr": 34, 
      "lonmax": 4.5965738609246145, 
      "latmin": 51.242361695017
    }, 
    {
      "latmax": 51.23614115590245, 
      "name": "Konijnenbosweg", 
      "lonmin": 4.604440861820694, 
      "sanName": "konijnenbosweg", 
      "numOfAddr": 20, 
      "lonmax": 4.607536653594558, 
      "latmin": 51.23327400971442
    }, 
    {
      "latmax": 51.2299217010104, 
      "name": "Kortedreef", 
      "lonmin": 4.552178619959137, 
      "sanName": "kortedreef", 
      "numOfAddr": 11, 
      "lonmax": 4.554061710286085, 
      "latmin": 51.229110965076956
    }, 
    {
      "latmax": 51.24119789779803, 
      "name": "Korte Lindenstraat", 
      "lonmin": 4.588877853582287, 
      "sanName": "kortelindenstraat", 
      "numOfAddr": 6, 
      "lonmax": 4.5896859094903615, 
      "latmin": 51.241076538186626
    }, 
    {
      "latmax": 51.24370593488124, 
      "name": "Kortvoortbaan", 
      "lonmin": 4.556096083121847, 
      "sanName": "kortvoortbaan", 
      "numOfAddr": 33, 
      "lonmax": 4.570181495583358, 
      "latmin": 51.23791527128249
    }, 
    {
      "latmax": 51.29450292163829, 
      "name": "Kotsbosweg", 
      "lonmin": 4.622630944584053, 
      "sanName": "kotsbosweg", 
      "numOfAddr": 51, 
      "lonmax": 4.627904075127187, 
      "latmin": 51.29108171796672
    }, 
    {
      "latmax": 51.287389303787336, 
      "name": "Kotseheide", 
      "lonmin": 4.615511367541503, 
      "sanName": "kotseheide", 
      "numOfAddr": 36, 
      "lonmax": 4.625972132682766, 
      "latmin": 51.2860420495314
    }, 
    {
      "latmax": 51.278378255145775, 
      "name": "Kouwenbergdreef", 
      "lonmin": 4.6096617294457705, 
      "sanName": "kouwenbergdreef", 
      "numOfAddr": 23, 
      "lonmax": 4.611639919999812, 
      "latmin": 51.273310318502425
    }, 
    {
      "latmax": 51.24025760096206, 
      "name": "Kraanstraat", 
      "lonmin": 4.587858520080161, 
      "sanName": "kraanstraat", 
      "numOfAddr": 30, 
      "lonmax": 4.589694876607942, 
      "latmin": 51.23809104834172
    }, 
    {
      "latmax": 51.23962961335315, 
      "name": "Kraanweide", 
      "lonmin": 4.5891660121183495, 
      "sanName": "kraanweide", 
      "numOfAddr": 9, 
      "lonmax": 4.590245235459817, 
      "latmin": 51.23897716425579
    }, 
    {
      "latmax": 51.27179209719851, 
      "name": "Kroondreef", 
      "lonmin": 4.61261862110578, 
      "sanName": "kroondreef", 
      "numOfAddr": 22, 
      "lonmax": 4.618816167979032, 
      "latmin": 51.27075020361289
    }, 
    {
      "latmax": 51.240380581930495, 
      "name": "Kwekerijstraat", 
      "lonmin": 4.585204434165862, 
      "sanName": "kwekerijstraat", 
      "numOfAddr": 28, 
      "lonmax": 4.586819280899665, 
      "latmin": 51.238242837616426
    }, 
    {
      "latmax": 51.27390737227735, 
      "name": "Lange Repeldreef", 
      "lonmin": 4.607195570325073, 
      "sanName": "langerepeldreef", 
      "numOfAddr": 11, 
      "lonmax": 4.609848253781758, 
      "latmin": 51.27199081058936
    }, 
    {
      "latmax": 51.251531978335166, 
      "name": "Leeuwerikendreef", 
      "lonmin": 4.611500675324277, 
      "sanName": "leeuwerikendreef", 
      "numOfAddr": 16, 
      "lonmax": 4.61467612195959, 
      "latmin": 51.24968681366321
    }, 
    {
      "latmax": 51.236034644452594, 
      "name": "Leeuwkensweg", 
      "lonmin": 4.598717192058687, 
      "sanName": "leeuwkensweg", 
      "numOfAddr": 19, 
      "lonmax": 4.604415310454705, 
      "latmin": 51.227899775383975
    }, 
    {
      "latmax": 51.23097063069218, 
      "name": "Lemmekensbaan", 
      "lonmin": 4.608257670481954, 
      "sanName": "lemmekensbaan", 
      "numOfAddr": 4, 
      "lonmax": 4.6101040720426285, 
      "latmin": 51.22966289777928
    }, 
    {
      "latmax": 51.23723118651304, 
      "name": "Leopold Gabri\u0089lslaan", 
      "lonmin": 4.581460051869463, 
      "sanName": "leopoldgabrilslaan", 
      "numOfAddr": 15, 
      "lonmax": 4.583300372958667, 
      "latmin": 51.23671112970141
    }, 
    {
      "latmax": 51.24393188181826, 
      "name": "Liersebaan", 
      "lonmin": 4.5886864852409115, 
      "sanName": "liersebaan", 
      "numOfAddr": 97, 
      "lonmax": 4.592499841398638, 
      "latmin": 51.23214132247613
    }, 
    {
      "latmax": 51.235216179791855, 
      "name": "Lijsterbeslaan", 
      "lonmin": 4.555708865913173, 
      "sanName": "lijsterbeslaan", 
      "numOfAddr": 7, 
      "lonmax": 4.557397382486324, 
      "latmin": 51.23419614096872
    }, 
    {
      "latmax": 51.2542380840373, 
      "name": "Lijsterdreef", 
      "lonmin": 4.552463150618228, 
      "sanName": "lijsterdreef", 
      "numOfAddr": 33, 
      "lonmax": 4.558459200554084, 
      "latmin": 51.25338308910001
    }, 
    {
      "latmax": 51.24110897426842, 
      "name": "Lindenstraat", 
      "lonmin": 4.583677973511019, 
      "sanName": "lindenstraat", 
      "numOfAddr": 34, 
      "lonmax": 4.589367036010008, 
      "latmin": 51.2397107522554
    }, 
    {
      "latmax": 51.28414675789654, 
      "name": "Lorkendreef", 
      "lonmin": 4.618119464547026, 
      "sanName": "lorkendreef", 
      "numOfAddr": 10, 
      "lonmax": 4.620350725957505, 
      "latmin": 51.28222130913761
    }, 
    {
      "latmax": 51.24652544546153, 
      "name": "Louis Mari\u0089nlaan", 
      "lonmin": 4.594857259534939, 
      "sanName": "louismarinlaan", 
      "numOfAddr": 33, 
      "lonmax": 4.599518030137816, 
      "latmin": 51.244516650805366
    }, 
    {
      "latmax": 51.26281918617151, 
      "name": "Loze Visser", 
      "lonmin": 4.587374227498343, 
      "sanName": "lozevisser", 
      "numOfAddr": 25, 
      "lonmax": 4.590862720528242, 
      "latmin": 51.25986532829991
    }, 
    {
      "latmax": 51.27477868384977, 
      "name": "Maretak", 
      "lonmin": 4.566749933214934, 
      "sanName": "maretak", 
      "numOfAddr": 33, 
      "lonmax": 4.5683359215416175, 
      "latmin": 51.269363393914084
    }, 
    {
      "latmax": 51.23500041786764, 
      "name": "Mastendreef", 
      "lonmin": 4.568111146795307, 
      "sanName": "mastendreef", 
      "numOfAddr": 21, 
      "lonmax": 4.570585400916829, 
      "latmin": 51.22962281000688
    }, 
    {
      "latmax": 51.28759367207421, 
      "name": "Mathildedreef", 
      "lonmin": 4.601538588986909, 
      "sanName": "mathildedreef", 
      "numOfAddr": 3, 
      "lonmax": 4.603138616344284, 
      "latmin": 51.28703408717161
    }, 
    {
      "latmax": 51.25031579727485, 
      "name": "Mereldreef", 
      "lonmin": 4.614865349812449, 
      "sanName": "mereldreef", 
      "numOfAddr": 1, 
      "lonmax": 4.614865349812449, 
      "latmin": 51.25031579727485
    }, 
    {
      "latmax": 51.2727655057522, 
      "name": "Midzomer", 
      "lonmin": 4.5640811530842385, 
      "sanName": "midzomer", 
      "numOfAddr": 12, 
      "lonmax": 4.565037305511723, 
      "latmin": 51.270852126656585
    }, 
    {
      "latmax": 51.261163035349654, 
      "name": "Minnestreel", 
      "lonmin": 4.5740088260028715, 
      "sanName": "minnestreel", 
      "numOfAddr": 11, 
      "lonmax": 4.576612640202632, 
      "latmin": 51.26041077533553
    }, 
    {
      "latmax": 51.24697241466591, 
      "name": "Missionarislei", 
      "lonmin": 4.565965645932423, 
      "sanName": "missionarislei", 
      "numOfAddr": 58, 
      "lonmax": 4.571832305832162, 
      "latmin": 51.24049541555949
    }, 
    {
      "latmax": 51.2560823652155, 
      "name": "Moerhoflaan", 
      "lonmin": 4.583342258298804, 
      "sanName": "moerhoflaan", 
      "numOfAddr": 57, 
      "lonmax": 4.591399628005226, 
      "latmin": 51.24600575011081
    }, 
    {
      "latmax": 51.272632581956806, 
      "name": "Moerstraat", 
      "lonmin": 4.551035511362801, 
      "sanName": "moerstraat", 
      "numOfAddr": 55, 
      "lonmax": 4.562595329552514, 
      "latmin": 51.263572121093056
    }, 
    {
      "latmax": 51.26153008529746, 
      "name": "Molenakker", 
      "lonmin": 4.560692032184555, 
      "sanName": "molenakker", 
      "numOfAddr": 12, 
      "lonmax": 4.564884791249915, 
      "latmin": 51.257366872521544
    }, 
    {
      "latmax": 51.24636543575214, 
      "name": "Molenbeemd", 
      "lonmin": 4.57488608590167, 
      "sanName": "molenbeemd", 
      "numOfAddr": 15, 
      "lonmax": 4.576410833278357, 
      "latmin": 51.24515639218058
    }, 
    {
      "latmax": 51.24777994232678, 
      "name": "Molenstraat", 
      "lonmin": 4.576147015882104, 
      "sanName": "molenstraat", 
      "numOfAddr": 131, 
      "lonmax": 4.582264519859089, 
      "latmin": 51.24132608105114
    }, 
    {
      "latmax": 51.27578580952589, 
      "name": "Morgenrood", 
      "lonmin": 4.565432242408869, 
      "sanName": "morgenrood", 
      "numOfAddr": 26, 
      "lonmax": 4.567737431252731, 
      "latmin": 51.27228461983177
    }, 
    {
      "latmax": 51.26520921553931, 
      "name": "Mosthoevendreef", 
      "lonmin": 4.609889728850917, 
      "sanName": "mosthoevendreef", 
      "numOfAddr": 14, 
      "lonmax": 4.613810930884386, 
      "latmin": 51.263499032077846
    }, 
    {
      "latmax": 51.245111972199794, 
      "name": "Narcissenlaan", 
      "lonmin": 4.542334049776389, 
      "sanName": "narcissenlaan", 
      "numOfAddr": 17, 
      "lonmax": 4.550397442567279, 
      "latmin": 51.24263491516131
    }, 
    {
      "latmax": 51.27565238419596, 
      "name": "Nazarethdreef", 
      "lonmin": 4.618408503052549, 
      "sanName": "nazarethdreef", 
      "numOfAddr": 15, 
      "lonmax": 4.6203852525721505, 
      "latmin": 51.27321463827581
    }, 
    {
      "latmax": 51.28288709894419, 
      "name": "Nieuwgoeddreef", 
      "lonmin": 4.569226624062547, 
      "sanName": "nieuwgoeddreef", 
      "numOfAddr": 1, 
      "lonmax": 4.569226624062547, 
      "latmin": 51.28288709894419
    }, 
    {
      "latmax": 51.23693456031979, 
      "name": "Nieuwstraat", 
      "lonmin": 4.578450570516769, 
      "sanName": "nieuwstraat", 
      "numOfAddr": 20, 
      "lonmax": 4.579612006163526, 
      "latmin": 51.23566969333142
    }, 
    {
      "latmax": 51.26170544986467, 
      "name": "Noorderlaan", 
      "lonmin": 4.586802213499553, 
      "sanName": "noorderlaan", 
      "numOfAddr": 20, 
      "lonmax": 4.599919319412222, 
      "latmin": 51.25929441345299
    }, 
    {
      "latmax": 51.23323910929846, 
      "name": "Oelegemsteenweg", 
      "lonmin": 4.588067215942122, 
      "sanName": "oelegemsteenweg", 
      "numOfAddr": 49, 
      "lonmax": 4.597098243158096, 
      "latmin": 51.2269048866783
    }, 
    {
      "latmax": 51.24506492959679, 
      "name": "Ommegangstraat", 
      "lonmin": 4.579710468112253, 
      "sanName": "ommegangstraat", 
      "numOfAddr": 25, 
      "lonmax": 4.581639930107203, 
      "latmin": 51.24363959360344
    }, 
    {
      "latmax": 51.26507204711394, 
      "name": "Oudaen", 
      "lonmin": 4.553278845588451, 
      "sanName": "oudaen", 
      "numOfAddr": 5, 
      "lonmax": 4.554303868669595, 
      "latmin": 51.26344887987275
    }, 
    {
      "latmax": 51.2534260264798, 
      "name": "Oudebaan", 
      "lonmin": 4.582415617682389, 
      "sanName": "oudebaan", 
      "numOfAddr": 160, 
      "lonmax": 4.611787121493709, 
      "latmin": 51.240941502251445
    }, 
    {
      "latmax": 51.25926131697557, 
      "name": "Parklaan", 
      "lonmin": 4.561193648525836, 
      "sanName": "parklaan", 
      "numOfAddr": 46, 
      "lonmax": 4.564636979611683, 
      "latmin": 51.255308924450844
    }, 
    {
      "latmax": 51.23126019509866, 
      "name": "Pastorijdreef", 
      "lonmin": 4.581964792531896, 
      "sanName": "pastorijdreef", 
      "numOfAddr": 15, 
      "lonmax": 4.586339993750319, 
      "latmin": 51.22980919405071
    }, 
    {
      "latmax": 51.249095820953656, 
      "name": "Pater Kenislaan", 
      "lonmin": 4.5734108843941845, 
      "sanName": "paterkenislaan", 
      "numOfAddr": 37, 
      "lonmax": 4.577194261816864, 
      "latmin": 51.246091170558906
    }, 
    {
      "latmax": 51.24255920343147, 
      "name": "Pater Nuyenslaan", 
      "lonmin": 4.539706842882847, 
      "sanName": "paternuyenslaan", 
      "numOfAddr": 45, 
      "lonmax": 4.555963955040592, 
      "latmin": 51.23242220352143
    }, 
    {
      "latmax": 51.25521005150621, 
      "name": "Patrijzenlaan", 
      "lonmin": 4.553060832770169, 
      "sanName": "patrijzenlaan", 
      "numOfAddr": 29, 
      "lonmax": 4.55840505434973, 
      "latmin": 51.25434153889431
    }, 
    {
      "latmax": 51.25245068571486, 
      "name": "Paviljoendreef", 
      "lonmin": 4.566646818212447, 
      "sanName": "paviljoendreef", 
      "numOfAddr": 28, 
      "lonmax": 4.568385195257092, 
      "latmin": 51.24477339368555
    }, 
    {
      "latmax": 51.2369049529755, 
      "name": "Petrus Bogaertslaan", 
      "lonmin": 4.5771969199133675, 
      "sanName": "petrusbogaertslaan", 
      "numOfAddr": 38, 
      "lonmax": 4.583653503646224, 
      "latmin": 51.23508246946247
    }, 
    {
      "latmax": 51.253778411161925, 
      "name": "Philippedreef", 
      "lonmin": 4.569623499600304, 
      "sanName": "philippedreef", 
      "numOfAddr": 22, 
      "lonmax": 4.57123461155225, 
      "latmin": 51.25022209896948
    }, 
    {
      "latmax": 51.24914412220823, 
      "name": "Picardi\u0089laan", 
      "lonmin": 4.578212811722704, 
      "sanName": "picardilaan", 
      "numOfAddr": 71, 
      "lonmax": 4.583897173554997, 
      "latmin": 51.242417972240254
    }, 
    {
      "latmax": 51.25347217778973, 
      "name": "Prins Boudewijnlaan", 
      "lonmin": 4.590231805619934, 
      "sanName": "prinsboudewijnlaan", 
      "numOfAddr": 53, 
      "lonmax": 4.598372964783701, 
      "latmin": 51.247560691578926
    }, 
    {
      "latmax": 51.23704973645161, 
      "name": "Putseheide", 
      "lonmin": 4.594464509454798, 
      "sanName": "putseheide", 
      "numOfAddr": 16, 
      "lonmax": 4.603470914368053, 
      "latmin": 51.23076547993735
    }, 
    {
      "latmax": 51.23389131559918, 
      "name": "Puttenhoflaan", 
      "lonmin": 4.584071166305715, 
      "sanName": "puttenhoflaan", 
      "numOfAddr": 29, 
      "lonmax": 4.58791930442218, 
      "latmin": 51.23172595793338
    }, 
    {
      "latmax": 51.257134517534446, 
      "name": "Reeboklaan", 
      "lonmin": 4.5504598552310815, 
      "sanName": "reeboklaan", 
      "numOfAddr": 15, 
      "lonmax": 4.551656462594275, 
      "latmin": 51.25602611522539
    }, 
    {
      "latmax": 51.266690172759645, 
      "name": "Reeweide", 
      "lonmin": 4.598871364447218, 
      "sanName": "reeweide", 
      "numOfAddr": 12, 
      "lonmax": 4.601167861232336, 
      "latmin": 51.265339747278716
    }, 
    {
      "latmax": 51.250794824949246, 
      "name": "Reigersdreef", 
      "lonmin": 4.6101249994201385, 
      "sanName": "reigersdreef", 
      "numOfAddr": 3, 
      "lonmax": 4.6110781908696366, 
      "latmin": 51.25041954219159
    }, 
    {
      "latmax": 51.23461239698304, 
      "name": "Renier Sniederspad", 
      "lonmin": 4.58990624412987, 
      "sanName": "reniersniederspad", 
      "numOfAddr": 28, 
      "lonmax": 4.6098654018911445, 
      "latmin": 51.23140798767419
    }, 
    {
      "latmax": 51.22858335116185, 
      "name": "Rerum Novarumlaan", 
      "lonmin": 4.551608326301917, 
      "sanName": "rerumnovarumlaan", 
      "numOfAddr": 7, 
      "lonmax": 4.552845925573849, 
      "latmin": 51.22793055651668
    }, 
    {
      "latmax": 51.2607421235354, 
      "name": "Riemstraat", 
      "lonmin": 4.59839012037435, 
      "sanName": "riemstraat", 
      "numOfAddr": 49, 
      "lonmax": 4.607453192481088, 
      "latmin": 51.25362686480652
    }, 
    {
      "latmax": 51.240692568163894, 
      "name": "Rijsblokstraat", 
      "lonmin": 4.579525637262076, 
      "sanName": "rijsblokstraat", 
      "numOfAddr": 16, 
      "lonmax": 4.580271341089829, 
      "latmin": 51.23965110925566
    }, 
    {
      "latmax": 51.27630343662007, 
      "name": "Ringdreef", 
      "lonmin": 4.605052953176231, 
      "sanName": "ringdreef", 
      "numOfAddr": 31, 
      "lonmax": 4.61301206285078, 
      "latmin": 51.27206165111862
    }, 
    {
      "latmax": 51.291551507749965, 
      "name": "Rinkvenlaan", 
      "lonmin": 4.617900066619306, 
      "sanName": "rinkvenlaan", 
      "numOfAddr": 9, 
      "lonmax": 4.622712387285851, 
      "latmin": 51.29076748136628
    }, 
    {
      "latmax": 51.290278292613664, 
      "name": "Rinkvenseheide", 
      "lonmin": 4.601790272151977, 
      "sanName": "rinkvenseheide", 
      "numOfAddr": 21, 
      "lonmax": 4.602955329905287, 
      "latmin": 51.287520949655026
    }, 
    {
      "latmax": 51.225433272052896, 
      "name": "Rodedreef", 
      "lonmin": 4.550096081559369, 
      "sanName": "rodedreef", 
      "numOfAddr": 32, 
      "lonmax": 4.567293758876432, 
      "latmin": 51.22342992092884
    }, 
    {
      "latmax": 51.228753284770534, 
      "name": "Rozenhoek", 
      "lonmin": 4.5900551742815745, 
      "sanName": "rozenhoek", 
      "numOfAddr": 6, 
      "lonmax": 4.5927940313491895, 
      "latmin": 51.226879885104616
    }, 
    {
      "latmax": 51.24078273199552, 
      "name": "Rozenlaan", 
      "lonmin": 4.549650652817505, 
      "sanName": "rozenlaan", 
      "numOfAddr": 50, 
      "lonmax": 4.563691284058354, 
      "latmin": 51.236294426310046
    }, 
    {
      "latmax": 51.22877286443443, 
      "name": "Ruitersdreef", 
      "lonmin": 4.550867888899248, 
      "sanName": "ruitersdreef", 
      "numOfAddr": 21, 
      "lonmax": 4.554450878681004, 
      "latmin": 51.22646609032978
    }, 
    {
      "latmax": 51.263570415711, 
      "name": "Salamander", 
      "lonmin": 4.592607352082955, 
      "sanName": "salamander", 
      "numOfAddr": 7, 
      "lonmax": 4.593653412397686, 
      "latmin": 51.262343889476455
    }, 
    {
      "latmax": 51.240352460342436, 
      "name": "Schaarblok", 
      "lonmin": 4.616806843782829, 
      "sanName": "schaarblok", 
      "numOfAddr": 3, 
      "lonmax": 4.618155303042899, 
      "latmin": 51.23977412125326
    }, 
    {
      "latmax": 51.23171689391956, 
      "name": "Schali\u0089nhoefdreef", 
      "lonmin": 4.554246006187926, 
      "sanName": "schalinhoefdreef", 
      "numOfAddr": 66, 
      "lonmax": 4.558526982741486, 
      "latmin": 51.229103054108236
    }, 
    {
      "latmax": 51.25918398059461, 
      "name": "Schalmei", 
      "lonmin": 4.577978385243924, 
      "sanName": "schalmei", 
      "numOfAddr": 45, 
      "lonmax": 4.5837996212795655, 
      "latmin": 51.25662782512332
    }, 
    {
      "latmax": 51.24553848051246, 
      "name": "Schanslaan", 
      "lonmin": 4.597130109737008, 
      "sanName": "schanslaan", 
      "numOfAddr": 13, 
      "lonmax": 4.600051166608024, 
      "latmin": 51.24290109128071
    }, 
    {
      "latmax": 51.270521933690816, 
      "name": "Schildedreef", 
      "lonmin": 4.601277951657089, 
      "sanName": "schildedreef", 
      "numOfAddr": 42, 
      "lonmax": 4.611129056745978, 
      "latmin": 51.2616541036696
    }, 
    {
      "latmax": 51.25462892755821, 
      "name": "Schildewandelpad", 
      "lonmin": 4.569954544836807, 
      "sanName": "schildewandelpad", 
      "numOfAddr": 3, 
      "lonmax": 4.571185708044528, 
      "latmin": 51.254255683263814
    }, 
    {
      "latmax": 51.238773689931314, 
      "name": "Schoolstraat", 
      "lonmin": 4.578983770799035, 
      "sanName": "schoolstraat", 
      "numOfAddr": 75, 
      "lonmax": 4.583081629330375, 
      "latmin": 51.23260526795667
    }, 
    {
      "latmax": 51.264421899185855, 
      "name": "Schutbocht", 
      "lonmin": 4.597839419515304, 
      "sanName": "schutbocht", 
      "numOfAddr": 8, 
      "lonmax": 4.600479495342458, 
      "latmin": 51.262100220063346
    }, 
    {
      "latmax": 51.23872882565034, 
      "name": "Seringenlaan", 
      "lonmin": 4.554836793829984, 
      "sanName": "seringenlaan", 
      "numOfAddr": 18, 
      "lonmax": 4.560774259183499, 
      "latmin": 51.234146451592466
    }, 
    {
      "latmax": 51.24834643554852, 
      "name": "Silvesterlaan", 
      "lonmin": 4.5606612612190105, 
      "sanName": "silvesterlaan", 
      "numOfAddr": 22, 
      "lonmax": 4.56524859120555, 
      "latmin": 51.245096563746785
    }, 
    {
      "latmax": 51.257419917821956, 
      "name": "Sint Hubertuslaan", 
      "lonmin": 4.557360841751349, 
      "sanName": "sinthubertuslaan", 
      "numOfAddr": 38, 
      "lonmax": 4.559746221865239, 
      "latmin": 51.25292446126469
    }, 
    {
      "latmax": 51.28401539115575, 
      "name": "Sint Jobsteenweg", 
      "lonmin": 4.55798080575639, 
      "sanName": "sintjobsteenweg", 
      "numOfAddr": 80, 
      "lonmax": 4.576792094090082, 
      "latmin": 51.26113478951425
    }, 
    {
      "latmax": 51.25369430834523, 
      "name": "Sint Willebrorduslaan", 
      "lonmin": 4.589145054162531, 
      "sanName": "sintwillebrorduslaan", 
      "numOfAddr": 5, 
      "lonmax": 4.589851347689133, 
      "latmin": 51.25228396126079
    }, 
    {
      "latmax": 51.25309503933783, 
      "name": "Smisheide", 
      "lonmin": 4.539151168534506, 
      "sanName": "smisheide", 
      "numOfAddr": 39, 
      "lonmax": 4.543372341231655, 
      "latmin": 51.25192298281395
    }, 
    {
      "latmax": 51.28196694866645, 
      "name": "Sparrendreef", 
      "lonmin": 4.622873813865831, 
      "sanName": "sparrendreef", 
      "numOfAddr": 12, 
      "lonmax": 4.6259242673294825, 
      "latmin": 51.27941900121905
    }, 
    {
      "latmax": 51.231789511497624, 
      "name": "Speelbosweg", 
      "lonmin": 4.605706938977591, 
      "sanName": "speelbosweg", 
      "numOfAddr": 10, 
      "lonmax": 4.607392851579149, 
      "latmin": 51.23019532631283
    }, 
    {
      "latmax": 51.2307523729684, 
      "name": "Speelhofdreef", 
      "lonmin": 4.5705216172852134, 
      "sanName": "speelhofdreef", 
      "numOfAddr": 36, 
      "lonmax": 4.579952517355194, 
      "latmin": 51.226170881903954
    }, 
    {
      "latmax": 51.233619504912966, 
      "name": "Spreeuwenberglaan", 
      "lonmin": 4.588496917568135, 
      "sanName": "spreeuwenberglaan", 
      "numOfAddr": 9, 
      "lonmax": 4.589370691583212, 
      "latmin": 51.233318219916235
    }, 
    {
      "latmax": 51.27439051130212, 
      "name": "Steynhoefsedreef", 
      "lonmin": 4.612749506688895, 
      "sanName": "steynhoefsedreef", 
      "numOfAddr": 25, 
      "lonmax": 4.6189317410816795, 
      "latmin": 51.27161817655436
    }, 
    {
      "latmax": 51.22265412842598, 
      "name": "Stokerijstraat", 
      "lonmin": 4.547347514483203, 
      "sanName": "stokerijstraat", 
      "numOfAddr": 3, 
      "lonmax": 4.549011334250895, 
      "latmin": 51.22123958902755
    }, 
    {
      "latmax": 51.26241894047442, 
      "name": "Strikkelaar", 
      "lonmin": 4.603599509898911, 
      "sanName": "strikkelaar", 
      "numOfAddr": 11, 
      "lonmax": 4.605668724871948, 
      "latmin": 51.26104039548352
    }, 
    {
      "latmax": 51.26075042048889, 
      "name": "Swaenebeecklaan", 
      "lonmin": 4.578020734686593, 
      "sanName": "swaenebeecklaan", 
      "numOfAddr": 43, 
      "lonmax": 4.584366667019584, 
      "latmin": 51.25931312572166
    }, 
    {
      "latmax": 51.23570703438, 
      "name": "Ter Maelenbaan", 
      "lonmin": 4.5705746673959515, 
      "sanName": "termaelenbaan", 
      "numOfAddr": 30, 
      "lonmax": 4.5755736025474905, 
      "latmin": 51.23152810678469
    }, 
    {
      "latmax": 51.23492988237858, 
      "name": "Terputtenlaan", 
      "lonmin": 4.585546001432633, 
      "sanName": "terputtenlaan", 
      "numOfAddr": 17, 
      "lonmax": 4.585918544019244, 
      "latmin": 51.23292058763625
    }, 
    {
      "latmax": 51.261297985754474, 
      "name": "Thuysaerd", 
      "lonmin": 4.54789835691157, 
      "sanName": "thuysaerd", 
      "numOfAddr": 5, 
      "lonmax": 4.549317913996257, 
      "latmin": 51.26064683716821
    }, 
    {
      "latmax": 51.27834592392079, 
      "name": "Torfheidedreef", 
      "lonmin": 4.60535935074183, 
      "sanName": "torfheidedreef", 
      "numOfAddr": 25, 
      "lonmax": 4.608996253466255, 
      "latmin": 51.275392801245644
    }, 
    {
      "latmax": 51.26795941487667, 
      "name": "Torfhoeken", 
      "lonmin": 4.608959817048809, 
      "sanName": "torfhoeken", 
      "numOfAddr": 31, 
      "lonmax": 4.615933999344157, 
      "latmin": 51.26466569341605
    }, 
    {
      "latmax": 51.252354843865824, 
      "name": "Treemblok", 
      "lonmin": 4.54120551010385, 
      "sanName": "treemblok", 
      "numOfAddr": 32, 
      "lonmax": 4.54498913437772, 
      "latmin": 51.2508652031127
    }, 
    {
      "latmax": 51.24354986787603, 
      "name": "Tulpenlaan", 
      "lonmin": 4.54721541409408, 
      "sanName": "tulpenlaan", 
      "numOfAddr": 19, 
      "lonmax": 4.553774361039741, 
      "latmin": 51.240800293944254
    }, 
    {
      "latmax": 51.25314365630699, 
      "name": "Turnhoutsebaan", 
      "lonmin": 4.54496348095209, 
      "sanName": "turnhoutsebaan", 
      "numOfAddr": 412, 
      "lonmax": 4.614443109875361, 
      "latmin": 51.22920267450959
    }, 
    {
      "latmax": 51.24613847133322, 
      "name": "Uilendreef", 
      "lonmin": 4.615551691893092, 
      "sanName": "uilendreef", 
      "numOfAddr": 1, 
      "lonmax": 4.615551691893092, 
      "latmin": 51.24613847133322
    }, 
    {
      "latmax": 51.25452221695923, 
      "name": "Valkenlaan", 
      "lonmin": 4.549134205328847, 
      "sanName": "valkenlaan", 
      "numOfAddr": 14, 
      "lonmax": 4.550218561355403, 
      "latmin": 51.25342601148839
    }, 
    {
      "latmax": 51.23722614740424, 
      "name": "van de Wervelaan", 
      "lonmin": 4.5741126375020915, 
      "sanName": "vandewervelaan", 
      "numOfAddr": 71, 
      "lonmax": 4.5842531813819525, 
      "latmin": 51.23391859787961
    }, 
    {
      "latmax": 51.2619899073238, 
      "name": "Veldlei", 
      "lonmin": 4.550654045158776, 
      "sanName": "veldlei", 
      "numOfAddr": 84, 
      "lonmax": 4.558245950475713, 
      "latmin": 51.259846525783
    }, 
    {
      "latmax": 51.24273814079054, 
      "name": "Veldvenne", 
      "lonmin": 4.589456429344751, 
      "sanName": "veldvenne", 
      "numOfAddr": 22, 
      "lonmax": 4.590449814643599, 
      "latmin": 51.24134622657045
    }, 
    {
      "latmax": 51.23385960716632, 
      "name": "Vennebosstraat", 
      "lonmin": 4.577862712029262, 
      "sanName": "vennebosstraat", 
      "numOfAddr": 26, 
      "lonmax": 4.5798639582711544, 
      "latmin": 51.23164768498358
    }, 
    {
      "latmax": 51.24709562017704, 
      "name": "Verbindingsstraat", 
      "lonmin": 4.5960354457397585, 
      "sanName": "verbindingsstraat", 
      "numOfAddr": 6, 
      "lonmax": 4.597166078692084, 
      "latmin": 51.24650788389056
    }, 
    {
      "latmax": 51.244242574778504, 
      "name": "Victor Frislei", 
      "lonmin": 4.532665141314028, 
      "sanName": "victorfrislei", 
      "numOfAddr": 16, 
      "lonmax": 4.538143311585387, 
      "latmin": 51.24180692206047
    }, 
    {
      "latmax": 51.29516191709824, 
      "name": "Vijverlaan", 
      "lonmin": 4.618290903256322, 
      "sanName": "vijverlaan", 
      "numOfAddr": 69, 
      "lonmax": 4.623747156002994, 
      "latmin": 51.287793739514626
    }, 
    {
      "latmax": 51.257890260855056, 
      "name": "Vinkenlaan", 
      "lonmin": 4.5484466052707155, 
      "sanName": "vinkenlaan", 
      "numOfAddr": 17, 
      "lonmax": 4.550220598701256, 
      "latmin": 51.25642902962367
    }, 
    {
      "latmax": 51.24378391893196, 
      "name": "Vloeyenbergdreef", 
      "lonmin": 4.5690777246784, 
      "sanName": "vloeyenbergdreef", 
      "numOfAddr": 33, 
      "lonmax": 4.574249213160932, 
      "latmin": 51.238292614088095
    }, 
    {
      "latmax": 51.241225701802605, 
      "name": "Vogelsanck", 
      "lonmin": 4.539156731234286, 
      "sanName": "vogelsanck", 
      "numOfAddr": 16, 
      "lonmax": 4.544675654371895, 
      "latmin": 51.23972531340457
    }, 
    {
      "latmax": 51.2954200284778, 
      "name": "Vraagheideweg", 
      "lonmin": 4.616138029544812, 
      "sanName": "vraagheideweg", 
      "numOfAddr": 60, 
      "lonmax": 4.621975728938372, 
      "latmin": 51.28750454196233
    }, 
    {
      "latmax": 51.23791488178937, 
      "name": "Waterlaatstraat", 
      "lonmin": 4.58468161800253, 
      "sanName": "waterlaatstraat", 
      "numOfAddr": 66, 
      "lonmax": 4.589070359520843, 
      "latmin": 51.236642537574475
    }, 
    {
      "latmax": 51.29254791167029, 
      "name": "Waterstraat", 
      "lonmin": 4.607152718364848, 
      "sanName": "waterstraat", 
      "numOfAddr": 123, 
      "lonmax": 4.62914172064459, 
      "latmin": 51.25144058624815
    }, 
    {
      "latmax": 51.2631432395431, 
      "name": "Wijnegemsteenweg", 
      "lonmin": 4.538049371247398, 
      "sanName": "wijnegemsteenweg", 
      "numOfAddr": 180, 
      "lonmax": 4.5512627059478, 
      "latmin": 51.237572084807
    }, 
    {
      "latmax": 51.24379568301009, 
      "name": "Wisselstraat", 
      "lonmin": 4.586859522890693, 
      "sanName": "wisselstraat", 
      "numOfAddr": 19, 
      "lonmax": 4.587691784932361, 
      "latmin": 51.242831981141435
    }, 
    {
      "latmax": 51.22634454976296, 
      "name": "Wittebrug", 
      "lonmin": 4.562698650147728, 
      "sanName": "wittebrug", 
      "numOfAddr": 6, 
      "lonmax": 4.563787489356276, 
      "latmin": 51.224985031454494
    }, 
    {
      "latmax": 51.273269229119485, 
      "name": "Wouwersstraat", 
      "lonmin": 4.545202129416253, 
      "sanName": "wouwersstraat", 
      "numOfAddr": 7, 
      "lonmax": 4.547082524054772, 
      "latmin": 51.26580566287481
    }, 
    {
      "latmax": 51.239006655713666, 
      "name": "Zandhovensebaan", 
      "lonmin": 4.594663170529435, 
      "sanName": "zandhovensebaan", 
      "numOfAddr": 40, 
      "lonmax": 4.607274517101381, 
      "latmin": 51.23553592793873
    }, 
    {
      "latmax": 51.28534360528854, 
      "name": "Zandweg", 
      "lonmin": 4.623540905905173, 
      "sanName": "zandweg", 
      "numOfAddr": 4, 
      "lonmax": 4.6241228587775165, 
      "latmin": 51.28404796763373
    }, 
    {
      "latmax": 51.259900763459775, 
      "name": "Zangerhey", 
      "lonmin": 4.574547494906876, 
      "sanName": "zangerhey", 
      "numOfAddr": 8, 
      "lonmax": 4.57710709574599, 
      "latmin": 51.25909217773379
    }, 
    {
      "latmax": 51.26407920435727, 
      "name": "Zilverreiger", 
      "lonmin": 4.588202772837141, 
      "sanName": "zilverreiger", 
      "numOfAddr": 58, 
      "lonmax": 4.593836316203962, 
      "latmin": 51.25984259681344
    }, 
    {
      "latmax": 51.27137849493866, 
      "name": "Zonnedauw", 
      "lonmin": 4.565629744742053, 
      "sanName": "zonnedauw", 
      "numOfAddr": 22, 
      "lonmax": 4.56886369633775, 
      "latmin": 51.26805669852664
    }, 
    {
      "latmax": 51.27163747486929, 
      "name": "Zonneweelde", 
      "lonmin": 4.562743448958993, 
      "sanName": "zonneweelde", 
      "numOfAddr": 14, 
      "lonmax": 4.56367712392835, 
      "latmin": 51.26994798333377
    }, 
    {
      "latmax": 51.23385738385539, 
      "name": "Zwaneweg", 
      "lonmin": 4.5796248551230425, 
      "sanName": "zwaneweg", 
      "numOfAddr": 43, 
      "lonmax": 4.581783970988025, 
      "latmin": 51.231902391356705
    }
  ]
}