{
  "streets": [
    {
      "latmax": 51.26635712391761, 
      "name": "Abdijlaan", 
      "lonmin": 4.700361446743801, 
      "sanName": "abdijlaan", 
      "numOfAddr": 8, 
      "lonmax": 4.7027054560726365, 
      "latmin": 51.26577533579779
    }, 
    {
      "latmax": 51.257632802134154, 
      "name": "Achterste Hoeven", 
      "lonmin": 4.698926171439272, 
      "sanName": "achterstehoeven", 
      "numOfAddr": 4, 
      "lonmax": 4.701632278307776, 
      "latmin": 51.25643548807347
    }, 
    {
      "latmax": 51.26655121926412, 
      "name": "Achterstraat", 
      "lonmin": 4.629569496119184, 
      "sanName": "achterstraat", 
      "numOfAddr": 109, 
      "lonmax": 4.643838695869705, 
      "latmin": 51.2591303363035
    }, 
    {
      "latmax": 51.27274668042013, 
      "name": "Akker", 
      "lonmin": 4.63299647097391, 
      "sanName": "akker", 
      "numOfAddr": 43, 
      "lonmax": 4.634833179658848, 
      "latmin": 51.27129762907836
    }, 
    {
      "latmax": 51.270667627249864, 
      "name": "Alfons Butsstraat", 
      "lonmin": 4.637447715010979, 
      "sanName": "alfonsbutsstraat", 
      "numOfAddr": 33, 
      "lonmax": 4.639868307439595, 
      "latmin": 51.268013879627674
    }, 
    {
      "latmax": 51.26423315848733, 
      "name": "Amazonelaan", 
      "lonmin": 4.645999877283789, 
      "sanName": "amazonelaan", 
      "numOfAddr": 31, 
      "lonmax": 4.648605101926743, 
      "latmin": 51.262173528974294
    }, 
    {
      "latmax": 51.273157838826926, 
      "name": "Andreas Vesaliuslaan", 
      "lonmin": 4.643697264354819, 
      "sanName": "andreasvesaliuslaan", 
      "numOfAddr": 5, 
      "lonmax": 4.64541703325464, 
      "latmin": 51.27189225788369
    }, 
    {
      "latmax": 51.26735204544824, 
      "name": "Antwerpsedreef", 
      "lonmin": 4.657706160627841, 
      "sanName": "antwerpsedreef", 
      "numOfAddr": 82, 
      "lonmax": 4.680551507368588, 
      "latmin": 51.259844931171884
    }, 
    {
      "latmax": 51.255448201810665, 
      "name": "Azalealaan", 
      "lonmin": 4.6344231861489265, 
      "sanName": "azalealaan", 
      "numOfAddr": 50, 
      "lonmax": 4.640588425047071, 
      "latmin": 51.251743047487466
    }, 
    {
      "latmax": 51.25056350650167, 
      "name": "Baron de Borrekenslaan", 
      "lonmin": 4.623188555027701, 
      "sanName": "barondeborrekenslaan", 
      "numOfAddr": 4, 
      "lonmax": 4.62483725164662, 
      "latmin": 51.250216095494444
    }, 
    {
      "latmax": 51.26240713757544, 
      "name": "Baron de Caterslaan", 
      "lonmin": 4.6336340173661235, 
      "sanName": "barondecaterslaan", 
      "numOfAddr": 49, 
      "lonmax": 4.639299512608712, 
      "latmin": 51.25991583117426
    }, 
    {
      "latmax": 51.266382416931286, 
      "name": "Begijnenstraat", 
      "lonmin": 4.638177130710964, 
      "sanName": "begijnenstraat", 
      "numOfAddr": 11, 
      "lonmax": 4.638906661316956, 
      "latmin": 51.26535149300223
    }, 
    {
      "latmax": 51.252004242642336, 
      "name": "Berkemei", 
      "lonmin": 4.647328460885905, 
      "sanName": "berkemei", 
      "numOfAddr": 49, 
      "lonmax": 4.670300773815837, 
      "latmin": 51.24305403378462
    }, 
    {
      "latmax": 51.240310200546794, 
      "name": "Berkenlaan", 
      "lonmin": 4.652429803082817, 
      "sanName": "berkenlaan", 
      "numOfAddr": 43, 
      "lonmax": 4.657787778175371, 
      "latmin": 51.235820759910276
    }, 
    {
      "latmax": 51.27349969064241, 
      "name": "Bessenlaan", 
      "lonmin": 4.666348589711919, 
      "sanName": "bessenlaan", 
      "numOfAddr": 5, 
      "lonmax": 4.667039923858848, 
      "latmin": 51.272795458282104
    }, 
    {
      "latmax": 51.27882822802757, 
      "name": "Bethani\u0089nlei", 
      "lonmin": 4.6246187470703255, 
      "sanName": "bethaninlei", 
      "numOfAddr": 148, 
      "lonmax": 4.6408454849922895, 
      "latmin": 51.26874068968626
    }, 
    {
      "latmax": 51.27607400903168, 
      "name": "Beukenlaan", 
      "lonmin": 4.655434566475963, 
      "sanName": "beukenlaan", 
      "numOfAddr": 46, 
      "lonmax": 4.662104434413526, 
      "latmin": 51.267545265935546
    }, 
    {
      "latmax": 51.25411569691017, 
      "name": "Beverdreef", 
      "lonmin": 4.624089084385946, 
      "sanName": "beverdreef", 
      "numOfAddr": 1, 
      "lonmax": 4.624089084385946, 
      "latmin": 51.25411569691017
    }, 
    {
      "latmax": 51.268636076552625, 
      "name": "Biekorfstraat", 
      "lonmin": 4.716687977913218, 
      "sanName": "biekorfstraat", 
      "numOfAddr": 7, 
      "lonmax": 4.718415838395764, 
      "latmin": 51.26814170834481
    }, 
    {
      "latmax": 51.277446094872424, 
      "name": "Bieshoeve", 
      "lonmin": 4.711753011771511, 
      "sanName": "bieshoeve", 
      "numOfAddr": 11, 
      "lonmax": 4.713188314433927, 
      "latmin": 51.276794393292334
    }, 
    {
      "latmax": 51.262783181328565, 
      "name": "Binnenweg", 
      "lonmin": 4.641858340586769, 
      "sanName": "binnenweg", 
      "numOfAddr": 4, 
      "lonmax": 4.642277034282547, 
      "latmin": 51.26247693071612
    }, 
    {
      "latmax": 51.262594130061586, 
      "name": "Boerenkrijglaan", 
      "lonmin": 4.698529044097818, 
      "sanName": "boerenkrijglaan", 
      "numOfAddr": 18, 
      "lonmax": 4.701055702209168, 
      "latmin": 51.26102887825075
    }, 
    {
      "latmax": 51.27225213768588, 
      "name": "Boogstraat", 
      "lonmin": 4.708454537942676, 
      "sanName": "boogstraat", 
      "numOfAddr": 11, 
      "lonmax": 4.710561183616944, 
      "latmin": 51.2714044684111
    }, 
    {
      "latmax": 51.236793966668664, 
      "name": "Boordeken", 
      "lonmin": 4.638340162819545, 
      "sanName": "boordeken", 
      "numOfAddr": 4, 
      "lonmax": 4.639295566427314, 
      "latmin": 51.236753818403145
    }, 
    {
      "latmax": 51.24411004540244, 
      "name": "Boshuisweg", 
      "lonmin": 4.675913175264149, 
      "sanName": "boshuisweg", 
      "numOfAddr": 1, 
      "lonmax": 4.675913175264149, 
      "latmin": 51.24411004540244
    }, 
    {
      "latmax": 51.25931782490536, 
      "name": "Boskant", 
      "lonmin": 4.648417038710976, 
      "sanName": "boskant", 
      "numOfAddr": 4, 
      "lonmax": 4.649462424861253, 
      "latmin": 51.25858510282744
    }, 
    {
      "latmax": 51.27162473420973, 
      "name": "Boslaan", 
      "lonmin": 4.668407596911782, 
      "sanName": "boslaan", 
      "numOfAddr": 9, 
      "lonmax": 4.668936620694059, 
      "latmin": 51.268838898664
    }, 
    {
      "latmax": 51.25977501870925, 
      "name": "Boterbloemlaan", 
      "lonmin": 4.637534110623021, 
      "sanName": "boterbloemlaan", 
      "numOfAddr": 77, 
      "lonmax": 4.64102315385156, 
      "latmin": 51.251531527367966
    }, 
    {
      "latmax": 51.24616861369876, 
      "name": "Brakenberg", 
      "lonmin": 4.648894338018379, 
      "sanName": "brakenberg", 
      "numOfAddr": 45, 
      "lonmax": 4.652999891225771, 
      "latmin": 51.24042683724864
    }, 
    {
      "latmax": 51.2746094693013, 
      "name": "Brakenstraat", 
      "lonmin": 4.625150826813817, 
      "sanName": "brakenstraat", 
      "numOfAddr": 2, 
      "lonmax": 4.625233353388043, 
      "latmin": 51.27326204037311
    }, 
    {
      "latmax": 51.236739678451, 
      "name": "Brakkebos", 
      "lonmin": 4.647286188992203, 
      "sanName": "brakkebos", 
      "numOfAddr": 15, 
      "lonmax": 4.649550721190808, 
      "latmin": 51.23636909745886
    }, 
    {
      "latmax": 51.27188529697701, 
      "name": "Bremlaan", 
      "lonmin": 4.702994644205317, 
      "sanName": "bremlaan", 
      "numOfAddr": 25, 
      "lonmax": 4.706100018884742, 
      "latmin": 51.26921364345651
    }, 
    {
      "latmax": 51.27200197445417, 
      "name": "Broekstraat", 
      "lonmin": 4.718056330952183, 
      "sanName": "broekstraat", 
      "numOfAddr": 14, 
      "lonmax": 4.719736610346626, 
      "latmin": 51.271135771502486
    }, 
    {
      "latmax": 51.27630067016816, 
      "name": "Cyriel Buysselaan", 
      "lonmin": 4.706814517575175, 
      "sanName": "cyrielbuysselaan", 
      "numOfAddr": 13, 
      "lonmax": 4.708425717834477, 
      "latmin": 51.27576266474199
    }, 
    {
      "latmax": 51.267134292897865, 
      "name": "Cyriel Verschaevelaan", 
      "lonmin": 4.66730992074462, 
      "sanName": "cyrielverschaevelaan", 
      "numOfAddr": 8, 
      "lonmax": 4.668199912797281, 
      "latmin": 51.26606914579018
    }, 
    {
      "latmax": 51.23604984125843, 
      "name": "Dageraadstraat", 
      "lonmin": 4.646902174342025, 
      "sanName": "dageraadstraat", 
      "numOfAddr": 17, 
      "lonmax": 4.649593185245502, 
      "latmin": 51.23564031146295
    }, 
    {
      "latmax": 51.26272353726124, 
      "name": "De Beemdekens", 
      "lonmin": 4.711845669424439, 
      "sanName": "debeemdekens", 
      "numOfAddr": 44, 
      "lonmax": 4.714940308950089, 
      "latmin": 51.25993141580546
    }, 
    {
      "latmax": 51.24076592053332, 
      "name": "De Bergen", 
      "lonmin": 4.638816777094691, 
      "sanName": "debergen", 
      "numOfAddr": 28, 
      "lonmax": 4.640151396252165, 
      "latmin": 51.2364276371936
    }, 
    {
      "latmax": 51.239314468814364, 
      "name": "De Blokskens", 
      "lonmin": 4.650574561565944, 
      "sanName": "deblokskens", 
      "numOfAddr": 9, 
      "lonmax": 4.652988204975919, 
      "latmin": 51.23697201306113
    }, 
    {
      "latmax": 51.268728084990286, 
      "name": "De Bruelen", 
      "lonmin": 4.713241568102429, 
      "sanName": "debruelen", 
      "numOfAddr": 25, 
      "lonmax": 4.715135328503076, 
      "latmin": 51.26699639268416
    }, 
    {
      "latmax": 51.27755526865465, 
      "name": "De Hulsten", 
      "lonmin": 4.684994465345076, 
      "sanName": "dehulsten", 
      "numOfAddr": 125, 
      "lonmax": 4.6897569676581545, 
      "latmin": 51.26898251387884
    }, 
    {
      "latmax": 51.2443495595907, 
      "name": "D'Eike", 
      "lonmin": 4.639829211203256, 
      "sanName": "deike", 
      "numOfAddr": 17, 
      "lonmax": 4.64207789389781, 
      "latmin": 51.24289644411808
    }, 
    {
      "latmax": 51.27707301011577, 
      "name": "De Knod", 
      "lonmin": 4.623618964750514, 
      "sanName": "deknod", 
      "numOfAddr": 58, 
      "lonmax": 4.631399313334674, 
      "latmin": 51.272920745573046
    }, 
    {
      "latmax": 51.26279006340252, 
      "name": "De Maey", 
      "lonmin": 4.725447377427757, 
      "sanName": "demaey", 
      "numOfAddr": 3, 
      "lonmax": 4.726667872407104, 
      "latmin": 51.26103789323361
    }, 
    {
      "latmax": 51.245394883395896, 
      "name": "Den Haan", 
      "lonmin": 4.702698464545612, 
      "sanName": "denhaan", 
      "numOfAddr": 3, 
      "lonmax": 4.705399737734745, 
      "latmin": 51.244249453230424
    }, 
    {
      "latmax": 51.25612316030137, 
      "name": "Dennenlaan", 
      "lonmin": 4.622953147863555, 
      "sanName": "dennenlaan", 
      "numOfAddr": 35, 
      "lonmax": 4.627043527602872, 
      "latmin": 51.25112793848549
    }, 
    {
      "latmax": 51.24145134794614, 
      "name": "De Pier", 
      "lonmin": 4.640368580700536, 
      "sanName": "depier", 
      "numOfAddr": 2, 
      "lonmax": 4.640934588258543, 
      "latmin": 51.24141840456033
    }, 
    {
      "latmax": 51.26588614230781, 
      "name": "De Reiger", 
      "lonmin": 4.704507834910557, 
      "sanName": "dereiger", 
      "numOfAddr": 25, 
      "lonmax": 4.70925151395505, 
      "latmin": 51.26497438113409
    }, 
    {
      "latmax": 51.26501971385122, 
      "name": "De Roerdomp", 
      "lonmin": 4.7089399294783485, 
      "sanName": "deroerdomp", 
      "numOfAddr": 26, 
      "lonmax": 4.71096070866786, 
      "latmin": 51.2637961040421
    }, 
    {
      "latmax": 51.283086272801974, 
      "name": "De Schaaf", 
      "lonmin": 4.719088633520365, 
      "sanName": "deschaaf", 
      "numOfAddr": 13, 
      "lonmax": 4.719669423019083, 
      "latmin": 51.2803603907577
    }, 
    {
      "latmax": 51.27340693188985, 
      "name": "De Ster", 
      "lonmin": 4.717157707541116, 
      "sanName": "dester", 
      "numOfAddr": 5, 
      "lonmax": 4.717854645293345, 
      "latmin": 51.27296396854481
    }, 
    {
      "latmax": 51.270850325286084, 
      "name": "De Wagenmaker", 
      "lonmin": 4.715427031177964, 
      "sanName": "dewagenmaker", 
      "numOfAddr": 24, 
      "lonmax": 4.717010971679224, 
      "latmin": 51.26917639023929
    }, 
    {
      "latmax": 51.25543002702847, 
      "name": "De Wervenlaan", 
      "lonmin": 4.611847308647304, 
      "sanName": "dewervenlaan", 
      "numOfAddr": 10, 
      "lonmax": 4.614595225750305, 
      "latmin": 51.25422913949966
    }, 
    {
      "latmax": 51.272510716213745, 
      "name": "De Wissel", 
      "lonmin": 4.713678159774924, 
      "sanName": "dewissel", 
      "numOfAddr": 4, 
      "lonmax": 4.714616280706918, 
      "latmin": 51.271875918989984
    }, 
    {
      "latmax": 51.27592794422388, 
      "name": "Diamantstraat", 
      "lonmin": 4.722813901550934, 
      "sanName": "diamantstraat", 
      "numOfAddr": 3, 
      "lonmax": 4.724453943816743, 
      "latmin": 51.27512198099113
    }, 
    {
      "latmax": 51.269775066560584, 
      "name": "Distellaan", 
      "lonmin": 4.649950150187199, 
      "sanName": "distellaan", 
      "numOfAddr": 22, 
      "lonmax": 4.651757268365529, 
      "latmin": 51.26791824830985
    }, 
    {
      "latmax": 51.27300279503609, 
      "name": "Doelen", 
      "lonmin": 4.711185449861671, 
      "sanName": "doelen", 
      "numOfAddr": 11, 
      "lonmax": 4.712401522546632, 
      "latmin": 51.27042988822312
    }, 
    {
      "latmax": 51.2536166761124, 
      "name": "Donker Woud", 
      "lonmin": 4.629222083384902, 
      "sanName": "donkerwoud", 
      "numOfAddr": 5, 
      "lonmax": 4.630362720317829, 
      "latmin": 51.25190304833089
    }, 
    {
      "latmax": 51.272482130938734, 
      "name": "Doornlaan", 
      "lonmin": 4.647373025091232, 
      "sanName": "doornlaan", 
      "numOfAddr": 31, 
      "lonmax": 4.652477901144728, 
      "latmin": 51.26963568632766
    }, 
    {
      "latmax": 51.27056514289206, 
      "name": "Dorp", 
      "lonmin": 4.711438286979452, 
      "sanName": "dorp", 
      "numOfAddr": 67, 
      "lonmax": 4.714065207689855, 
      "latmin": 51.267651944046335
    }, 
    {
      "latmax": 51.262474710379365, 
      "name": "Draverslaan", 
      "lonmin": 4.643757332738249, 
      "sanName": "draverslaan", 
      "numOfAddr": 24, 
      "lonmax": 4.646364680604541, 
      "latmin": 51.26105881572073
    }, 
    {
      "latmax": 51.25746574292728, 
      "name": "Drengel", 
      "lonmin": 4.712656051958105, 
      "sanName": "drengel", 
      "numOfAddr": 47, 
      "lonmax": 4.723025114024423, 
      "latmin": 51.25219228046174
    }, 
    {
      "latmax": 51.24535889505633, 
      "name": "Driehoeksdreef", 
      "lonmin": 4.6164175447579465, 
      "sanName": "driehoeksdreef", 
      "numOfAddr": 10, 
      "lonmax": 4.620118078037873, 
      "latmin": 51.24157622790453
    }, 
    {
      "latmax": 51.24595821917657, 
      "name": "Driesheide", 
      "lonmin": 4.627276293435665, 
      "sanName": "driesheide", 
      "numOfAddr": 52, 
      "lonmax": 4.638900092563478, 
      "latmin": 51.24072121720244
    }, 
    {
      "latmax": 51.27865003513035, 
      "name": "Duifstraat", 
      "lonmin": 4.714139810229788, 
      "sanName": "duifstraat", 
      "numOfAddr": 21, 
      "lonmax": 4.716768444962637, 
      "latmin": 51.27730171615875
    }, 
    {
      "latmax": 51.27714950916448, 
      "name": "Eekhoornlaan", 
      "lonmin": 4.712208375784207, 
      "sanName": "eekhoornlaan", 
      "numOfAddr": 14, 
      "lonmax": 4.714501060190775, 
      "latmin": 51.275825432361245
    }, 
    {
      "latmax": 51.25315194143952, 
      "name": "Eikenlaan", 
      "lonmin": 4.617653879654888, 
      "sanName": "eikenlaan", 
      "numOfAddr": 42, 
      "lonmax": 4.626627875404433, 
      "latmin": 51.246128983003736
    }, 
    {
      "latmax": 51.257373314715174, 
      "name": "Einhoven", 
      "lonmin": 4.723438065786665, 
      "sanName": "einhoven", 
      "numOfAddr": 18, 
      "lonmax": 4.733644958360666, 
      "latmin": 51.24845268090242
    }, 
    {
      "latmax": 51.25204813969575, 
      "name": "Einhovensebaan", 
      "lonmin": 4.719365109137067, 
      "sanName": "einhovensebaan", 
      "numOfAddr": 3, 
      "lonmax": 4.72424169091153, 
      "latmin": 51.247599178142
    }, 
    {
      "latmax": 51.24915779620898, 
      "name": "Eksterdreef", 
      "lonmin": 4.615749826210249, 
      "sanName": "eksterdreef", 
      "numOfAddr": 3, 
      "lonmax": 4.616470732383326, 
      "latmin": 51.24855034785856
    }, 
    {
      "latmax": 51.262235907674004, 
      "name": "Elzenlaan", 
      "lonmin": 4.638553183832784, 
      "sanName": "elzenlaan", 
      "numOfAddr": 8, 
      "lonmax": 4.639419233810797, 
      "latmin": 51.26158252415552
    }, 
    {
      "latmax": 51.28370761727972, 
      "name": "Emiel Vermeulenstraat", 
      "lonmin": 4.627482872896578, 
      "sanName": "emielvermeulenstraat", 
      "numOfAddr": 128, 
      "lonmax": 4.638879181557424, 
      "latmin": 51.27267997052352
    }, 
    {
      "latmax": 51.27633328225663, 
      "name": "Epicialaan", 
      "lonmin": 4.659737726546202, 
      "sanName": "epicialaan", 
      "numOfAddr": 29, 
      "lonmax": 4.666330587393641, 
      "latmin": 51.267931367643754
    }, 
    {
      "latmax": 51.2598666673062, 
      "name": "Erica", 
      "lonmin": 4.644012574135071, 
      "sanName": "erica", 
      "numOfAddr": 5, 
      "lonmax": 4.6446376906747435, 
      "latmin": 51.25954594320451
    }, 
    {
      "latmax": 51.26398358049524, 
      "name": "Ernest Claeslaan", 
      "lonmin": 4.653703650038267, 
      "sanName": "ernestclaeslaan", 
      "numOfAddr": 18, 
      "lonmax": 4.656113448912129, 
      "latmin": 51.26323599705765
    }, 
    {
      "latmax": 51.27583132610321, 
      "name": "Esdoornlaan", 
      "lonmin": 4.662452272467503, 
      "sanName": "esdoornlaan", 
      "numOfAddr": 5, 
      "lonmax": 4.665943274873661, 
      "latmin": 51.27519282089758
    }, 
    {
      "latmax": 51.27250778473794, 
      "name": "Essendreef", 
      "lonmin": 4.666883311648187, 
      "sanName": "essendreef", 
      "numOfAddr": 8, 
      "lonmax": 4.668680979394005, 
      "latmin": 51.271939578521454
    }, 
    {
      "latmax": 51.2492372754163, 
      "name": "Fazantendreef", 
      "lonmin": 4.615908257853426, 
      "sanName": "fazantendreef", 
      "numOfAddr": 14, 
      "lonmax": 4.619015614028495, 
      "latmin": 51.24735628332154
    }, 
    {
      "latmax": 51.26443949562939, 
      "name": "Felix Timmermanslaan", 
      "lonmin": 4.652833337933437, 
      "sanName": "felixtimmermanslaan", 
      "numOfAddr": 8, 
      "lonmax": 4.654446638856839, 
      "latmin": 51.26395784565081
    }, 
    {
      "latmax": 51.25767588395096, 
      "name": "Felix Wyterslaan", 
      "lonmin": 4.609215043272052, 
      "sanName": "felixwyterslaan", 
      "numOfAddr": 23, 
      "lonmax": 4.612486044190495, 
      "latmin": 51.25386210664287
    }, 
    {
      "latmax": 51.23261602982977, 
      "name": "Flikkersteert", 
      "lonmin": 4.641428109673366, 
      "sanName": "flikkersteert", 
      "numOfAddr": 13, 
      "lonmax": 4.64288283858259, 
      "latmin": 51.231180445013706
    }, 
    {
      "latmax": 51.27155033165536, 
      "name": "Frans Hensbergenstraat", 
      "lonmin": 4.636434380911771, 
      "sanName": "franshensbergenstraat", 
      "numOfAddr": 46, 
      "lonmax": 4.638515512276493, 
      "latmin": 51.26747930441783
    }, 
    {
      "latmax": 51.26974749912595, 
      "name": "Frans Janssenslaan", 
      "lonmin": 4.645910633151158, 
      "sanName": "fransjanssenslaan", 
      "numOfAddr": 18, 
      "lonmax": 4.6473369700668306, 
      "latmin": 51.267785736423384
    }, 
    {
      "latmax": 51.26823072463969, 
      "name": "Frans Van Looverenlaan", 
      "lonmin": 4.643735820427566, 
      "sanName": "fransvanlooverenlaan", 
      "numOfAddr": 12, 
      "lonmax": 4.645588335942554, 
      "latmin": 51.26774324459846
    }, 
    {
      "latmax": 51.262613794399414, 
      "name": "Gagelaars", 
      "lonmin": 4.635804890054246, 
      "sanName": "gagelaars", 
      "numOfAddr": 38, 
      "lonmax": 4.640527486365561, 
      "latmin": 51.26052382547768
    }, 
    {
      "latmax": 51.268487750225006, 
      "name": "Gagelhoflaan", 
      "lonmin": 4.671906232601458, 
      "sanName": "gagelhoflaan", 
      "numOfAddr": 60, 
      "lonmax": 4.67788058996243, 
      "latmin": 51.26266502297972
    }, 
    {
      "latmax": 51.27672902513553, 
      "name": "Geleg", 
      "lonmin": 4.676874260598863, 
      "sanName": "geleg", 
      "numOfAddr": 17, 
      "lonmax": 4.684716959619674, 
      "latmin": 51.27019487339457
    }, 
    {
      "latmax": 51.27882755829239, 
      "name": "Gestelbos", 
      "lonmin": 4.719011722291331, 
      "sanName": "gestelbos", 
      "numOfAddr": 9, 
      "lonmax": 4.723277608925297, 
      "latmin": 51.27782337472286
    }, 
    {
      "latmax": 51.26467503365816, 
      "name": "Gestelsebaan", 
      "lonmin": 4.631077306330352, 
      "sanName": "gestelsebaan", 
      "numOfAddr": 93, 
      "lonmax": 4.647085652883276, 
      "latmin": 51.2543508740603
    }, 
    {
      "latmax": 51.25458581518866, 
      "name": "Goudbloemlaan", 
      "lonmin": 4.635580160883033, 
      "sanName": "goudbloemlaan", 
      "numOfAddr": 35, 
      "lonmax": 4.6376478078989996, 
      "latmin": 51.251607677452554
    }, 
    {
      "latmax": 51.26608337393607, 
      "name": "Goudveld", 
      "lonmin": 4.6736787235652635, 
      "sanName": "goudveld", 
      "numOfAddr": 43, 
      "lonmax": 4.6778703019055845, 
      "latmin": 51.26221028030302
    }, 
    {
      "latmax": 51.272300859651885, 
      "name": "Graffendonk", 
      "lonmin": 4.715406695841809, 
      "sanName": "graffendonk", 
      "numOfAddr": 38, 
      "lonmax": 4.7234841474748785, 
      "latmin": 51.26383599503784
    }, 
    {
      "latmax": 51.262034955646435, 
      "name": "Grasmuslaan", 
      "lonmin": 4.658092948076392, 
      "sanName": "grasmuslaan", 
      "numOfAddr": 12, 
      "lonmax": 4.659759994650158, 
      "latmin": 51.261395483177935
    }, 
    {
      "latmax": 51.26942109996639, 
      "name": "Groenlaan", 
      "lonmin": 4.646833804469157, 
      "sanName": "groenlaan", 
      "numOfAddr": 19, 
      "lonmax": 4.649915938029351, 
      "latmin": 51.267394766704996
    }, 
    {
      "latmax": 51.26648731839286, 
      "name": "Guido Gezellelaan", 
      "lonmin": 4.650769764754374, 
      "sanName": "guidogezellelaan", 
      "numOfAddr": 21, 
      "lonmax": 4.657357875547463, 
      "latmin": 51.26433165276739
    }, 
    {
      "latmax": 51.269217594570634, 
      "name": "Hallebaan", 
      "lonmin": 4.675723689592521, 
      "sanName": "hallebaan", 
      "numOfAddr": 37, 
      "lonmax": 4.681976914333508, 
      "latmin": 51.262089122253265
    }, 
    {
      "latmax": 51.24121074534359, 
      "name": "Halle-Dorp", 
      "lonmin": 4.639205504717811, 
      "sanName": "halledorp", 
      "numOfAddr": 114, 
      "lonmax": 4.65219405463477, 
      "latmin": 51.23937556097799
    }, 
    {
      "latmax": 51.23906194694694, 
      "name": "Halle-Velden", 
      "lonmin": 4.645113209331599, 
      "sanName": "hallevelden", 
      "numOfAddr": 68, 
      "lonmax": 4.649849660011363, 
      "latmin": 51.2272118706811
    }, 
    {
      "latmax": 51.23943916748889, 
      "name": "Halmolenweg", 
      "lonmin": 4.634665796324351, 
      "sanName": "halmolenweg", 
      "numOfAddr": 39, 
      "lonmax": 4.645910110407256, 
      "latmin": 51.225560624293166
    }, 
    {
      "latmax": 51.27386155990838, 
      "name": "Handelslei", 
      "lonmin": 4.632646437424079, 
      "sanName": "handelslei", 
      "numOfAddr": 206, 
      "lonmax": 4.650170409351014, 
      "latmin": 51.26291183044557
    }, 
    {
      "latmax": 51.27361296352957, 
      "name": "Hazenpad", 
      "lonmin": 4.7037959316149305, 
      "sanName": "hazenpad", 
      "numOfAddr": 4, 
      "lonmax": 4.704264446360078, 
      "latmin": 51.27324415553047
    }, 
    {
      "latmax": 51.246899638415876, 
      "name": "Heiblok", 
      "lonmin": 4.663054754906905, 
      "sanName": "heiblok", 
      "numOfAddr": 5, 
      "lonmax": 4.6657426234818145, 
      "latmin": 51.2459530749424
    }, 
    {
      "latmax": 51.26094374796896, 
      "name": "Heidehoeven", 
      "lonmin": 4.640821469867259, 
      "sanName": "heidehoeven", 
      "numOfAddr": 32, 
      "lonmax": 4.649225969185986, 
      "latmin": 51.258484996617526
    }, 
    {
      "latmax": 51.247540329823416, 
      "name": "Heideweg", 
      "lonmin": 4.632919177111544, 
      "sanName": "heideweg", 
      "numOfAddr": 62, 
      "lonmax": 4.645860389363044, 
      "latmin": 51.242859391650725
    }, 
    {
      "latmax": 51.240453432689655, 
      "name": "Heilige Geestweg", 
      "lonmin": 4.638263242862007, 
      "sanName": "heiligegeestweg", 
      "numOfAddr": 1, 
      "lonmax": 4.638263242862007, 
      "latmin": 51.240453432689655
    }, 
    {
      "latmax": 51.269425134287665, 
      "name": "Heimeulenweg", 
      "lonmin": 4.633844842864358, 
      "sanName": "heimeulenweg", 
      "numOfAddr": 17, 
      "lonmax": 4.636207710362675, 
      "latmin": 51.26583603280281
    }, 
    {
      "latmax": 51.26821800632349, 
      "name": "Hendrik Consciencelaan", 
      "lonmin": 4.668921283092651, 
      "sanName": "hendrikconsciencelaan", 
      "numOfAddr": 37, 
      "lonmax": 4.673747957086881, 
      "latmin": 51.26368380942338
    }, 
    {
      "latmax": 51.2369025133375, 
      "name": "Hendrikvoort", 
      "lonmin": 4.6272374607010835, 
      "sanName": "hendrikvoort", 
      "numOfAddr": 5, 
      "lonmax": 4.6297457557051676, 
      "latmin": 51.23481443219246
    }, 
    {
      "latmax": 51.27046236138077, 
      "name": "Herentalsebaan", 
      "lonmin": 4.7142989705757765, 
      "sanName": "herentalsebaan", 
      "numOfAddr": 125, 
      "lonmax": 4.72306748889074, 
      "latmin": 51.25320149554124
    }, 
    {
      "latmax": 51.273158567229274, 
      "name": "Hertendreef", 
      "lonmin": 4.698588202096048, 
      "sanName": "hertendreef", 
      "numOfAddr": 30, 
      "lonmax": 4.700297654878269, 
      "latmin": 51.269535141113685
    }, 
    {
      "latmax": 51.25733957754703, 
      "name": "Het Klooster", 
      "lonmin": 4.632362217721307, 
      "sanName": "hetklooster", 
      "numOfAddr": 32, 
      "lonmax": 4.635287399615945, 
      "latmin": 51.25582209384785
    }, 
    {
      "latmax": 51.263560122874885, 
      "name": "Het Moer", 
      "lonmin": 4.665118594055758, 
      "sanName": "hetmoer", 
      "numOfAddr": 14, 
      "lonmax": 4.667508743952048, 
      "latmin": 51.26297992878584
    }, 
    {
      "latmax": 51.267649858074634, 
      "name": "Heybleukenstraat", 
      "lonmin": 4.634124203778097, 
      "sanName": "heybleukenstraat", 
      "numOfAddr": 32, 
      "lonmax": 4.6375133111327, 
      "latmin": 51.26529466918164
    }, 
    {
      "latmax": 51.264089943417744, 
      "name": "Hoekstraat", 
      "lonmin": 4.664615601836468, 
      "sanName": "hoekstraat", 
      "numOfAddr": 30, 
      "lonmax": 4.668202656209491, 
      "latmin": 51.26175662906221
    }, 
    {
      "latmax": 51.25306738953274, 
      "name": "Hofeinde", 
      "lonmin": 4.6275744632163445, 
      "sanName": "hofeinde", 
      "numOfAddr": 13, 
      "lonmax": 4.630915924686705, 
      "latmin": 51.251445581670836
    }, 
    {
      "latmax": 51.264172829260595, 
      "name": "Hoge Dreef", 
      "lonmin": 4.636165552499272, 
      "sanName": "hogedreef", 
      "numOfAddr": 69, 
      "lonmax": 4.646430141496316, 
      "latmin": 51.25972636025024
    }, 
    {
      "latmax": 51.26335759334601, 
      "name": "Hoogveld", 
      "lonmin": 4.709789949070731, 
      "sanName": "hoogveld", 
      "numOfAddr": 14, 
      "lonmax": 4.7105086337532365, 
      "latmin": 51.26248927726118
    }, 
    {
      "latmax": 51.24240547436325, 
      "name": "Hooidonkbos", 
      "lonmin": 4.658601978002345, 
      "sanName": "hooidonkbos", 
      "numOfAddr": 17, 
      "lonmax": 4.66107049158112, 
      "latmin": 51.24119313452054
    }, 
    {
      "latmax": 51.25014856271182, 
      "name": "Hooidonkeinde", 
      "lonmin": 4.6542793091472685, 
      "sanName": "hooidonkeinde", 
      "numOfAddr": 12, 
      "lonmax": 4.661971560899633, 
      "latmin": 51.24119595504427
    }, 
    {
      "latmax": 51.27163574930271, 
      "name": "Hulstenweg", 
      "lonmin": 4.689796930179589, 
      "sanName": "hulstenweg", 
      "numOfAddr": 2, 
      "lonmax": 4.690453539800002, 
      "latmin": 51.271602234109395
    }, 
    {
      "latmax": 51.26879082232653, 
      "name": "Jachthoornlaan", 
      "lonmin": 4.695937954396425, 
      "sanName": "jachthoornlaan", 
      "numOfAddr": 34, 
      "lonmax": 4.703867783975843, 
      "latmin": 51.26658786337079
    }, 
    {
      "latmax": 51.266645366281026, 
      "name": "Jacobslaan", 
      "lonmin": 4.654976895412941, 
      "sanName": "jacobslaan", 
      "numOfAddr": 84, 
      "lonmax": 4.661946684825287, 
      "latmin": 51.25716548849726
    }, 
    {
      "latmax": 51.26137104108114, 
      "name": "Jagersdreef", 
      "lonmin": 4.6988503176922825, 
      "sanName": "jagersdreef", 
      "numOfAddr": 10, 
      "lonmax": 4.704419979776857, 
      "latmin": 51.25794012032676
    }, 
    {
      "latmax": 51.27412526739313, 
      "name": "Jan Jozeflaan", 
      "lonmin": 4.653484187393948, 
      "sanName": "janjozeflaan", 
      "numOfAddr": 23, 
      "lonmax": 4.657361238628492, 
      "latmin": 51.27253306823698
    }, 
    {
      "latmax": 51.2662971103791, 
      "name": "Jozef Cornelissenslaan", 
      "lonmin": 4.630465157664051, 
      "sanName": "jozefcornelissenslaan", 
      "numOfAddr": 14, 
      "lonmax": 4.632638068900547, 
      "latmin": 51.26496053870102
    }, 
    {
      "latmax": 51.27224751665907, 
      "name": "Jukschot", 
      "lonmin": 4.6310550884151045, 
      "sanName": "jukschot", 
      "numOfAddr": 49, 
      "lonmax": 4.636774334016829, 
      "latmin": 51.26779595688092
    }, 
    {
      "latmax": 51.22510707148658, 
      "name": "Kantonbaan", 
      "lonmin": 4.63578976618747, 
      "sanName": "kantonbaan", 
      "numOfAddr": 8, 
      "lonmax": 4.642607001301987, 
      "latmin": 51.2236183018568
    }, 
    {
      "latmax": 51.24557924035163, 
      "name": "Kanunnik Ullenslaan", 
      "lonmin": 4.632263265300737, 
      "sanName": "kanunnikullenslaan", 
      "numOfAddr": 16, 
      "lonmax": 4.6343305322181765, 
      "latmin": 51.24370948643874
    }, 
    {
      "latmax": 51.26332103721118, 
      "name": "Kapellei", 
      "lonmin": 4.613846918370911, 
      "sanName": "kapellei", 
      "numOfAddr": 165, 
      "lonmax": 4.632762214334135, 
      "latmin": 51.252845985601475
    }, 
    {
      "latmax": 51.25813717977283, 
      "name": "Kapellenhoflaan", 
      "lonmin": 4.612561390281013, 
      "sanName": "kapellenhoflaan", 
      "numOfAddr": 27, 
      "lonmax": 4.615986181540946, 
      "latmin": 51.25486455595201
    }, 
    {
      "latmax": 51.266248232200795, 
      "name": "Kapelstraat", 
      "lonmin": 4.712805855399093, 
      "sanName": "kapelstraat", 
      "numOfAddr": 15, 
      "lonmax": 4.717005924949745, 
      "latmin": 51.26403095054953
    }, 
    {
      "latmax": 51.270885173493575, 
      "name": "Kardinaal Cardijnlaan", 
      "lonmin": 4.6239906787785, 
      "sanName": "kardinaalcardijnlaan", 
      "numOfAddr": 62, 
      "lonmax": 4.628165942996718, 
      "latmin": 51.26797546651023
    }, 
    {
      "latmax": 51.27008332213979, 
      "name": "Karel Uytroevenlaan", 
      "lonmin": 4.644302859739941, 
      "sanName": "kareluytroevenlaan", 
      "numOfAddr": 31, 
      "lonmax": 4.646707664566421, 
      "latmin": 51.26734975996164
    }, 
    {
      "latmax": 51.278520632444035, 
      "name": "Kastanjeweg", 
      "lonmin": 4.637467924185879, 
      "sanName": "kastanjeweg", 
      "numOfAddr": 32, 
      "lonmax": 4.64052539663798, 
      "latmin": 51.2755721608314
    }, 
    {
      "latmax": 51.25386105288111, 
      "name": "Kasteeldreef", 
      "lonmin": 4.617581933834861, 
      "sanName": "kasteeldreef", 
      "numOfAddr": 47, 
      "lonmax": 4.6295836132889745, 
      "latmin": 51.24697161540111
    }, 
    {
      "latmax": 51.24355364785156, 
      "name": "Kattenberg", 
      "lonmin": 4.64133726170095, 
      "sanName": "kattenberg", 
      "numOfAddr": 39, 
      "lonmax": 4.6467235662452815, 
      "latmin": 51.24147844867111
    }, 
    {
      "latmax": 51.25431241036848, 
      "name": "Kempendreef", 
      "lonmin": 4.632123717110691, 
      "sanName": "kempendreef", 
      "numOfAddr": 12, 
      "lonmax": 4.633585570629238, 
      "latmin": 51.25229871965604
    }, 
    {
      "latmax": 51.270192624354166, 
      "name": "Kempstraat", 
      "lonmin": 4.702506612737257, 
      "sanName": "kempstraat", 
      "numOfAddr": 4, 
      "lonmax": 4.7027821119522955, 
      "latmin": 51.2696401861178
    }, 
    {
      "latmax": 51.27370554510126, 
      "name": "Kerkhoflei", 
      "lonmin": 4.620890615411248, 
      "sanName": "kerkhoflei", 
      "numOfAddr": 87, 
      "lonmax": 4.634555813210171, 
      "latmin": 51.26512105710571
    }, 
    {
      "latmax": 51.239022569500825, 
      "name": "Kerkhofweg", 
      "lonmin": 4.647526528998581, 
      "sanName": "kerkhofweg", 
      "numOfAddr": 7, 
      "lonmax": 4.648801135880162, 
      "latmin": 51.23743745666851
    }, 
    {
      "latmax": 51.26847250192923, 
      "name": "Kerkstraat", 
      "lonmin": 4.706119808286348, 
      "sanName": "kerkstraat", 
      "numOfAddr": 45, 
      "lonmax": 4.711899057825468, 
      "latmin": 51.26708774024416
    }, 
    {
      "latmax": 51.26896563249147, 
      "name": "Kermisplein", 
      "lonmin": 2.306689562140502, 
      "sanName": "kermisplein", 
      "numOfAddr": 6, 
      "lonmax": 4.710666555713168, 
      "latmin": 49.293335165093566
    }, 
    {
      "latmax": 51.24525335359964, 
      "name": "Ketelheide", 
      "lonmin": 4.641174132344496, 
      "sanName": "ketelheide", 
      "numOfAddr": 17, 
      "lonmax": 4.643662979351654, 
      "latmin": 51.24322476252875
    }, 
    {
      "latmax": 51.27828849133796, 
      "name": "Kievit", 
      "lonmin": 4.70901435743731, 
      "sanName": "kievit", 
      "numOfAddr": 42, 
      "lonmax": 4.716622525131179, 
      "latmin": 51.27633031277764
    }, 
    {
      "latmax": 51.281287550603686, 
      "name": "Kievitheide", 
      "lonmin": 4.7120106283146415, 
      "sanName": "kievitheide", 
      "numOfAddr": 48, 
      "lonmax": 4.718263209948489, 
      "latmin": 51.27777840470197
    }, 
    {
      "latmax": 51.27189059502251, 
      "name": "Kiwilaan", 
      "lonmin": 4.6660696771640096, 
      "sanName": "kiwilaan", 
      "numOfAddr": 19, 
      "lonmax": 4.667848698688428, 
      "latmin": 51.26896546635119
    }, 
    {
      "latmax": 51.25972806503401, 
      "name": "Klaprooslaan", 
      "lonmin": 4.631713480577232, 
      "sanName": "klaprooslaan", 
      "numOfAddr": 10, 
      "lonmax": 4.633808903125319, 
      "latmin": 51.25810638143583
    }, 
    {
      "latmax": 51.25422870331717, 
      "name": "Kleine Medelaar", 
      "lonmin": 4.651226218610645, 
      "sanName": "kleinemedelaar", 
      "numOfAddr": 3, 
      "lonmax": 4.653278506812237, 
      "latmin": 51.2531446059277
    }, 
    {
      "latmax": 51.25250081047661, 
      "name": "Kleine Wandelweg", 
      "lonmin": 4.6317514563081765, 
      "sanName": "kleinewandelweg", 
      "numOfAddr": 14, 
      "lonmax": 4.635164802375034, 
      "latmin": 51.25160076468632
    }, 
    {
      "latmax": 51.23816500537896, 
      "name": "Klein Herentals", 
      "lonmin": 4.6336533957758395, 
      "sanName": "kleinherentals", 
      "numOfAddr": 14, 
      "lonmax": 4.635535148401491, 
      "latmin": 51.236067576092196
    }, 
    {
      "latmax": 51.27243072278493, 
      "name": "Kleistraat", 
      "lonmin": 4.679996423297843, 
      "sanName": "kleistraat", 
      "numOfAddr": 12, 
      "lonmax": 4.681371236915785, 
      "latmin": 51.271616367872994
    }, 
    {
      "latmax": 51.25918870525192, 
      "name": "Kloostertuin", 
      "lonmin": 4.630598734829325, 
      "sanName": "kloostertuin", 
      "numOfAddr": 11, 
      "lonmax": 4.631227590536552, 
      "latmin": 51.25752602251857
    }, 
    {
      "latmax": 51.25358426602752, 
      "name": "Kluisbaan", 
      "lonmin": 4.727511179562386, 
      "sanName": "kluisbaan", 
      "numOfAddr": 7, 
      "lonmax": 4.7354121074704265, 
      "latmin": 51.24899879302645
    }, 
    {
      "latmax": 51.270732826244256, 
      "name": "Knodseplas", 
      "lonmin": 4.629992426229538, 
      "sanName": "knodseplas", 
      "numOfAddr": 3, 
      "lonmax": 4.63091997430998, 
      "latmin": 51.27032379723032
    }, 
    {
      "latmax": 51.246649742355004, 
      "name": "Koekoekdreef", 
      "lonmin": 4.619594322754775, 
      "sanName": "koekoekdreef", 
      "numOfAddr": 40, 
      "lonmax": 4.625529040478779, 
      "latmin": 51.242118456659554
    }, 
    {
      "latmax": 51.26046432127682, 
      "name": "Korenbloemlaan", 
      "lonmin": 4.631602579620744, 
      "sanName": "korenbloemlaan", 
      "numOfAddr": 61, 
      "lonmax": 4.637212552137962, 
      "latmin": 51.25681807594194
    }, 
    {
      "latmax": 51.2764253456251, 
      "name": "Korte Kievitstraat", 
      "lonmin": 4.714204448394423, 
      "sanName": "kortekievitstraat", 
      "numOfAddr": 9, 
      "lonmax": 4.715341794110893, 
      "latmin": 51.275713335908826
    }, 
    {
      "latmax": 51.25965541941856, 
      "name": "Korte Kwikaardweg", 
      "lonmin": 4.612202611566854, 
      "sanName": "kortekwikaardweg", 
      "numOfAddr": 14, 
      "lonmax": 4.615872320330721, 
      "latmin": 51.257983053580915
    }, 
    {
      "latmax": 51.27777594678192, 
      "name": "Korte Maalstraat", 
      "lonmin": 4.72010681637524, 
      "sanName": "kortemaalstraat", 
      "numOfAddr": 11, 
      "lonmax": 4.7223375084461185, 
      "latmin": 51.27538937478171
    }, 
    {
      "latmax": 51.270738959179816, 
      "name": "Kortestraat", 
      "lonmin": 4.7000732492785176, 
      "sanName": "kortestraat", 
      "numOfAddr": 9, 
      "lonmax": 4.700796349398931, 
      "latmin": 51.26984440688383
    }, 
    {
      "latmax": 51.275223753493925, 
      "name": "Krekelenberg", 
      "lonmin": 4.705727274542982, 
      "sanName": "krekelenberg", 
      "numOfAddr": 58, 
      "lonmax": 4.710126594396663, 
      "latmin": 51.26863003522094
    }, 
    {
      "latmax": 51.273333387899065, 
      "name": "Kriekendreef", 
      "lonmin": 4.660039089277409, 
      "sanName": "kriekendreef", 
      "numOfAddr": 11, 
      "lonmax": 4.664675466982135, 
      "latmin": 51.27221983329248
    }, 
    {
      "latmax": 51.24460950629587, 
      "name": "Krimveldweg", 
      "lonmin": 4.637894822378473, 
      "sanName": "krimveldweg", 
      "numOfAddr": 21, 
      "lonmax": 4.639638408437498, 
      "latmin": 51.24149232949749
    }, 
    {
      "latmax": 51.25755975174694, 
      "name": "Krokuslaan", 
      "lonmin": 4.633999275068296, 
      "sanName": "krokuslaan", 
      "numOfAddr": 19, 
      "lonmax": 4.636050786276541, 
      "latmin": 51.25602732684007
    }, 
    {
      "latmax": 51.27059514555001, 
      "name": "Kromme Weg", 
      "lonmin": 4.62206763046796, 
      "sanName": "krommeweg", 
      "numOfAddr": 7, 
      "lonmax": 4.62360653690278, 
      "latmin": 51.2702344809636
    }, 
    {
      "latmax": 51.27646113885071, 
      "name": "Kruisstraat", 
      "lonmin": 4.710525025873898, 
      "sanName": "kruisstraat", 
      "numOfAddr": 3, 
      "lonmax": 4.71122957068863, 
      "latmin": 51.27602427396717
    }, 
    {
      "latmax": 51.27020828343801, 
      "name": "Kwikaard", 
      "lonmin": 4.619542841057891, 
      "sanName": "kwikaard", 
      "numOfAddr": 97, 
      "lonmax": 4.632009954689522, 
      "latmin": 51.26348496171271
    }, 
    {
      "latmax": 51.24888455775819, 
      "name": "Lage Weg", 
      "lonmin": 4.643733183657414, 
      "sanName": "lageweg", 
      "numOfAddr": 27, 
      "lonmax": 4.657806345787752, 
      "latmin": 51.24554458199738
    }, 
    {
      "latmax": 51.24454637254101, 
      "name": "Landweg", 
      "lonmin": 4.655693728791555, 
      "sanName": "landweg", 
      "numOfAddr": 3, 
      "lonmax": 4.656425643093777, 
      "latmin": 51.24426712558297
    }, 
    {
      "latmax": 51.267981828616456, 
      "name": "Langebaan", 
      "lonmin": 4.696648952038825, 
      "sanName": "langebaan", 
      "numOfAddr": 40, 
      "lonmax": 4.705593192983701, 
      "latmin": 51.26219601047288
    }, 
    {
      "latmax": 51.25261573134668, 
      "name": "Leeuwerikendreef", 
      "lonmin": 4.615103960811802, 
      "sanName": "leeuwerikendreef", 
      "numOfAddr": 7, 
      "lonmax": 4.616282771524758, 
      "latmin": 51.25122080442088
    }, 
    {
      "latmax": 51.25622055765663, 
      "name": "Lelielaan", 
      "lonmin": 4.636953892138872, 
      "sanName": "lelielaan", 
      "numOfAddr": 22, 
      "lonmax": 4.643711905556973, 
      "latmin": 51.25456785568703
    }, 
    {
      "latmax": 51.245562050090726, 
      "name": "Lemmekensbaan", 
      "lonmin": 4.618323240832226, 
      "sanName": "lemmekensbaan", 
      "numOfAddr": 5, 
      "lonmax": 4.626246783312284, 
      "latmin": 51.239335283826065
    }, 
    {
      "latmax": 51.243714121418, 
      "name": "Liefkenshoek", 
      "lonmin": 4.626871574730527, 
      "sanName": "liefkenshoek", 
      "numOfAddr": 50, 
      "lonmax": 4.642413515711576, 
      "latmin": 51.22443723546762
    }, 
    {
      "latmax": 51.25899446462787, 
      "name": "Liersebaan", 
      "lonmin": 4.626631397792807, 
      "sanName": "liersebaan", 
      "numOfAddr": 41, 
      "lonmax": 4.632759038607993, 
      "latmin": 51.251871184799064
    }, 
    {
      "latmax": 51.26329084802024, 
      "name": "Lijsterbeslaan", 
      "lonmin": 4.634921279543826, 
      "sanName": "lijsterbeslaan", 
      "numOfAddr": 13, 
      "lonmax": 4.636769799195028, 
      "latmin": 51.262325418507224
    }, 
    {
      "latmax": 51.247655004388214, 
      "name": "Lindedreef", 
      "lonmin": 4.6463613579881455, 
      "sanName": "lindedreef", 
      "numOfAddr": 56, 
      "lonmax": 4.647521183548935, 
      "latmin": 51.23989868125227
    }, 
    {
      "latmax": 51.274580936048054, 
      "name": "Lorkenlaan", 
      "lonmin": 4.662768729561508, 
      "sanName": "lorkenlaan", 
      "numOfAddr": 4, 
      "lonmax": 4.668575437847418, 
      "latmin": 51.274195571366505
    }, 
    {
      "latmax": 51.24234554002257, 
      "name": "Lotelinglaan", 
      "lonmin": 4.642379037539167, 
      "sanName": "lotelinglaan", 
      "numOfAddr": 48, 
      "lonmax": 4.651395546710756, 
      "latmin": 51.24075438553598
    }, 
    {
      "latmax": 51.276179413012265, 
      "name": "Maalstraat", 
      "lonmin": 4.718685599314157, 
      "sanName": "maalstraat", 
      "numOfAddr": 11, 
      "lonmax": 4.7209898427220445, 
      "latmin": 51.27483461461584
    }, 
    {
      "latmax": 51.2682577773337, 
      "name": "Manderleylaan", 
      "lonmin": 4.667053684079428, 
      "sanName": "manderleylaan", 
      "numOfAddr": 26, 
      "lonmax": 4.669647336392128, 
      "latmin": 51.2643972551598
    }, 
    {
      "latmax": 51.25135545870031, 
      "name": "Marterdreef", 
      "lonmin": 4.626204852345673, 
      "sanName": "marterdreef", 
      "numOfAddr": 1, 
      "lonmax": 4.626204852345673, 
      "latmin": 51.25135545870031
    }, 
    {
      "latmax": 51.26453349759611, 
      "name": "Mathias Joostenslaan", 
      "lonmin": 4.62137439869018, 
      "sanName": "mathiasjoostenslaan", 
      "numOfAddr": 30, 
      "lonmax": 4.6295679727527785, 
      "latmin": 51.26097716600955
    }, 
    {
      "latmax": 51.266337005867584, 
      "name": "Medelaar", 
      "lonmin": 4.6464779527552045, 
      "sanName": "medelaar", 
      "numOfAddr": 118, 
      "lonmax": 4.654789210470284, 
      "latmin": 51.248077031605845
    }, 
    {
      "latmax": 51.27772084203422, 
      "name": "Meerheide", 
      "lonmin": 4.698591455942304, 
      "sanName": "meerheide", 
      "numOfAddr": 26, 
      "lonmax": 4.708335127498358, 
      "latmin": 51.27661239599045
    }, 
    {
      "latmax": 51.27657989804648, 
      "name": "Meerheideweg", 
      "lonmin": 4.69739244764124, 
      "sanName": "meerheideweg", 
      "numOfAddr": 47, 
      "lonmax": 4.7078766245995665, 
      "latmin": 51.27286240758218
    }, 
    {
      "latmax": 51.26787803551042, 
      "name": "Meester de Beenhouwerstraat", 
      "lonmin": 4.706021686370858, 
      "sanName": "meesterdebeenhouwerstraat", 
      "numOfAddr": 31, 
      "lonmax": 4.707206256908564, 
      "latmin": 51.2657094688808
    }, 
    {
      "latmax": 51.274198602082095, 
      "name": "Meidoornlaan", 
      "lonmin": 4.651644834093689, 
      "sanName": "meidoornlaan", 
      "numOfAddr": 12, 
      "lonmax": 4.652618318964495, 
      "latmin": 51.272764996555196
    }, 
    {
      "latmax": 51.260265384876256, 
      "name": "Melkweg", 
      "lonmin": 4.652236141029498, 
      "sanName": "melkweg", 
      "numOfAddr": 38, 
      "lonmax": 4.655097697046812, 
      "latmin": 51.25740974125312
    }, 
    {
      "latmax": 51.25088416287442, 
      "name": "Mereldreef", 
      "lonmin": 4.61526816191874, 
      "sanName": "mereldreef", 
      "numOfAddr": 15, 
      "lonmax": 4.6176402545327875, 
      "latmin": 51.24854731069107
    }, 
    {
      "latmax": 51.26830674794403, 
      "name": "Middeldreef", 
      "lonmin": 4.6811871556078835, 
      "sanName": "middeldreef", 
      "numOfAddr": 2, 
      "lonmax": 4.686609314888626, 
      "latmin": 51.261632117914765
    }, 
    {
      "latmax": 51.24508203377106, 
      "name": "Middenstuk", 
      "lonmin": 4.657378432576327, 
      "sanName": "middenstuk", 
      "numOfAddr": 5, 
      "lonmax": 4.665035371411084, 
      "latmin": 51.244137052763115
    }, 
    {
      "latmax": 51.26663780059481, 
      "name": "Mie-Manstraat", 
      "lonmin": 4.709004611189844, 
      "sanName": "miemanstraat", 
      "numOfAddr": 9, 
      "lonmax": 4.710207719536907, 
      "latmin": 51.266002400508185
    }, 
    {
      "latmax": 51.27359959131962, 
      "name": "Molenbaan", 
      "lonmin": 4.712954989490408, 
      "sanName": "molenbaan", 
      "numOfAddr": 12, 
      "lonmax": 4.713994416567195, 
      "latmin": 51.2720911654027
    }, 
    {
      "latmax": 51.27781250518881, 
      "name": "Molenheide", 
      "lonmin": 4.710460929764422, 
      "sanName": "molenheide", 
      "numOfAddr": 24, 
      "lonmax": 4.71205220574716, 
      "latmin": 51.27544617545984
    }, 
    {
      "latmax": 51.2684614645951, 
      "name": "Monnikendreef", 
      "lonmin": 4.68819682677107, 
      "sanName": "monnikendreef", 
      "numOfAddr": 15, 
      "lonmax": 4.697993790285819, 
      "latmin": 51.2608706009504
    }, 
    {
      "latmax": 51.2645068580081, 
      "name": "Monnikenheide", 
      "lonmin": 4.696817948401479, 
      "sanName": "monnikenheide", 
      "numOfAddr": 8, 
      "lonmax": 4.698602136551109, 
      "latmin": 51.263806042778036
    }, 
    {
      "latmax": 51.27644195062963, 
      "name": "Mostheuvelstraat", 
      "lonmin": 4.6602310330235825, 
      "sanName": "mostheuvelstraat", 
      "numOfAddr": 7, 
      "lonmax": 4.667498525051125, 
      "latmin": 51.27599451847138
    }, 
    {
      "latmax": 51.25177976327569, 
      "name": "Nachtegalendreef", 
      "lonmin": 4.616241114886129, 
      "sanName": "nachtegalendreef", 
      "numOfAddr": 26, 
      "lonmax": 4.620950873791666, 
      "latmin": 51.24833560645845
    }, 
    {
      "latmax": 51.27384150856258, 
      "name": "Nieuwedreef", 
      "lonmin": 4.65720708229365, 
      "sanName": "nieuwedreef", 
      "numOfAddr": 11, 
      "lonmax": 4.658438028112936, 
      "latmin": 51.27229856859635
    }, 
    {
      "latmax": 51.24496594479505, 
      "name": "Nieuwheide", 
      "lonmin": 4.652903036716159, 
      "sanName": "nieuwheide", 
      "numOfAddr": 1, 
      "lonmax": 4.652903036716159, 
      "latmin": 51.24496594479505
    }, 
    {
      "latmax": 51.27104206946003, 
      "name": "Nieuwstraat", 
      "lonmin": 4.635360502650738, 
      "sanName": "nieuwstraat", 
      "numOfAddr": 27, 
      "lonmax": 4.637388536252525, 
      "latmin": 51.26918035121221
    }, 
    {
      "latmax": 51.27282708307411, 
      "name": "Oase", 
      "lonmin": 4.626144696907215, 
      "sanName": "oase", 
      "numOfAddr": 4, 
      "lonmax": 4.627146611144375, 
      "latmin": 51.272030065185774
    }, 
    {
      "latmax": 51.275562987794764, 
      "name": "Olmenlei", 
      "lonmin": 4.651640152042303, 
      "sanName": "olmenlei", 
      "numOfAddr": 52, 
      "lonmax": 4.67112688766229, 
      "latmin": 51.27345927942663
    }, 
    {
      "latmax": 51.27894481177018, 
      "name": "Olympiadelaan", 
      "lonmin": 4.626678666201785, 
      "sanName": "olympiadelaan", 
      "numOfAddr": 15, 
      "lonmax": 4.628357483903695, 
      "latmin": 51.27783552601776
    }, 
    {
      "latmax": 51.255753143514156, 
      "name": "Oosterenberg", 
      "lonmin": 4.703458561775851, 
      "sanName": "oosterenberg", 
      "numOfAddr": 8, 
      "lonmax": 4.705939050255268, 
      "latmin": 51.25410370999223
    }, 
    {
      "latmax": 51.280358753449654, 
      "name": "Oostmallebaan", 
      "lonmin": 4.713667981426608, 
      "sanName": "oostmallebaan", 
      "numOfAddr": 68, 
      "lonmax": 4.7210032846393295, 
      "latmin": 51.270620103102765
    }, 
    {
      "latmax": 51.25509959460556, 
      "name": "Orchidee\u0089nlaan", 
      "lonmin": 4.640887758160162, 
      "sanName": "orchideenlaan", 
      "numOfAddr": 21, 
      "lonmax": 4.642095837178457, 
      "latmin": 51.25207156990364
    }, 
    {
      "latmax": 51.25561889313651, 
      "name": "Otterdreef", 
      "lonmin": 4.621631033215966, 
      "sanName": "otterdreef", 
      "numOfAddr": 25, 
      "lonmax": 4.625854761990645, 
      "latmin": 51.252265826856586
    }, 
    {
      "latmax": 51.25387257385296, 
      "name": "Oude Baan", 
      "lonmin": 4.610246469605722, 
      "sanName": "oudebaan", 
      "numOfAddr": 8, 
      "lonmax": 4.613369738465004, 
      "latmin": 51.25363210564522
    }, 
    {
      "latmax": 51.24746466720198, 
      "name": "Oude Heide", 
      "lonmin": 4.647474386631429, 
      "sanName": "oudeheide", 
      "numOfAddr": 12, 
      "lonmax": 4.64864616716313, 
      "latmin": 51.246437445728354
    }, 
    {
      "latmax": 51.2615030109625, 
      "name": "Oudstrijderslaan", 
      "lonmin": 4.652544002505997, 
      "sanName": "oudstrijderslaan", 
      "numOfAddr": 64, 
      "lonmax": 4.656436125904333, 
      "latmin": 51.25781213944508
    }, 
    {
      "latmax": 51.2392418906439, 
      "name": "Paardenmarkt", 
      "lonmin": 4.641447382312697, 
      "sanName": "paardenmarkt", 
      "numOfAddr": 30, 
      "lonmax": 4.643918661155658, 
      "latmin": 51.23521883017013
    }, 
    {
      "latmax": 51.23874499341484, 
      "name": "Paddenklank", 
      "lonmin": 4.6356486380767805, 
      "sanName": "paddenklank", 
      "numOfAddr": 18, 
      "lonmax": 4.6367442818331766, 
      "latmin": 51.236557282705256
    }, 
    {
      "latmax": 51.241956559739336, 
      "name": "Pannenhuisstraat", 
      "lonmin": 4.6310159754761795, 
      "sanName": "pannenhuisstraat", 
      "numOfAddr": 4, 
      "lonmax": 4.632213663174195, 
      "latmin": 51.24117391437608
    }, 
    {
      "latmax": 51.256810529397455, 
      "name": "Parklaan", 
      "lonmin": 4.6908155498373745, 
      "sanName": "parklaan", 
      "numOfAddr": 18, 
      "lonmax": 4.692281117833434, 
      "latmin": 51.253883461409444
    }, 
    {
      "latmax": 51.26929940077431, 
      "name": "Pastoor Doxlaan", 
      "lonmin": 4.707871159678001, 
      "sanName": "pastoordoxlaan", 
      "numOfAddr": 14, 
      "lonmax": 4.709361055026883, 
      "latmin": 51.26850783117574
    }, 
    {
      "latmax": 51.26755532283962, 
      "name": "Pastorijstraat", 
      "lonmin": 4.707498547443502, 
      "sanName": "pastorijstraat", 
      "numOfAddr": 17, 
      "lonmax": 4.7084173237660805, 
      "latmin": 51.26578134308442
    }, 
    {
      "latmax": 51.257957509556306, 
      "name": "Paul Edwinlaan", 
      "lonmin": 4.6625264880264305, 
      "sanName": "pauledwinlaan", 
      "numOfAddr": 14, 
      "lonmax": 4.667486912587085, 
      "latmin": 51.25533368200257
    }, 
    {
      "latmax": 51.243076275227494, 
      "name": "Peggerstraat", 
      "lonmin": 4.652353364278275, 
      "sanName": "peggerstraat", 
      "numOfAddr": 28, 
      "lonmax": 4.6694047398441585, 
      "latmin": 51.24039961551744
    }, 
    {
      "latmax": 51.27138672488482, 
      "name": "Pijlstraat", 
      "lonmin": 4.707500993776691, 
      "sanName": "pijlstraat", 
      "numOfAddr": 22, 
      "lonmax": 4.711337003118646, 
      "latmin": 51.270361002733694
    }, 
    {
      "latmax": 51.24071946331041, 
      "name": "Pittinckxlaan", 
      "lonmin": 4.65505839305837, 
      "sanName": "pittinckxlaan", 
      "numOfAddr": 8, 
      "lonmax": 4.6558966117871, 
      "latmin": 51.240047633518245
    }, 
    {
      "latmax": 51.2762111377458, 
      "name": "Platanenlaan", 
      "lonmin": 4.6569639779939624, 
      "sanName": "platanenlaan", 
      "numOfAddr": 32, 
      "lonmax": 4.663453577206558, 
      "latmin": 51.26774303489138
    }, 
    {
      "latmax": 51.271907958759805, 
      "name": "Populierenlaan", 
      "lonmin": 4.664688501616527, 
      "sanName": "populierenlaan", 
      "numOfAddr": 15, 
      "lonmax": 4.665783483503959, 
      "latmin": 51.26845741072208
    }, 
    {
      "latmax": 51.26554349242519, 
      "name": "Priorijlaan", 
      "lonmin": 4.697461693151422, 
      "sanName": "priorijlaan", 
      "numOfAddr": 16, 
      "lonmax": 4.700323122510553, 
      "latmin": 51.26401730290971
    }, 
    {
      "latmax": 51.26429946790883, 
      "name": "Processieweg", 
      "lonmin": 4.635299826729624, 
      "sanName": "processieweg", 
      "numOfAddr": 4, 
      "lonmax": 4.635645729023732, 
      "latmin": 51.264076247133104
    }, 
    {
      "latmax": 51.24155020541716, 
      "name": "Pulderbossteenweg", 
      "lonmin": 4.702296678490287, 
      "sanName": "pulderbossteenweg", 
      "numOfAddr": 4, 
      "lonmax": 4.704274005088442, 
      "latmin": 51.24032362784246
    }, 
    {
      "latmax": 51.287472660610334, 
      "name": "Raymond Delbekestraat", 
      "lonmin": 4.608407027457245, 
      "sanName": "raymonddelbekestraat", 
      "numOfAddr": 108, 
      "lonmax": 4.634199977808248, 
      "latmin": 51.25375567579811
    }, 
    {
      "latmax": 51.275057318940554, 
      "name": "Reeboklaan", 
      "lonmin": 4.699004989805237, 
      "sanName": "reeboklaan", 
      "numOfAddr": 4, 
      "lonmax": 4.699344899782145, 
      "latmin": 51.274432056131026
    }, 
    {
      "latmax": 51.23801464420754, 
      "name": "Rietakker", 
      "lonmin": 4.636947205242193, 
      "sanName": "rietakker", 
      "numOfAddr": 15, 
      "lonmax": 4.639098273147927, 
      "latmin": 51.23746559001572
    }, 
    {
      "latmax": 51.273049155994165, 
      "name": "Risschotlei", 
      "lonmin": 4.648593533606158, 
      "sanName": "risschotlei", 
      "numOfAddr": 50, 
      "lonmax": 4.6648203417800875, 
      "latmin": 51.27119109455484
    }, 
    {
      "latmax": 51.27269128679284, 
      "name": "Risschotplein", 
      "lonmin": 4.665253849185408, 
      "sanName": "risschotplein", 
      "numOfAddr": 5, 
      "lonmax": 4.666644775655253, 
      "latmin": 51.27180972412474
    }, 
    {
      "latmax": 51.26494203151489, 
      "name": "Rodenbachlaan", 
      "lonmin": 4.6523188984581125, 
      "sanName": "rodenbachlaan", 
      "numOfAddr": 31, 
      "lonmax": 4.6576121907796315, 
      "latmin": 51.26233176679666
    }, 
    {
      "latmax": 51.25305190398109, 
      "name": "Rodendijk", 
      "lonmin": 4.701912987407694, 
      "sanName": "rodendijk", 
      "numOfAddr": 21, 
      "lonmax": 4.70997116833554, 
      "latmin": 51.24539084255746
    }, 
    {
      "latmax": 51.245555738445, 
      "name": "Ronkaartweg", 
      "lonmin": 4.643794634217129, 
      "sanName": "ronkaartweg", 
      "numOfAddr": 21, 
      "lonmax": 4.645205807422519, 
      "latmin": 51.243419777584826
    }, 
    {
      "latmax": 51.258576178229255, 
      "name": "Rozenlaan", 
      "lonmin": 4.639685178861805, 
      "sanName": "rozenlaan", 
      "numOfAddr": 33, 
      "lonmax": 4.642451452131169, 
      "latmin": 51.25581360166796
    }, 
    {
      "latmax": 51.26791919548685, 
      "name": "Rubenslaan", 
      "lonmin": 4.665503750088705, 
      "sanName": "rubenslaan", 
      "numOfAddr": 20, 
      "lonmax": 4.666806528737006, 
      "latmin": 51.26511802406723
    }, 
    {
      "latmax": 51.26312349136446, 
      "name": "Ruiterslaan", 
      "lonmin": 4.64499125459415, 
      "sanName": "ruiterslaan", 
      "numOfAddr": 31, 
      "lonmax": 4.649354800541477, 
      "latmin": 51.2613200161675
    }, 
    {
      "latmax": 51.2742898488128, 
      "name": "Salphensebaan", 
      "lonmin": 4.7147367670609635, 
      "sanName": "salphensebaan", 
      "numOfAddr": 35, 
      "lonmax": 4.7238906132433165, 
      "latmin": 51.270832786829715
    }, 
    {
      "latmax": 51.261611403706965, 
      "name": "Salvialaan", 
      "lonmin": 4.632816727629392, 
      "sanName": "salvialaan", 
      "numOfAddr": 50, 
      "lonmax": 4.636940731468839, 
      "latmin": 51.258465255641916
    }, 
    {
      "latmax": 51.26153220072073, 
      "name": "Schaapskooi", 
      "lonmin": 4.690923180231695, 
      "sanName": "schaapskooi", 
      "numOfAddr": 2, 
      "lonmax": 4.6916989688556345, 
      "latmin": 51.260058616052895
    }, 
    {
      "latmax": 51.27632831222756, 
      "name": "Schaddestraat", 
      "lonmin": 4.702894090807307, 
      "sanName": "schaddestraat", 
      "numOfAddr": 19, 
      "lonmax": 4.706168296157009, 
      "latmin": 51.27554447507249
    }, 
    {
      "latmax": 51.28240745922608, 
      "name": "Schalmeidreef", 
      "lonmin": 4.718206421451447, 
      "sanName": "schalmeidreef", 
      "numOfAddr": 16, 
      "lonmax": 4.719004401748154, 
      "latmin": 51.28009609832464
    }, 
    {
      "latmax": 51.247821514177296, 
      "name": "Schegelbaan", 
      "lonmin": 4.669106258246216, 
      "sanName": "schegelbaan", 
      "numOfAddr": 1, 
      "lonmax": 4.669106258246216, 
      "latmin": 51.247821514177296
    }, 
    {
      "latmax": 51.2669357091164, 
      "name": "Schoolstraat", 
      "lonmin": 4.710853787493119, 
      "sanName": "schoolstraat", 
      "numOfAddr": 5, 
      "lonmax": 4.711826138251967, 
      "latmin": 51.26669777091013
    }, 
    {
      "latmax": 51.26846848619299, 
      "name": "Schriekbos", 
      "lonmin": 4.677003025975311, 
      "sanName": "schriekbos", 
      "numOfAddr": 106, 
      "lonmax": 4.688520577527615, 
      "latmin": 51.2571872690892
    }, 
    {
      "latmax": 51.26424352904277, 
      "name": "Sinjorendreef", 
      "lonmin": 4.661350968129231, 
      "sanName": "sinjorendreef", 
      "numOfAddr": 35, 
      "lonmax": 4.665375505478789, 
      "latmin": 51.26085917030028
    }, 
    {
      "latmax": 51.24348371281083, 
      "name": "Sint Martinusstraat", 
      "lonmin": 4.635202374887939, 
      "sanName": "sintmartinusstraat", 
      "numOfAddr": 48, 
      "lonmax": 4.64345993763952, 
      "latmin": 51.24041313452342
    }, 
    {
      "latmax": 51.26488276889061, 
      "name": "Sint-Teunisplein", 
      "lonmin": 4.632435646953053, 
      "sanName": "sintteunisplein", 
      "numOfAddr": 1, 
      "lonmax": 4.632435646953053, 
      "latmin": 51.26488276889061
    }, 
    {
      "latmax": 51.24359373202013, 
      "name": "Sjauwel", 
      "lonmin": 4.6882795632059, 
      "sanName": "sjauwel", 
      "numOfAddr": 1, 
      "lonmax": 4.6882795632059, 
      "latmin": 51.24359373202013
    }, 
    {
      "latmax": 51.261303393143905, 
      "name": "Smallestraat", 
      "lonmin": 4.6588958555467554, 
      "sanName": "smallestraat", 
      "numOfAddr": 6, 
      "lonmax": 4.659775450463412, 
      "latmin": 51.26057058383968
    }, 
    {
      "latmax": 51.27070385545372, 
      "name": "Smissestraat", 
      "lonmin": 4.704221643984579, 
      "sanName": "smissestraat", 
      "numOfAddr": 38, 
      "lonmax": 4.712312064805801, 
      "latmin": 51.26896966806824
    }, 
    {
      "latmax": 51.24001190108099, 
      "name": "Sniederspad", 
      "lonmin": 4.621615647452942, 
      "sanName": "sniederspad", 
      "numOfAddr": 58, 
      "lonmax": 4.644497000990679, 
      "latmin": 51.237025180246
    }, 
    {
      "latmax": 51.27632646569392, 
      "name": "Sparrenlaan", 
      "lonmin": 4.65818211886782, 
      "sanName": "sparrenlaan", 
      "numOfAddr": 28, 
      "lonmax": 4.665245755515537, 
      "latmin": 51.26785690297946
    }, 
    {
      "latmax": 51.27828110358568, 
      "name": "Spartalaan", 
      "lonmin": 4.6274880207338045, 
      "sanName": "spartalaan", 
      "numOfAddr": 24, 
      "lonmax": 4.62985322846025, 
      "latmin": 51.27678943082448
    }, 
    {
      "latmax": 51.248229214021066, 
      "name": "Spechtendreef", 
      "lonmin": 4.616864739307381, 
      "sanName": "spechtendreef", 
      "numOfAddr": 45, 
      "lonmax": 4.623858087913041, 
      "latmin": 51.2441464528969
    }, 
    {
      "latmax": 51.272095836330465, 
      "name": "Sporkenlaan", 
      "lonmin": 4.650860470198474, 
      "sanName": "sporkenlaan", 
      "numOfAddr": 49, 
      "lonmax": 4.654943075088554, 
      "latmin": 51.26719744596664
    }, 
    {
      "latmax": 51.2706916242259, 
      "name": "St. Antoniusbaan", 
      "lonmin": 4.645857221679436, 
      "sanName": "stantoniusbaan", 
      "numOfAddr": 125, 
      "lonmax": 4.690497123832957, 
      "latmin": 51.266504887517385
    }, 
    {
      "latmax": 51.26519871700995, 
      "name": "Stijn Streuvelslaan", 
      "lonmin": 4.651905945490969, 
      "sanName": "stijnstreuvelslaan", 
      "numOfAddr": 16, 
      "lonmax": 4.653113769644411, 
      "latmin": 51.2636895601402
    }, 
    {
      "latmax": 51.27347317922473, 
      "name": "Stoppelveld", 
      "lonmin": 4.630614323661985, 
      "sanName": "stoppelveld", 
      "numOfAddr": 59, 
      "lonmax": 4.634269391659536, 
      "latmin": 51.27034458021587
    }, 
    {
      "latmax": 51.23573253775245, 
      "name": "Tappelweg", 
      "lonmin": 4.65672744046766, 
      "sanName": "tappelweg", 
      "numOfAddr": 4, 
      "lonmax": 4.657898125351125, 
      "latmin": 51.23535456213852
    }, 
    {
      "latmax": 51.25747709228771, 
      "name": "Ten Boslaan", 
      "lonmin": 4.692522847647161, 
      "sanName": "tenboslaan", 
      "numOfAddr": 20, 
      "lonmax": 4.69423633366217, 
      "latmin": 51.25387996842918
    }, 
    {
      "latmax": 51.26765583064074, 
      "name": "Ten Halvelaan", 
      "lonmin": 4.663649673784002, 
      "sanName": "tenhalvelaan", 
      "numOfAddr": 15, 
      "lonmax": 4.66484039842712, 
      "latmin": 51.265272903611205
    }, 
    {
      "latmax": 51.25754293216958, 
      "name": "Ten Hoflaan", 
      "lonmin": 4.690189066885057, 
      "sanName": "tenhoflaan", 
      "numOfAddr": 13, 
      "lonmax": 4.693175767263739, 
      "latmin": 51.25403508944996
    }, 
    {
      "latmax": 51.25829018075348, 
      "name": "Ten Otter", 
      "lonmin": 4.6246725332725775, 
      "sanName": "tenotter", 
      "numOfAddr": 45, 
      "lonmax": 4.628622255805327, 
      "latmin": 51.25615277187059
    }, 
    {
      "latmax": 51.26455481563632, 
      "name": "Ter Beuken", 
      "lonmin": 4.641053783320273, 
      "sanName": "terbeuken", 
      "numOfAddr": 1, 
      "lonmax": 4.641053783320273, 
      "latmin": 51.26455481563632
    }, 
    {
      "latmax": 51.279726541236194, 
      "name": "Tortelstraat", 
      "lonmin": 4.714790166421808, 
      "sanName": "tortelstraat", 
      "numOfAddr": 9, 
      "lonmax": 4.716467735614176, 
      "latmin": 51.27872723770486
    }, 
    {
      "latmax": 51.256482430237654, 
      "name": "Tulpenlaan", 
      "lonmin": 4.641409873544618, 
      "sanName": "tulpenlaan", 
      "numOfAddr": 9, 
      "lonmax": 4.642748336631822, 
      "latmin": 51.25582918106735
    }, 
    {
      "latmax": 51.27700963645422, 
      "name": "Turfstraat", 
      "lonmin": 4.705968809182929, 
      "sanName": "turfstraat", 
      "numOfAddr": 28, 
      "lonmax": 4.707049120710016, 
      "latmin": 51.27371889722708
    }, 
    {
      "latmax": 51.24882490376525, 
      "name": "Uilendreef", 
      "lonmin": 4.616106677031749, 
      "sanName": "uilendreef", 
      "numOfAddr": 28, 
      "lonmax": 4.623067469233924, 
      "latmin": 51.24575946417926
    }, 
    {
      "latmax": 51.25873052088434, 
      "name": "Uitweg", 
      "lonmin": 4.7234709498184415, 
      "sanName": "uitweg", 
      "numOfAddr": 3, 
      "lonmax": 4.725665710081211, 
      "latmin": 51.258322129278575
    }, 
    {
      "latmax": 51.26886339584778, 
      "name": "Valerialaan", 
      "lonmin": 4.652579705970122, 
      "sanName": "valerialaan", 
      "numOfAddr": 14, 
      "lonmax": 4.655792920923919, 
      "latmin": 51.26816624221152
    }, 
    {
      "latmax": 51.26522195401422, 
      "name": "Van Der Graesenlaan", 
      "lonmin": 4.660229694434973, 
      "sanName": "vandergraesenlaan", 
      "numOfAddr": 32, 
      "lonmax": 4.663139329223829, 
      "latmin": 51.26210552581604
    }, 
    {
      "latmax": 51.27931084515471, 
      "name": "Veldstraat", 
      "lonmin": 4.694087093218865, 
      "sanName": "veldstraat", 
      "numOfAddr": 19, 
      "lonmax": 4.69814735787026, 
      "latmin": 51.2703068872545
    }, 
    {
      "latmax": 51.236196541698625, 
      "name": "Velsterheide", 
      "lonmin": 4.635806980847994, 
      "sanName": "velsterheide", 
      "numOfAddr": 9, 
      "lonmax": 4.638392616377437, 
      "latmin": 51.23184355590502
    }, 
    {
      "latmax": 51.27447345339962, 
      "name": "Vennenlaan", 
      "lonmin": 4.698214130983672, 
      "sanName": "vennenlaan", 
      "numOfAddr": 21, 
      "lonmax": 4.707054186138438, 
      "latmin": 51.27215063733244
    }, 
    {
      "latmax": 51.24579795367384, 
      "name": "Verscheurde Hoeve", 
      "lonmin": 4.647712863977969, 
      "sanName": "verscheurdehoeve", 
      "numOfAddr": 20, 
      "lonmax": 4.648900937103874, 
      "latmin": 51.24398848522367
    }, 
    {
      "latmax": 51.26899980027318, 
      "name": "Victorielaan", 
      "lonmin": 4.642784836654443, 
      "sanName": "victorielaan", 
      "numOfAddr": 22, 
      "lonmax": 4.6439038638706345, 
      "latmin": 51.26733504008332
    }, 
    {
      "latmax": 51.26057127659294, 
      "name": "Violetlaan", 
      "lonmin": 4.641103168945968, 
      "sanName": "violetlaan", 
      "numOfAddr": 53, 
      "lonmax": 4.64388979468588, 
      "latmin": 51.2533533209456
    }, 
    {
      "latmax": 51.23909210225886, 
      "name": "Vlasgaard", 
      "lonmin": 4.641308985207777, 
      "sanName": "vlasgaard", 
      "numOfAddr": 29, 
      "lonmax": 4.641980223810124, 
      "latmin": 51.23752033922153
    }, 
    {
      "latmax": 51.23783283207501, 
      "name": "Vlust", 
      "lonmin": 4.63146282397078, 
      "sanName": "vlust", 
      "numOfAddr": 10, 
      "lonmax": 4.634366219897354, 
      "latmin": 51.23554068114263
    }, 
    {
      "latmax": 51.275961061463214, 
      "name": "Voetbalstraat", 
      "lonmin": 4.712611487815007, 
      "sanName": "voetbalstraat", 
      "numOfAddr": 37, 
      "lonmax": 4.715185618841429, 
      "latmin": 51.273384306998054
    }, 
    {
      "latmax": 51.239430090657656, 
      "name": "Vogelzang", 
      "lonmin": 4.645593219519731, 
      "sanName": "vogelzang", 
      "numOfAddr": 43, 
      "lonmax": 4.650419795744907, 
      "latmin": 51.23428138147446
    }, 
    {
      "latmax": 51.269331099648774, 
      "name": "Voorne", 
      "lonmin": 4.692415185569523, 
      "sanName": "voorne", 
      "numOfAddr": 55, 
      "lonmax": 4.705904914124577, 
      "latmin": 51.26812861214624
    }, 
    {
      "latmax": 51.262422684744315, 
      "name": "Voorste Hoeven", 
      "lonmin": 4.707574475691796, 
      "sanName": "voorstehoeven", 
      "numOfAddr": 6, 
      "lonmax": 4.709449849013364, 
      "latmin": 51.26182262568834
    }, 
    {
      "latmax": 51.24882070858023, 
      "name": "Vorse Beemden", 
      "lonmin": 4.644107088585743, 
      "sanName": "vorsebeemden", 
      "numOfAddr": 5, 
      "lonmax": 4.645060899053504, 
      "latmin": 51.24764901121106
    }, 
    {
      "latmax": 51.27170900452754, 
      "name": "Vrijgeweide", 
      "lonmin": 4.630249933486702, 
      "sanName": "vrijgeweide", 
      "numOfAddr": 38, 
      "lonmax": 4.63345036851778, 
      "latmin": 51.269629016925876
    }, 
    {
      "latmax": 51.259005525273594, 
      "name": "Wandelweg", 
      "lonmin": 4.633432071799193, 
      "sanName": "wandelweg", 
      "numOfAddr": 95, 
      "lonmax": 4.646586254535264, 
      "latmin": 51.250903482561284
    }, 
    {
      "latmax": 51.25621538943986, 
      "name": "Warandelaan", 
      "lonmin": 4.6945624489477735, 
      "sanName": "warandelaan", 
      "numOfAddr": 8, 
      "lonmax": 4.69556511270267, 
      "latmin": 51.25384564561741
    }, 
    {
      "latmax": 51.24094299438889, 
      "name": "Watermolen", 
      "lonmin": 4.625874966358778, 
      "sanName": "watermolen", 
      "numOfAddr": 14, 
      "lonmax": 4.635682641144635, 
      "latmin": 51.239187311803796
    }, 
    {
      "latmax": 51.28276461612741, 
      "name": "Westmallebaan", 
      "lonmin": 4.706230288140345, 
      "sanName": "westmallebaan", 
      "numOfAddr": 70, 
      "lonmax": 4.713426683891188, 
      "latmin": 51.27094834119392
    }, 
    {
      "latmax": 51.27568932180602, 
      "name": "Wilgenlaan", 
      "lonmin": 4.665989425051292, 
      "sanName": "wilgenlaan", 
      "numOfAddr": 5, 
      "lonmax": 4.666945984390409, 
      "latmin": 51.27317789491209
    }, 
    {
      "latmax": 51.24368247787471, 
      "name": "Winkelhoeve", 
      "lonmin": 4.63676539526602, 
      "sanName": "winkelhoeve", 
      "numOfAddr": 10, 
      "lonmax": 4.637997220374568, 
      "latmin": 51.242941652393384
    }, 
    {
      "latmax": 51.27171239332489, 
      "name": "Withoevelaan", 
      "lonmin": 4.646786352115405, 
      "sanName": "withoevelaan", 
      "numOfAddr": 27, 
      "lonmax": 4.65054673310297, 
      "latmin": 51.269501299627734
    }, 
    {
      "latmax": 51.26748103254791, 
      "name": "Zandstraat", 
      "lonmin": 4.709703339933918, 
      "sanName": "zandstraat", 
      "numOfAddr": 107, 
      "lonmax": 4.713107449349275, 
      "latmin": 51.25502592106938
    }, 
    {
      "latmax": 51.2564353318284, 
      "name": "Zoerselbosdreef", 
      "lonmin": 4.686643602939046, 
      "sanName": "zoerselbosdreef", 
      "numOfAddr": 13, 
      "lonmax": 4.702257599326455, 
      "latmin": 51.25108661238413
    }, 
    {
      "latmax": 51.2625623301039, 
      "name": "Zoerselhoek", 
      "lonmin": 4.6514303380758415, 
      "sanName": "zoerselhoek", 
      "numOfAddr": 63, 
      "lonmax": 4.65910636084472, 
      "latmin": 51.258736365636416
    }, 
    {
      "latmax": 51.2585945519875, 
      "name": "Zoerselhofdreef", 
      "lonmin": 4.700707322798239, 
      "sanName": "zoerselhofdreef", 
      "numOfAddr": 10, 
      "lonmax": 4.707450620101403, 
      "latmin": 51.25597874193905
    }, 
    {
      "latmax": 51.267308686270994, 
      "name": "Zoerselsteenweg", 
      "lonmin": 4.639135830008665, 
      "sanName": "zoerselsteenweg", 
      "numOfAddr": 62, 
      "lonmax": 4.646136999567028, 
      "latmin": 51.26659748912486
    }, 
    {
      "latmax": 51.26118161538833, 
      "name": "Zonnebloemlaan", 
      "lonmin": 4.634299768179058, 
      "sanName": "zonnebloemlaan", 
      "numOfAddr": 50, 
      "lonmax": 4.638262115304894, 
      "latmin": 51.25779055575854
    }, 
    {
      "latmax": 51.274420872111335, 
      "name": "Zonneputteke", 
      "lonmin": 4.716286876064219, 
      "sanName": "zonneputteke", 
      "numOfAddr": 5, 
      "lonmax": 4.7182631203287295, 
      "latmin": 51.273245418916396
    }, 
    {
      "latmax": 51.237113620146445, 
      "name": "Zonstraat", 
      "lonmin": 4.647497060025936, 
      "sanName": "zonstraat", 
      "numOfAddr": 4, 
      "lonmax": 4.649375925755556, 
      "latmin": 51.23684448546361
    }
  ]
}