{
  "streets": [
    {
      "latmax": 50.86197947265563, 
      "name": "Abdijstraat", 
      "lonmin": 4.712383918673704, 
      "sanName": "abdijstraat", 
      "numOfAddr": 42, 
      "lonmax": 4.724831355271043, 
      "latmin": 50.85918384372628
    }, 
    {
      "latmax": 50.864618912291775, 
      "name": "Abdij van Park", 
      "lonmin": 4.713275527727181, 
      "sanName": "abdijvanpark", 
      "numOfAddr": 8, 
      "lonmax": 4.717114754831948, 
      "latmin": 50.86414598023403
    }, 
    {
      "latmax": 50.8720543098068, 
      "name": "Adjudant Harboortstraat", 
      "lonmin": 4.720114699915633, 
      "sanName": "adjudantharboortstraat", 
      "numOfAddr": 49, 
      "lonmax": 4.720683840822033, 
      "latmin": 50.870997857336306
    }, 
    {
      "latmax": 50.85992784348866, 
      "name": "Alaudastraat", 
      "lonmin": 4.705485440345068, 
      "sanName": "alaudastraat", 
      "numOfAddr": 9, 
      "lonmax": 4.706121569016055, 
      "latmin": 50.85946552294604
    }, 
    {
      "latmax": 50.871029981264684, 
      "name": "Albert Stainierstraat", 
      "lonmin": 4.722231433054967, 
      "sanName": "albertstainierstraat", 
      "numOfAddr": 39, 
      "lonmax": 4.72326397039053, 
      "latmin": 50.870363252329994
    }, 
    {
      "latmax": 50.87276227921231, 
      "name": "Alfred Delaunoislaan", 
      "lonmin": 4.716265226350882, 
      "sanName": "alfreddelaunoislaan", 
      "numOfAddr": 19, 
      "lonmax": 4.717057432438774, 
      "latmin": 50.87199917405045
    }, 
    {
      "latmax": 50.86934006700067, 
      "name": "Alsembergstraat", 
      "lonmin": 4.648416143087548, 
      "sanName": "alsembergstraat", 
      "numOfAddr": 13, 
      "lonmax": 4.651178453847855, 
      "latmin": 50.8689791970179
    }, 
    {
      "latmax": 50.85129135204203, 
      "name": "Ambachtenlaan", 
      "lonmin": 4.714697267503253, 
      "sanName": "ambachtenlaan", 
      "numOfAddr": 38, 
      "lonmax": 4.720184988127316, 
      "latmin": 50.8459237095728
    }, 
    {
      "latmax": 50.85910475540462, 
      "name": "Antonia van Roesmaelelaan", 
      "lonmin": 4.653415794449829, 
      "sanName": "antoniavanroesmaelelaan", 
      "numOfAddr": 9, 
      "lonmax": 4.655059756153875, 
      "latmin": 50.858474965484
    }, 
    {
      "latmax": 50.85887460682978, 
      "name": "Antonius Rodolphestraat", 
      "lonmin": 4.647556808521501, 
      "sanName": "antoniusrodolphestraat", 
      "numOfAddr": 5, 
      "lonmax": 4.648261307195595, 
      "latmin": 50.858798887390066
    }, 
    {
      "latmax": 50.86126496199405, 
      "name": "Armand Thi\u0082rylaan", 
      "lonmin": 4.707765215855328, 
      "sanName": "armandthirylaan", 
      "numOfAddr": 68, 
      "lonmax": 4.712223856607301, 
      "latmin": 50.85968803764367
    }, 
    {
      "latmax": 50.869382509450425, 
      "name": "Arthur Meulemanslaan", 
      "lonmin": 4.673325784257773, 
      "sanName": "arthurmeulemanslaan", 
      "numOfAddr": 17, 
      "lonmax": 4.674211419384198, 
      "latmin": 50.868468642225636
    }, 
    {
      "latmax": 50.86476980372808, 
      "name": "Beeklaan", 
      "lonmin": 4.708871725258851, 
      "sanName": "beeklaan", 
      "numOfAddr": 13, 
      "lonmax": 4.709269254274254, 
      "latmin": 50.86423395966375
    }, 
    {
      "latmax": 50.8575961474043, 
      "name": "Berkenhoflaan", 
      "lonmin": 4.693074222746085, 
      "sanName": "berkenhoflaan", 
      "numOfAddr": 19, 
      "lonmax": 4.69445791393109, 
      "latmin": 50.856014663406214
    }, 
    {
      "latmax": 50.87196320262186, 
      "name": "Bertemstraat", 
      "lonmin": 4.659158268155188, 
      "sanName": "bertemstraat", 
      "numOfAddr": 23, 
      "lonmax": 4.662869977219881, 
      "latmin": 50.87074200499936
    }, 
    {
      "latmax": 50.84915826940681, 
      "name": "Berthe Gottignystraat", 
      "lonmin": 4.695975106212429, 
      "sanName": "berthegottignystraat", 
      "numOfAddr": 6, 
      "lonmax": 4.697372584575943, 
      "latmin": 50.84851911937431
    }, 
    {
      "latmax": 50.85546104339177, 
      "name": "Beukenlaan", 
      "lonmin": 4.682172611528624, 
      "sanName": "beukenlaan", 
      "numOfAddr": 30, 
      "lonmax": 4.6869466112065785, 
      "latmin": 50.85340117170749
    }, 
    {
      "latmax": 50.84901376939946, 
      "name": "Bierbeekpleindreef", 
      "lonmin": 4.708947793920584, 
      "sanName": "bierbeekpleindreef", 
      "numOfAddr": 2, 
      "lonmax": 4.709156847840561, 
      "latmin": 50.8483050976125
    }, 
    {
      "latmax": 50.87329772197278, 
      "name": "Bierbeekstraat", 
      "lonmin": 4.714668030127928, 
      "sanName": "bierbeekstraat", 
      "numOfAddr": 100, 
      "lonmax": 4.717868185809197, 
      "latmin": 50.87113912204846
    }, 
    {
      "latmax": 50.866878094323326, 
      "name": "Bloemenlaan", 
      "lonmin": 4.704939505699787, 
      "sanName": "bloemenlaan", 
      "numOfAddr": 17, 
      "lonmax": 4.705937563465057, 
      "latmin": 50.86615508131117
    }, 
    {
      "latmax": 50.870972840199485, 
      "name": "Boogschuttersstraat", 
      "lonmin": 4.723457906918489, 
      "sanName": "boogschuttersstraat", 
      "numOfAddr": 35, 
      "lonmax": 4.7245749872903255, 
      "latmin": 50.87028106663385
    }, 
    {
      "latmax": 50.855905693992774, 
      "name": "Boskantlaan", 
      "lonmin": 4.682267887694516, 
      "sanName": "boskantlaan", 
      "numOfAddr": 8, 
      "lonmax": 4.683250749472177, 
      "latmin": 50.85502540566723
    }, 
    {
      "latmax": 50.85532141766551, 
      "name": "Brabantlaan", 
      "lonmin": 4.728426016422116, 
      "sanName": "brabantlaan", 
      "numOfAddr": 1, 
      "lonmax": 4.728426016422116, 
      "latmin": 50.85532141766551
    }, 
    {
      "latmax": 50.858269193982245, 
      "name": "Bredeweg", 
      "lonmin": 4.653608128706047, 
      "sanName": "bredeweg", 
      "numOfAddr": 4, 
      "lonmax": 4.654501023110754, 
      "latmin": 50.85785569395741
    }, 
    {
      "latmax": 50.871498028526965, 
      "name": "Bremstraat", 
      "lonmin": 4.650338773859206, 
      "sanName": "bremstraat", 
      "numOfAddr": 11, 
      "lonmax": 4.6512845365416595, 
      "latmin": 50.8702757465874
    }, 
    {
      "latmax": 50.867751918691, 
      "name": "Broekstraat", 
      "lonmin": 4.700066038321544, 
      "sanName": "broekstraat", 
      "numOfAddr": 179, 
      "lonmax": 4.710760190527138, 
      "latmin": 50.86412072618653
    }, 
    {
      "latmax": 50.863373275666774, 
      "name": "Bronlaan", 
      "lonmin": 4.705404273701371, 
      "sanName": "bronlaan", 
      "numOfAddr": 39, 
      "lonmax": 4.709142531793187, 
      "latmin": 50.86283979736989
    }, 
    {
      "latmax": 50.87098519048206, 
      "name": "Brugstraat", 
      "lonmin": 4.720322103644575, 
      "sanName": "brugstraat", 
      "numOfAddr": 105, 
      "lonmax": 4.7224004105601995, 
      "latmin": 50.868557892953504
    }, 
    {
      "latmax": 50.866069416288745, 
      "name": "Burgemeester Stanislas De Rijcklaan", 
      "lonmin": 4.698074261197225, 
      "sanName": "burgemeesterstanislasderijcklaan", 
      "numOfAddr": 24, 
      "lonmax": 4.7016727946045105, 
      "latmin": 50.865247205530096
    }, 
    {
      "latmax": 50.873544280491686, 
      "name": "Celestijnenlaan", 
      "lonmin": 4.671530843958607, 
      "sanName": "celestijnenlaan", 
      "numOfAddr": 89, 
      "lonmax": 4.682450629220302, 
      "latmin": 50.860913608823154
    }, 
    {
      "latmax": 50.86054381871746, 
      "name": "Dellenhof", 
      "lonmin": 4.647758735926716, 
      "sanName": "dellenhof", 
      "numOfAddr": 22, 
      "lonmax": 4.648389451850122, 
      "latmin": 50.85916797691324
    }, 
    {
      "latmax": 50.861681806573664, 
      "name": "Doleegstraat", 
      "lonmin": 4.648589000354159, 
      "sanName": "doleegstraat", 
      "numOfAddr": 42, 
      "lonmax": 4.658510855078424, 
      "latmin": 50.86059143637019
    }, 
    {
      "latmax": 50.86670117898726, 
      "name": "Dreefstraat", 
      "lonmin": 4.695364143692869, 
      "sanName": "dreefstraat", 
      "numOfAddr": 5, 
      "lonmax": 4.6955114179038056, 
      "latmin": 50.86601317505198
    }, 
    {
      "latmax": 50.86215876682521, 
      "name": "Duinberglaan", 
      "lonmin": 4.702143092341209, 
      "sanName": "duinberglaan", 
      "numOfAddr": 93, 
      "lonmax": 4.705562403196626, 
      "latmin": 50.86081649787794
    }, 
    {
      "latmax": 50.859785101062386, 
      "name": "Duisburgsestraat", 
      "lonmin": 4.648652701397348, 
      "sanName": "duisburgsestraat", 
      "numOfAddr": 15, 
      "lonmax": 4.649186831440034, 
      "latmin": 50.858819002017555
    }, 
    {
      "latmax": 50.85950692186564, 
      "name": "Eburonenlaan", 
      "lonmin": 4.689836122430392, 
      "sanName": "eburonenlaan", 
      "numOfAddr": 22, 
      "lonmax": 4.691914783161153, 
      "latmin": 50.85788182343142
    }, 
    {
      "latmax": 50.875236609592434, 
      "name": "Egenhovenweg", 
      "lonmin": 4.674477829848813, 
      "sanName": "egenhovenweg", 
      "numOfAddr": 34, 
      "lonmax": 4.677773297908327, 
      "latmin": 50.872310430848714
    }, 
    {
      "latmax": 50.86923713131918, 
      "name": "Emiel Hullebroecklaan", 
      "lonmin": 4.675422565777168, 
      "sanName": "emielhullebroecklaan", 
      "numOfAddr": 22, 
      "lonmax": 4.676595293482571, 
      "latmin": 50.868247187769555
    }, 
    {
      "latmax": 50.86777287174326, 
      "name": "Erasme Ruelenspark", 
      "lonmin": 4.698598722687104, 
      "sanName": "erasmeruelenspark", 
      "numOfAddr": 35, 
      "lonmax": 4.699944662522014, 
      "latmin": 50.865966914240296
    }, 
    {
      "latmax": 50.868815259199664, 
      "name": "Erasme Ruelensvest", 
      "lonmin": 4.698642101889574, 
      "sanName": "erasmeruelensvest", 
      "numOfAddr": 89, 
      "lonmax": 4.707958540783163, 
      "latmin": 50.867348377734146
    }, 
    {
      "latmax": 50.85315362922508, 
      "name": "Esperantolaan", 
      "lonmin": 4.725775251420229, 
      "sanName": "esperantolaan", 
      "numOfAddr": 5, 
      "lonmax": 4.728438628854956, 
      "latmin": 50.85164532921432
    }, 
    {
      "latmax": 50.85585264265468, 
      "name": "Evenementenlaan", 
      "lonmin": 2.306689562140502, 
      "sanName": "evenementenlaan", 
      "numOfAddr": 3, 
      "lonmax": 4.733905655011901, 
      "latmin": 49.293335165093566
    }, 
    {
      "latmax": 50.86988935534144, 
      "name": "Ferdinand Verbiestlaan", 
      "lonmin": 4.667985739897074, 
      "sanName": "ferdinandverbiestlaan", 
      "numOfAddr": 18, 
      "lonmax": 4.670057542673869, 
      "latmin": 50.86858483514765
    }, 
    {
      "latmax": 50.85295736802423, 
      "name": "Filosofenlaan", 
      "lonmin": 4.679506917263976, 
      "sanName": "filosofenlaan", 
      "numOfAddr": 7, 
      "lonmax": 4.680991075453885, 
      "latmin": 50.85223244322065
    }, 
    {
      "latmax": 50.84996147861914, 
      "name": "Frans Cnopslaan", 
      "lonmin": 4.691639186699994, 
      "sanName": "franscnopslaan", 
      "numOfAddr": 13, 
      "lonmax": 4.69325868476635, 
      "latmin": 50.84919677656265
    }, 
    {
      "latmax": 50.87099008220178, 
      "name": "Gaston Feremanslaan", 
      "lonmin": 4.671731840236819, 
      "sanName": "gastonferemanslaan", 
      "numOfAddr": 26, 
      "lonmax": 4.673218749837726, 
      "latmin": 50.86939348103596
    }, 
    {
      "latmax": 50.866185775037984, 
      "name": "Gaston Geenslaan", 
      "lonmin": 4.668686553116941, 
      "sanName": "gastongeenslaan", 
      "numOfAddr": 6, 
      "lonmax": 4.674175232296025, 
      "latmin": 50.864899688098305
    }, 
    {
      "latmax": 50.86885474154147, 
      "name": "Geldenaaksebaan", 
      "lonmin": 4.708045342028342, 
      "sanName": "geldenaaksebaan", 
      "numOfAddr": 279, 
      "lonmax": 4.7278792311433255, 
      "latmin": 50.84508232220713
    }, 
    {
      "latmax": 50.866164028319254, 
      "name": "Goede Haardlaan", 
      "lonmin": 4.704570134599082, 
      "sanName": "goedehaardlaan", 
      "numOfAddr": 17, 
      "lonmax": 4.706647534707568, 
      "latmin": 50.86537507648662
    }, 
    {
      "latmax": 50.871323535714595, 
      "name": "Goswin III-Laan", 
      "lonmin": 4.668796874265227, 
      "sanName": "goswiniiilaan", 
      "numOfAddr": 25, 
      "lonmax": 4.670463670925381, 
      "latmin": 50.87029305604833
    }, 
    {
      "latmax": 50.852785194663184, 
      "name": "Goudfazantenlaan", 
      "lonmin": 4.692417394528469, 
      "sanName": "goudfazantenlaan", 
      "numOfAddr": 19, 
      "lonmax": 4.694184424483588, 
      "latmin": 50.85114656393208
    }, 
    {
      "latmax": 50.85484747474291, 
      "name": "Graaf de Grunnelaan", 
      "lonmin": 4.692024614104222, 
      "sanName": "graafdegrunnelaan", 
      "numOfAddr": 20, 
      "lonmax": 4.6952893779768505, 
      "latmin": 50.85368503369841
    }, 
    {
      "latmax": 50.84931454810008, 
      "name": "Grauwmeer", 
      "lonmin": 4.720182701904927, 
      "sanName": "grauwmeer", 
      "numOfAddr": 5, 
      "lonmax": 4.724952476411535, 
      "latmin": 50.84511103400777
    }, 
    {
      "latmax": 50.87617009801233, 
      "name": "Groeneweg", 
      "lonmin": 4.661679391941986, 
      "sanName": "groeneweg", 
      "numOfAddr": 50, 
      "lonmax": 4.663673535890545, 
      "latmin": 50.8679255833256
    }, 
    {
      "latmax": 50.86592974738756, 
      "name": "Groenstraat", 
      "lonmin": 4.69623204232145, 
      "sanName": "groenstraat", 
      "numOfAddr": 164, 
      "lonmax": 4.697980487199299, 
      "latmin": 50.853961478583486
    }, 
    {
      "latmax": 50.87671909372037, 
      "name": "Groenveldstraat", 
      "lonmin": 4.682053759721838, 
      "sanName": "groenveldstraat", 
      "numOfAddr": 90, 
      "lonmax": 4.685193770537433, 
      "latmin": 50.870336769873155
    }, 
    {
      "latmax": 50.858838735409215, 
      "name": "Haanhofweg", 
      "lonmin": 4.7298700375319145, 
      "sanName": "haanhofweg", 
      "numOfAddr": 1, 
      "lonmax": 4.7298700375319145, 
      "latmin": 50.858838735409215
    }, 
    {
      "latmax": 50.86092924662878, 
      "name": "Heidelaan", 
      "lonmin": 4.709293899480981, 
      "sanName": "heidelaan", 
      "numOfAddr": 43, 
      "lonmax": 4.711703448337889, 
      "latmin": 50.860100053296
    }, 
    {
      "latmax": 50.87251221627125, 
      "name": "Henri Geeraertlaan", 
      "lonmin": 4.671083926932714, 
      "sanName": "henrigeeraertlaan", 
      "numOfAddr": 30, 
      "lonmax": 4.673388042110362, 
      "latmin": 50.871393793415436
    }, 
    {
      "latmax": 50.85774692640848, 
      "name": "Herendreef", 
      "lonmin": 4.679648012113113, 
      "sanName": "herendreef", 
      "numOfAddr": 27, 
      "lonmax": 4.681791947090027, 
      "latmin": 50.85311488324863
    }, 
    {
      "latmax": 50.86061446873632, 
      "name": "Hertog Engelbertlaan", 
      "lonmin": 4.686189264917611, 
      "sanName": "hertogengelbertlaan", 
      "numOfAddr": 2, 
      "lonmax": 4.687143816833498, 
      "latmin": 50.86035303766777
    }, 
    {
      "latmax": 50.86201519972227, 
      "name": "Hertogstraat", 
      "lonmin": 4.691671676801235, 
      "sanName": "hertogstraat", 
      "numOfAddr": 182, 
      "lonmax": 4.709089797042044, 
      "latmin": 50.85153509701437
    }, 
    {
      "latmax": 50.87439386626849, 
      "name": "Hollestraat", 
      "lonmin": 4.6841075591681, 
      "sanName": "hollestraat", 
      "numOfAddr": 9, 
      "lonmax": 4.687495712317159, 
      "latmin": 50.87311482077056
    }, 
    {
      "latmax": 50.8646029993226, 
      "name": "Hoveniersdreef", 
      "lonmin": 4.696968310208418, 
      "sanName": "hoveniersdreef", 
      "numOfAddr": 85, 
      "lonmax": 4.710440207376497, 
      "latmin": 50.86307335192788
    }, 
    {
      "latmax": 50.85693646661296, 
      "name": "Huttelaan", 
      "lonmin": 4.684859299361114, 
      "sanName": "huttelaan", 
      "numOfAddr": 47, 
      "lonmax": 4.694841459204591, 
      "latmin": 50.848496183433305
    }, 
    {
      "latmax": 50.860344100744456, 
      "name": "Idalaan", 
      "lonmin": 4.660531986714504, 
      "sanName": "idalaan", 
      "numOfAddr": 19, 
      "lonmax": 4.661224741136768, 
      "latmin": 50.859474571154706
    }, 
    {
      "latmax": 50.87276799346589, 
      "name": "Ijzerenmolenstraat", 
      "lonmin": 4.677574290468696, 
      "sanName": "ijzerenmolenstraat", 
      "numOfAddr": 120, 
      "lonmax": 4.687515126466615, 
      "latmin": 50.8683973253497
    }, 
    {
      "latmax": 50.84601422700527, 
      "name": "Industrieweg", 
      "lonmin": 4.723991711389917, 
      "sanName": "industrieweg", 
      "numOfAddr": 3, 
      "lonmax": 4.724418340464221, 
      "latmin": 50.84515944123165
    }, 
    {
      "latmax": 50.85145201013388, 
      "name": "Interleuvenlaan", 
      "lonmin": 4.723515415960195, 
      "sanName": "interleuvenlaan", 
      "numOfAddr": 37, 
      "lonmax": 4.737547152296556, 
      "latmin": 50.845705824007254
    }, 
    {
      "latmax": 50.851813952224774, 
      "name": "Jachthorenstraat", 
      "lonmin": 4.6961365105202715, 
      "sanName": "jachthorenstraat", 
      "numOfAddr": 10, 
      "lonmax": 4.696768015727891, 
      "latmin": 50.85075599748959
    }, 
    {
      "latmax": 50.85366610267856, 
      "name": "Jachtlaan", 
      "lonmin": 4.691758737629087, 
      "sanName": "jachtlaan", 
      "numOfAddr": 20, 
      "lonmax": 4.695197314713821, 
      "latmin": 50.852557047503865
    }, 
    {
      "latmax": 50.86826130944007, 
      "name": "Jef Vanden Eyndelaan", 
      "lonmin": 4.672567770607858, 
      "sanName": "jefvandeneyndelaan", 
      "numOfAddr": 14, 
      "lonmax": 4.673131594214292, 
      "latmin": 50.86759097703364
    }, 
    {
      "latmax": 50.869671396466586, 
      "name": "Jef Van Hooflaan", 
      "lonmin": 4.671318988052872, 
      "sanName": "jefvanhooflaan", 
      "numOfAddr": 24, 
      "lonmax": 4.672023794688852, 
      "latmin": 50.868456577060954
    }, 
    {
      "latmax": 50.86987894544341, 
      "name": "Joos Florquinlaan", 
      "lonmin": 4.671936571720859, 
      "sanName": "joosflorquinlaan", 
      "numOfAddr": 21, 
      "lonmax": 4.674827551361962, 
      "latmin": 50.869100693533454
    }, 
    {
      "latmax": 50.86856808390539, 
      "name": "Jos De Haeslaan", 
      "lonmin": 4.671231584596401, 
      "sanName": "josdehaeslaan", 
      "numOfAddr": 32, 
      "lonmax": 4.67554615038015, 
      "latmin": 50.867759132417945
    }, 
    {
      "latmax": 50.86563396368575, 
      "name": "Jozef Eerdekensstraat", 
      "lonmin": 4.699917068121462, 
      "sanName": "jozefeerdekensstraat", 
      "numOfAddr": 34, 
      "lonmax": 4.7011025659949945, 
      "latmin": 50.865008978975474
    }, 
    {
      "latmax": 50.86376297277079, 
      "name": "Jules Vandenbemptlaan", 
      "lonmin": 4.68663480780351, 
      "sanName": "julesvandenbemptlaan", 
      "numOfAddr": 44, 
      "lonmax": 4.6928237555412995, 
      "latmin": 50.86118007894793
    }, 
    {
      "latmax": 50.86148137869489, 
      "name": "Kantineplein", 
      "lonmin": 4.685387143501201, 
      "sanName": "kantineplein", 
      "numOfAddr": 3, 
      "lonmax": 4.686514492997139, 
      "latmin": 50.860830218303974
    }, 
    {
      "latmax": 50.86090959950269, 
      "name": "Kapelberg", 
      "lonmin": 4.657420331379416, 
      "sanName": "kapelberg", 
      "numOfAddr": 46, 
      "lonmax": 4.659662808832473, 
      "latmin": 50.85979762444447
    }, 
    {
      "latmax": 50.865333473228574, 
      "name": "Kapeldreef", 
      "lonmin": 4.660814245437824, 
      "sanName": "kapeldreef", 
      "numOfAddr": 37, 
      "lonmax": 4.678589592969118, 
      "latmin": 50.860491293480905
    }, 
    {
      "latmax": 50.86828807183194, 
      "name": "Kardinaal Mercierlaan", 
      "lonmin": 4.690665243733939, 
      "sanName": "kardinaalmercierlaan", 
      "numOfAddr": 59, 
      "lonmax": 4.6976315904571795, 
      "latmin": 50.863725743077104
    }, 
    {
      "latmax": 50.85404196380781, 
      "name": "Kastanjelaan", 
      "lonmin": 4.677958723105167, 
      "sanName": "kastanjelaan", 
      "numOfAddr": 14, 
      "lonmax": 4.679849984316775, 
      "latmin": 50.851904263768404
    }, 
    {
      "latmax": 50.86523126567769, 
      "name": "Kasteelpark Arenberg", 
      "lonmin": 4.681807841868928, 
      "sanName": "kasteelparkarenberg", 
      "numOfAddr": 24, 
      "lonmax": 4.68902925988028, 
      "latmin": 50.86079189577093
    }, 
    {
      "latmax": 50.87318430188261, 
      "name": "Keibergstraat", 
      "lonmin": 4.669441753695246, 
      "sanName": "keibergstraat", 
      "numOfAddr": 50, 
      "lonmax": 4.6713766231678475, 
      "latmin": 50.86761502227464
    }, 
    {
      "latmax": 50.87068522881997, 
      "name": "Kerkhofdreef", 
      "lonmin": 4.712441507299129, 
      "sanName": "kerkhofdreef", 
      "numOfAddr": 5, 
      "lonmax": 4.7141810146145735, 
      "latmin": 50.87001892827327
    }, 
    {
      "latmax": 50.859514389865375, 
      "name": "Kerspelstraat", 
      "lonmin": 4.704939961904308, 
      "sanName": "kerspelstraat", 
      "numOfAddr": 44, 
      "lonmax": 4.706621349312688, 
      "latmin": 50.84112777701896
    }, 
    {
      "latmax": 50.86260293405857, 
      "name": "Kloosterlaan", 
      "lonmin": 4.6907937637781325, 
      "sanName": "kloosterlaan", 
      "numOfAddr": 6, 
      "lonmax": 4.691360977731144, 
      "latmin": 50.862191322205014
    }, 
    {
      "latmax": 50.83805117973579, 
      "name": "Kneuterweg", 
      "lonmin": 4.671972777897951, 
      "sanName": "kneuterweg", 
      "numOfAddr": 4, 
      "lonmax": 4.672404017847422, 
      "latmin": 50.837734285483464
    }, 
    {
      "latmax": 50.85890291530829, 
      "name": "Koning Leopold III-laan", 
      "lonmin": 4.6883097795102495, 
      "sanName": "koningleopoldiiilaan", 
      "numOfAddr": 48, 
      "lonmax": 4.695234738286168, 
      "latmin": 50.85491392146261
    }, 
    {
      "latmax": 50.85987317067897, 
      "name": "Korbeekhof", 
      "lonmin": 4.655380396221361, 
      "sanName": "korbeekhof", 
      "numOfAddr": 6, 
      "lonmax": 4.656135025380372, 
      "latmin": 50.85947499683785
    }, 
    {
      "latmax": 50.87099713892855, 
      "name": "Korbeek-Losestraat", 
      "lonmin": 4.7206536872385705, 
      "sanName": "korbeeklosestraat", 
      "numOfAddr": 100, 
      "lonmax": 4.724605357888826, 
      "latmin": 50.869427097562095
    }, 
    {
      "latmax": 50.85912125022379, 
      "name": "Kriekenboslaan", 
      "lonmin": 4.703150403041352, 
      "sanName": "kriekenboslaan", 
      "numOfAddr": 46, 
      "lonmax": 4.704761871556632, 
      "latmin": 50.85672132060351
    }, 
    {
      "latmax": 50.86330111248357, 
      "name": "Krommelaan", 
      "lonmin": 4.701385695198162, 
      "sanName": "krommelaan", 
      "numOfAddr": 4, 
      "lonmax": 4.702326924139364, 
      "latmin": 50.86328263496169
    }, 
    {
      "latmax": 50.86091338478695, 
      "name": "Lange Hagen", 
      "lonmin": 4.65583200737522, 
      "sanName": "langehagen", 
      "numOfAddr": 12, 
      "lonmax": 4.657354170375345, 
      "latmin": 50.86047451613917
    }, 
    {
      "latmax": 50.86230646369639, 
      "name": "Langendaallaan", 
      "lonmin": 4.708046461963497, 
      "sanName": "langendaallaan", 
      "numOfAddr": 73, 
      "lonmax": 4.711594044781186, 
      "latmin": 50.86102341930064
    }, 
    {
      "latmax": 50.86225156993017, 
      "name": "Leeuwerikenstraat", 
      "lonmin": 4.697635314759397, 
      "sanName": "leeuwerikenstraat", 
      "numOfAddr": 104, 
      "lonmax": 4.7062205648493025, 
      "latmin": 50.86012013008481
    }, 
    {
      "latmax": 50.868216684439304, 
      "name": "Leo Dartelaan", 
      "lonmin": 4.706082102376802, 
      "sanName": "leodartelaan", 
      "numOfAddr": 26, 
      "lonmax": 4.707844708514076, 
      "latmin": 50.86727856138604
    }, 
    {
      "latmax": 50.872401821505576, 
      "name": "Lievevrouweplein", 
      "lonmin": 4.669883936966581, 
      "sanName": "lievevrouweplein", 
      "numOfAddr": 10, 
      "lonmax": 4.670743612940559, 
      "latmin": 50.87183817393006
    }, 
    {
      "latmax": 50.85431862002028, 
      "name": "Lindelaan", 
      "lonmin": 4.678931012617845, 
      "sanName": "lindelaan", 
      "numOfAddr": 14, 
      "lonmax": 4.680599378353475, 
      "latmin": 50.85306047250202
    }, 
    {
      "latmax": 50.86817954403355, 
      "name": "Lodewijk De Vochtlaan", 
      "lonmin": 4.671545148235396, 
      "sanName": "lodewijkdevochtlaan", 
      "numOfAddr": 16, 
      "lonmax": 4.672212600719913, 
      "latmin": 50.86740089082346
    }, 
    {
      "latmax": 50.86362607661096, 
      "name": "Lodewijk Engelbertus van Arenbergplein", 
      "lonmin": 4.694754991763142, 
      "sanName": "lodewijkengelbertusvanarenbergplein", 
      "numOfAddr": 12, 
      "lonmax": 4.694979562706747, 
      "latmin": 50.86289682100928
    }, 
    {
      "latmax": 50.873228174906224, 
      "name": "L\u0082on Schreursvest", 
      "lonmin": 4.712134520549819, 
      "sanName": "lonschreursvest", 
      "numOfAddr": 45, 
      "lonmax": 4.7146455460626, 
      "latmin": 50.870746269432445
    }, 
    {
      "latmax": 50.86239888057024, 
      "name": "Marie Lemairestraat", 
      "lonmin": 4.656014935954223, 
      "sanName": "marielemairestraat", 
      "numOfAddr": 12, 
      "lonmax": 4.656916247575079, 
      "latmin": 50.86188562394269
    }, 
    {
      "latmax": 50.86029828028693, 
      "name": "Marie Popelinlaan", 
      "lonmin": 4.651775798228223, 
      "sanName": "mariepopelinlaan", 
      "numOfAddr": 14, 
      "lonmax": 4.653421676341267, 
      "latmin": 50.85920344217606
    }, 
    {
      "latmax": 50.86690757487027, 
      "name": "Matadilaan", 
      "lonmin": 4.7069367725925035, 
      "sanName": "matadilaan", 
      "numOfAddr": 7, 
      "lonmax": 4.707589885431048, 
      "latmin": 50.86660076164103
    }, 
    {
      "latmax": 50.860555570261454, 
      "name": "Mezenlaan", 
      "lonmin": 4.693949563261383, 
      "sanName": "mezenlaan", 
      "numOfAddr": 38, 
      "lonmax": 4.695554435287057, 
      "latmin": 50.859582932575975
    }, 
    {
      "latmax": 50.861418060065645, 
      "name": "Middelweg", 
      "lonmin": 4.689916204147506, 
      "sanName": "middelweg", 
      "numOfAddr": 123, 
      "lonmax": 4.692644440039318, 
      "latmin": 50.849828248585794
    }, 
    {
      "latmax": 50.861836267101815, 
      "name": "Milseweg", 
      "lonmin": 4.7106801446437325, 
      "sanName": "milseweg", 
      "numOfAddr": 48, 
      "lonmax": 4.713028298867357, 
      "latmin": 50.85696095572658
    }, 
    {
      "latmax": 50.868295197272886, 
      "name": "Naamsesteenweg", 
      "lonmin": 4.6929703700309195, 
      "sanName": "naamsesteenweg", 
      "numOfAddr": 408, 
      "lonmax": 4.699526277849963, 
      "latmin": 50.847136060585626
    }, 
    {
      "latmax": 50.86156812947164, 
      "name": "Nachtegalenstraat", 
      "lonmin": 4.6925861111146565, 
      "sanName": "nachtegalenstraat", 
      "numOfAddr": 88, 
      "lonmax": 4.694866168053391, 
      "latmin": 50.85934629986799
    }, 
    {
      "latmax": 50.84866369643238, 
      "name": "Neringenweg", 
      "lonmin": 4.712654018748759, 
      "sanName": "neringenweg", 
      "numOfAddr": 8, 
      "lonmax": 4.719095358888116, 
      "latmin": 50.84571389022098
    }, 
    {
      "latmax": 50.86920762773923, 
      "name": "Nieuwe Kerkhofdreef", 
      "lonmin": 4.7105949405960725, 
      "sanName": "nieuwekerkhofdreef", 
      "numOfAddr": 1, 
      "lonmax": 4.7105949405960725, 
      "latmin": 50.86920762773923
    }, 
    {
      "latmax": 50.85371447195894, 
      "name": "Ondernemingenweg", 
      "lonmin": 4.7139617070518, 
      "sanName": "ondernemingenweg", 
      "numOfAddr": 2, 
      "lonmax": 4.715481599457863, 
      "latmin": 50.85168282652959
    }, 
    {
      "latmax": 50.86764693137133, 
      "name": "Oude Nijvelseweg", 
      "lonmin": 4.671163749470741, 
      "sanName": "oudenijvelseweg", 
      "numOfAddr": 1, 
      "lonmax": 4.671163749470741, 
      "latmin": 50.86764693137133
    }, 
    {
      "latmax": 50.857076483121745, 
      "name": "Oud-Heverleestraat", 
      "lonmin": 4.672225370400381, 
      "sanName": "oudheverleestraat", 
      "numOfAddr": 68, 
      "lonmax": 4.679164495419023, 
      "latmin": 50.85174814685477
    }, 
    {
      "latmax": 50.8628542287478, 
      "name": "Pakenstraat", 
      "lonmin": 4.706839663659347, 
      "sanName": "pakenstraat", 
      "numOfAddr": 57, 
      "lonmax": 4.711749323324496, 
      "latmin": 50.86039443677218
    }, 
    {
      "latmax": 50.860448518408646, 
      "name": "Parkbosstraat", 
      "lonmin": 4.697521751724045, 
      "sanName": "parkbosstraat", 
      "numOfAddr": 8, 
      "lonmax": 4.698448410502972, 
      "latmin": 50.85954811920729
    }, 
    {
      "latmax": 50.862778918983665, 
      "name": "Parkdallaan", 
      "lonmin": 4.700838939347401, 
      "sanName": "parkdallaan", 
      "numOfAddr": 42, 
      "lonmax": 4.7081678563629135, 
      "latmin": 50.86212516129603
    }, 
    {
      "latmax": 50.85828757271398, 
      "name": "Pater Perquylaan", 
      "lonmin": 4.692614730228102, 
      "sanName": "paterperquylaan", 
      "numOfAddr": 26, 
      "lonmax": 4.693780540901785, 
      "latmin": 50.857249162923935
    }, 
    {
      "latmax": 50.867507590130394, 
      "name": "Paul Van Ostaijenlaan", 
      "lonmin": 4.701315622012348, 
      "sanName": "paulvanostaijenlaan", 
      "numOfAddr": 88, 
      "lonmax": 4.709408819469156, 
      "latmin": 50.86647080146767
    }, 
    {
      "latmax": 50.85971384036828, 
      "name": "Petrusberg", 
      "lonmin": 4.71730479456431, 
      "sanName": "petrusberg", 
      "numOfAddr": 31, 
      "lonmax": 4.7203965062499105, 
      "latmin": 50.85795722752041
    }, 
    {
      "latmax": 50.86895361013412, 
      "name": "Philipssite", 
      "lonmin": 4.710949267348561, 
      "sanName": "philipssite", 
      "numOfAddr": 6, 
      "lonmax": 4.713105516275782, 
      "latmin": 50.86767456854082
    }, 
    {
      "latmax": 50.85728940253367, 
      "name": "Pieter De Somerlaan", 
      "lonmin": 4.6926185261633675, 
      "sanName": "pieterdesomerlaan", 
      "numOfAddr": 12, 
      "lonmax": 4.69332622228293, 
      "latmin": 50.856629405762305
    }, 
    {
      "latmax": 50.87242327311104, 
      "name": "Pleinstraat", 
      "lonmin": 4.713051819040443, 
      "sanName": "pleinstraat", 
      "numOfAddr": 122, 
      "lonmax": 4.715287206771277, 
      "latmin": 50.86984786735557
    }, 
    {
      "latmax": 50.86953938100076, 
      "name": "Populierenlaan", 
      "lonmin": 4.666357211196567, 
      "sanName": "populierenlaan", 
      "numOfAddr": 15, 
      "lonmax": 4.668135515878191, 
      "latmin": 50.8684351751645
    }, 
    {
      "latmax": 50.864179737686634, 
      "name": "Prins de Lignestraat", 
      "lonmin": 4.693680658488965, 
      "sanName": "prinsdelignestraat", 
      "numOfAddr": 31, 
      "lonmax": 4.695360415368511, 
      "latmin": 50.86358824156532
    }, 
    {
      "latmax": 50.8580087145206, 
      "name": "Prinses Lydialaan", 
      "lonmin": 4.681625247232211, 
      "sanName": "prinseslydialaan", 
      "numOfAddr": 67, 
      "lonmax": 4.688139026326496, 
      "latmin": 50.85388492685056
    }, 
    {
      "latmax": 50.87057967819508, 
      "name": "Priorijlaan", 
      "lonmin": 4.6681642090608575, 
      "sanName": "priorijlaan", 
      "numOfAddr": 20, 
      "lonmax": 4.669885579484273, 
      "latmin": 50.86953703876342
    }, 
    {
      "latmax": 50.8570725046873, 
      "name": "Prosperdreef", 
      "lonmin": 4.687585067057365, 
      "sanName": "prosperdreef", 
      "numOfAddr": 9, 
      "lonmax": 4.6895146048473375, 
      "latmin": 50.853666071173365
    }, 
    {
      "latmax": 50.85395750789147, 
      "name": "Raalbeeklaan", 
      "lonmin": 4.674652897863802, 
      "sanName": "raalbeeklaan", 
      "numOfAddr": 14, 
      "lonmax": 4.676178399583739, 
      "latmin": 50.85302530444592
    }, 
    {
      "latmax": 50.85142074953342, 
      "name": "Reeboklaan", 
      "lonmin": 4.692873771265505, 
      "sanName": "reeboklaan", 
      "numOfAddr": 17, 
      "lonmax": 4.69512000365962, 
      "latmin": 50.85067133771516
    }, 
    {
      "latmax": 50.86898982773214, 
      "name": "Renaat Veremanslaan", 
      "lonmin": 4.674548962656189, 
      "sanName": "renaatveremanslaan", 
      "numOfAddr": 12, 
      "lonmax": 4.675271902218269, 
      "latmin": 50.868461552769844
    }, 
    {
      "latmax": 50.86899044414133, 
      "name": "Ren\u0082 De Clercqlaan", 
      "lonmin": 4.672334198599025, 
      "sanName": "rendeclercqlaan", 
      "numOfAddr": 5, 
      "lonmax": 4.672792722393226, 
      "latmin": 50.86871692215028
    }, 
    {
      "latmax": 50.84691743396426, 
      "name": "Romeinse straat", 
      "lonmin": 4.736030018796364, 
      "sanName": "romeinsestraat", 
      "numOfAddr": 6, 
      "lonmax": 4.737937976267168, 
      "latmin": 50.84408090870614
    }, 
    {
      "latmax": 50.86057284705689, 
      "name": "Rotspoelstraat", 
      "lonmin": 4.654535346413972, 
      "sanName": "rotspoelstraat", 
      "numOfAddr": 57, 
      "lonmax": 4.664600859280903, 
      "latmin": 50.85684004118281
    }, 
    {
      "latmax": 50.85958823652344, 
      "name": "Saffranenbergstraat", 
      "lonmin": 4.702661984403059, 
      "sanName": "saffranenbergstraat", 
      "numOfAddr": 29, 
      "lonmax": 4.705905515234667, 
      "latmin": 50.859050937696246
    }, 
    {
      "latmax": 50.87360001601051, 
      "name": "Sint-Jansbergsesteenweg", 
      "lonmin": 4.648079495410431, 
      "sanName": "sintjansbergsesteenweg", 
      "numOfAddr": 144, 
      "lonmax": 4.671634919335726, 
      "latmin": 50.848267824069104
    }, 
    {
      "latmax": 50.871874032451885, 
      "name": "Sint-Jorislaan", 
      "lonmin": 4.669178663063744, 
      "sanName": "sintjorislaan", 
      "numOfAddr": 22, 
      "lonmax": 4.67056155910484, 
      "latmin": 50.87104392044518
    }, 
    {
      "latmax": 50.86351265623951, 
      "name": "Sint-Lambertusstraat", 
      "lonmin": 4.693122307388034, 
      "sanName": "sintlambertusstraat", 
      "numOfAddr": 39, 
      "lonmax": 4.694858608042368, 
      "latmin": 50.86256437358268
    }, 
    {
      "latmax": 50.86000923361443, 
      "name": "Sint-Reneldislaan", 
      "lonmin": 4.659744392141976, 
      "sanName": "sintreneldislaan", 
      "numOfAddr": 10, 
      "lonmax": 4.660422393318464, 
      "latmin": 50.85934600791135
    }, 
    {
      "latmax": 50.86121113440509, 
      "name": "Sint-Reneldisplein", 
      "lonmin": 4.659420553632725, 
      "sanName": "sintreneldisplein", 
      "numOfAddr": 23, 
      "lonmax": 4.660819190488626, 
      "latmin": 50.860202444489914
    }, 
    {
      "latmax": 50.860336278059776, 
      "name": "Slagmaaldelle", 
      "lonmin": 4.648712036861019, 
      "sanName": "slagmaaldelle", 
      "numOfAddr": 8, 
      "lonmax": 4.649332559514892, 
      "latmin": 50.85997951301795
    }, 
    {
      "latmax": 50.858649883821954, 
      "name": "Sparrendreef", 
      "lonmin": 4.702094062913085, 
      "sanName": "sparrendreef", 
      "numOfAddr": 31, 
      "lonmax": 4.705740637013397, 
      "latmin": 50.85773914313102
    }, 
    {
      "latmax": 50.86328634053386, 
      "name": "Spoorwegstraat", 
      "lonmin": 4.699921045199783, 
      "sanName": "spoorwegstraat", 
      "numOfAddr": 2, 
      "lonmax": 4.700135623929817, 
      "latmin": 50.86319300677383
    }, 
    {
      "latmax": 50.86719512741701, 
      "name": "Steengroevenlaan", 
      "lonmin": 4.677139530751414, 
      "sanName": "steengroevenlaan", 
      "numOfAddr": 4, 
      "lonmax": 4.681762512016522, 
      "latmin": 50.865699580558676
    }, 
    {
      "latmax": 50.85240654531305, 
      "name": "Stenenkruis", 
      "lonmin": 4.734788126148982, 
      "sanName": "stenenkruis", 
      "numOfAddr": 5, 
      "lonmax": 4.736373726696803, 
      "latmin": 50.85114362479116
    }, 
    {
      "latmax": 50.86901804561027, 
      "name": "Studentenwijk Arenberg", 
      "lonmin": 4.683626476113209, 
      "sanName": "studentenwijkarenberg", 
      "numOfAddr": 8, 
      "lonmax": 4.687809302383337, 
      "latmin": 50.8662155749053
    }, 
    {
      "latmax": 50.854040389302185, 
      "name": "Technologielaan", 
      "lonmin": 4.725507293109391, 
      "sanName": "technologielaan", 
      "numOfAddr": 11, 
      "lonmax": 4.735899524716887, 
      "latmin": 50.85061283795778
    }, 
    {
      "latmax": 50.87742762987908, 
      "name": "Terbankstraat", 
      "lonmin": 4.66610560005556, 
      "sanName": "terbankstraat", 
      "numOfAddr": 17, 
      "lonmax": 4.670470686052392, 
      "latmin": 50.87426327155709
    }, 
    {
      "latmax": 50.85717873006479, 
      "name": "Tereikenlaan", 
      "lonmin": 4.704022569379177, 
      "sanName": "tereikenlaan", 
      "numOfAddr": 14, 
      "lonmax": 4.7052155864001906, 
      "latmin": 50.85675403306341
    }, 
    {
      "latmax": 50.871011849347575, 
      "name": "Ter Elstlaan", 
      "lonmin": 4.6667304444244415, 
      "sanName": "terelstlaan", 
      "numOfAddr": 29, 
      "lonmax": 4.668629085865936, 
      "latmin": 50.86942701714709
    }, 
    {
      "latmax": 50.864214193097425, 
      "name": "Termunckstraat", 
      "lonmin": 4.655786632715067, 
      "sanName": "termunckstraat", 
      "numOfAddr": 28, 
      "lonmax": 4.6591221763338515, 
      "latmin": 50.862426516059145
    }, 
    {
      "latmax": 50.877121750354384, 
      "name": "Tervuursesteenweg", 
      "lonmin": 4.646366124215593, 
      "sanName": "tervuursesteenweg", 
      "numOfAddr": 316, 
      "lonmax": 4.68318103811772, 
      "latmin": 50.868721666570444
    }, 
    {
      "latmax": 50.876538542334416, 
      "name": "Tervuursevest", 
      "lonmin": 4.683736173054284, 
      "sanName": "tervuursevest", 
      "numOfAddr": 22, 
      "lonmax": 4.6975319170620375, 
      "latmin": 50.868611090794786
    }, 
    {
      "latmax": 50.873440736538804, 
      "name": "Tiensesteenweg", 
      "lonmin": 4.7149028504366015, 
      "sanName": "tiensesteenweg", 
      "numOfAddr": 130, 
      "lonmax": 4.727597698475771, 
      "latmin": 50.87040828868207
    }, 
    {
      "latmax": 50.87243951647648, 
      "name": "Tivolistraat", 
      "lonmin": 4.712704663036896, 
      "sanName": "tivolistraat", 
      "numOfAddr": 36, 
      "lonmax": 4.717979573173415, 
      "latmin": 50.86559798654346
    }, 
    {
      "latmax": 50.86099906897516, 
      "name": "Toverberg", 
      "lonmin": 4.6511698918328985, 
      "sanName": "toverberg", 
      "numOfAddr": 50, 
      "lonmax": 4.6556088345688105, 
      "latmin": 50.85824614995784
    }, 
    {
      "latmax": 50.86035260270344, 
      "name": "Twaalfbunder", 
      "lonmin": 4.655745425115965, 
      "sanName": "twaalfbunder", 
      "numOfAddr": 9, 
      "lonmax": 4.656879361445247, 
      "latmin": 50.860012209209785
    }, 
    {
      "latmax": 50.87868672481713, 
      "name": "Tweekleinewegenstraat", 
      "lonmin": 4.670813760215724, 
      "sanName": "tweekleinewegenstraat", 
      "numOfAddr": 91, 
      "lonmax": 4.682138792103674, 
      "latmin": 50.87545105787927
    }, 
    {
      "latmax": 50.864513973113326, 
      "name": "Veldstraat", 
      "lonmin": 4.654628341273728, 
      "sanName": "veldstraat", 
      "numOfAddr": 15, 
      "lonmax": 4.658771559135482, 
      "latmin": 50.86410222016423
    }, 
    {
      "latmax": 50.86215978582821, 
      "name": "Verbindingslaan", 
      "lonmin": 4.700759120482119, 
      "sanName": "verbindingslaan", 
      "numOfAddr": 57, 
      "lonmax": 4.703194647947551, 
      "latmin": 50.85859812314548
    }, 
    {
      "latmax": 50.863902006597506, 
      "name": "Vijfbunderstraat", 
      "lonmin": 4.657117620070788, 
      "sanName": "vijfbunderstraat", 
      "numOfAddr": 11, 
      "lonmax": 4.658213451697524, 
      "latmin": 50.8632311858687
    }, 
    {
      "latmax": 50.859614282671124, 
      "name": "Vinkenbosstraat", 
      "lonmin": 4.712576198986972, 
      "sanName": "vinkenbosstraat", 
      "numOfAddr": 27, 
      "lonmax": 4.715378451660238, 
      "latmin": 50.85799912777649
    }, 
    {
      "latmax": 50.86657693759412, 
      "name": "Vinkenlaan", 
      "lonmin": 4.706423766289409, 
      "sanName": "vinkenlaan", 
      "numOfAddr": 34, 
      "lonmax": 4.707421583959381, 
      "latmin": 50.86509514295706
    }, 
    {
      "latmax": 50.87089020504999, 
      "name": "Vlietstraat", 
      "lonmin": 4.723651915788777, 
      "sanName": "vlietstraat", 
      "numOfAddr": 38, 
      "lonmax": 4.7255472667934235, 
      "latmin": 50.86992379713649
    }, 
    {
      "latmax": 50.860334195633705, 
      "name": "Voervalleilaan", 
      "lonmin": 4.647299196867066, 
      "sanName": "voervalleilaan", 
      "numOfAddr": 11, 
      "lonmax": 4.6476703782718225, 
      "latmin": 50.85912385848857
    }, 
    {
      "latmax": 50.86670125246737, 
      "name": "Volhardingslaan", 
      "lonmin": 4.703906583024701, 
      "sanName": "volhardingslaan", 
      "numOfAddr": 32, 
      "lonmax": 4.704557433780777, 
      "latmin": 50.865540849329925
    }, 
    {
      "latmax": 50.862536818864456, 
      "name": "Voordelaan", 
      "lonmin": 4.708777936319351, 
      "sanName": "voordelaan", 
      "numOfAddr": 21, 
      "lonmax": 4.710200157778359, 
      "latmin": 50.8617016018036
    }, 
    {
      "latmax": 50.865822359556596, 
      "name": "Waversebaan", 
      "lonmin": 4.67384238475905, 
      "sanName": "waversebaan", 
      "numOfAddr": 268, 
      "lonmax": 4.695828472772377, 
      "latmin": 50.850414852851756
    }, 
    {
      "latmax": 50.86043776930415, 
      "name": "Wijngaardlaan", 
      "lonmin": 4.690378622474808, 
      "sanName": "wijngaardlaan", 
      "numOfAddr": 24, 
      "lonmax": 4.692083799794695, 
      "latmin": 50.85886111237059
    }, 
    {
      "latmax": 50.86065395201997, 
      "name": "Willem de Croylaan", 
      "lonmin": 4.673231851104246, 
      "sanName": "willemdecroylaan", 
      "numOfAddr": 43, 
      "lonmax": 4.684947769734507, 
      "latmin": 50.85517963342748
    }, 
    {
      "latmax": 50.85856308219289, 
      "name": "Willem Vanden Abeelelaan", 
      "lonmin": 4.692962230263125, 
      "sanName": "willemvandenabeelelaan", 
      "numOfAddr": 34, 
      "lonmax": 4.695556573466578, 
      "latmin": 50.857664273741165
    }, 
    {
      "latmax": 50.862112264247635, 
      "name": "Withoflaan", 
      "lonmin": 4.706017870546815, 
      "sanName": "withoflaan", 
      "numOfAddr": 12, 
      "lonmax": 4.706733769687418, 
      "latmin": 50.86086516375988
    }, 
    {
      "latmax": 50.864878761649344, 
      "name": "Zeepweg", 
      "lonmin": 4.697516969594002, 
      "sanName": "zeepweg", 
      "numOfAddr": 1, 
      "lonmax": 4.697516969594002, 
      "latmin": 50.864878761649344
    }, 
    {
      "latmax": 50.86703898160649, 
      "name": "Zegelaan", 
      "lonmin": 4.705169637676416, 
      "sanName": "zegelaan", 
      "numOfAddr": 40, 
      "lonmax": 4.7067132252994455, 
      "latmin": 50.86522974516997
    }, 
    {
      "latmax": 50.85987820315438, 
      "name": "Zwaluwenlaan", 
      "lonmin": 4.692425777243283, 
      "sanName": "zwaluwenlaan", 
      "numOfAddr": 38, 
      "lonmax": 4.694972690206472, 
      "latmin": 50.85865607635907
    }
  ]
}