{
  "streets": [
    {
      "latmax": 50.903660820687094, 
      "name": "Aarschotsesteenweg", 
      "lonmin": 4.711046231543406, 
      "sanName": "aarschotsesteenweg", 
      "numOfAddr": 3, 
      "lonmax": 4.711540850768767, 
      "latmin": 50.902227109854906
    }, 
    {
      "latmax": 50.89330442518177, 
      "name": "Abdij Vlierbeek", 
      "lonmin": 4.734001271886184, 
      "sanName": "abdijvlierbeek", 
      "numOfAddr": 13, 
      "lonmax": 4.7361006957394824, 
      "latmin": 50.891541557139256
    }, 
    {
      "latmax": 50.90724143338813, 
      "name": "Acaciaplein", 
      "lonmin": 4.721133173603391, 
      "sanName": "acaciaplein", 
      "numOfAddr": 6, 
      "lonmax": 4.721477977425695, 
      "latmin": 50.906856750694054
    }, 
    {
      "latmax": 50.90723218203785, 
      "name": "Acaciastraat", 
      "lonmin": 4.720509470076124, 
      "sanName": "acaciastraat", 
      "numOfAddr": 8, 
      "lonmax": 4.720937096499633, 
      "latmin": 50.90694734977415
    }, 
    {
      "latmax": 50.88976114292696, 
      "name": "Achturenstraat", 
      "lonmin": 4.719424379509072, 
      "sanName": "achturenstraat", 
      "numOfAddr": 72, 
      "lonmax": 4.722448603422377, 
      "latmin": 50.8878430193044
    }, 
    {
      "latmax": 50.877396216167625, 
      "name": "Albert De Jonghestraat", 
      "lonmin": 4.728454973269542, 
      "sanName": "albertdejonghestraat", 
      "numOfAddr": 41, 
      "lonmax": 4.730593188875243, 
      "latmin": 50.87572796415235
    }, 
    {
      "latmax": 50.89104706586944, 
      "name": "Albrecht Rodenbachstraat", 
      "lonmin": 4.722359905303525, 
      "sanName": "albrechtrodenbachstraat", 
      "numOfAddr": 81, 
      "lonmax": 4.725476441921575, 
      "latmin": 50.88966439714883
    }, 
    {
      "latmax": 50.89035307323576, 
      "name": "Alfons Roelandtsstraat", 
      "lonmin": 4.724666547040198, 
      "sanName": "alfonsroelandtsstraat", 
      "numOfAddr": 23, 
      "lonmax": 4.726003713221548, 
      "latmin": 50.88960697728927
    }, 
    {
      "latmax": 50.884049928621764, 
      "name": "Atelierstraat", 
      "lonmin": 4.7232042857481185, 
      "sanName": "atelierstraat", 
      "numOfAddr": 3, 
      "lonmax": 4.724675931123532, 
      "latmin": 50.88387711503567
    }, 
    {
      "latmax": 50.87521176538183, 
      "name": "August Vermeyenlaan", 
      "lonmin": 4.725028974838257, 
      "sanName": "augustvermeyenlaan", 
      "numOfAddr": 43, 
      "lonmax": 4.72707491309015, 
      "latmin": 50.87389219769612
    }, 
    {
      "latmax": 50.885916906969605, 
      "name": "Baron August De Becker-Remyplein", 
      "lonmin": 4.717562521980098, 
      "sanName": "baronaugustdebeckerremyplein", 
      "numOfAddr": 61, 
      "lonmax": 4.720047169086054, 
      "latmin": 50.88468791567129
    }, 
    {
      "latmax": 50.89148656264459, 
      "name": "Beemdenstraat", 
      "lonmin": 4.721749353917993, 
      "sanName": "beemdenstraat", 
      "numOfAddr": 10, 
      "lonmax": 4.724330030546746, 
      "latmin": 50.890503183649216
    }, 
    {
      "latmax": 50.90707759550506, 
      "name": "Begijnenberg", 
      "lonmin": 4.742887448367263, 
      "sanName": "begijnenberg", 
      "numOfAddr": 3, 
      "lonmax": 4.744047833628885, 
      "latmin": 50.90668805786133
    }, 
    {
      "latmax": 50.88161194377106, 
      "name": "Benedenplein", 
      "lonmin": 4.717270044206368, 
      "sanName": "benedenplein", 
      "numOfAddr": 2, 
      "lonmax": 4.717969762889295, 
      "latmin": 50.880374159839015
    }, 
    {
      "latmax": 50.891587142985514, 
      "name": "Benedictijnenlaan", 
      "lonmin": 4.7401068638503885, 
      "sanName": "benedictijnenlaan", 
      "numOfAddr": 27, 
      "lonmax": 4.74351887635981, 
      "latmin": 50.890221252995055
    }, 
    {
      "latmax": 50.907609058519235, 
      "name": "Bergpad", 
      "lonmin": 4.744683927077258, 
      "sanName": "bergpad", 
      "numOfAddr": 1, 
      "lonmax": 4.744683927077258, 
      "latmin": 50.907609058519235
    }, 
    {
      "latmax": 50.90535363773711, 
      "name": "Bergstraat", 
      "lonmin": 2.306689562140502, 
      "sanName": "bergstraat", 
      "numOfAddr": 108, 
      "lonmax": 4.738636545065517, 
      "latmin": 49.293335165093566
    }, 
    {
      "latmax": 50.87933279762574, 
      "name": "Bijendreef", 
      "lonmin": 4.727358120344117, 
      "sanName": "bijendreef", 
      "numOfAddr": 16, 
      "lonmax": 4.728253311048909, 
      "latmin": 50.87872195656835
    }, 
    {
      "latmax": 50.88484662745733, 
      "name": "Boerenkrijglaan", 
      "lonmin": 4.738945999328774, 
      "sanName": "boerenkrijglaan", 
      "numOfAddr": 44, 
      "lonmax": 4.741970661428518, 
      "latmin": 50.882827040913305
    }, 
    {
      "latmax": 50.89016690470639, 
      "name": "Borstelsstraat", 
      "lonmin": 4.729774895088901, 
      "sanName": "borstelsstraat", 
      "numOfAddr": 79, 
      "lonmax": 4.7356428089733535, 
      "latmin": 50.88547756772608
    }, 
    {
      "latmax": 50.899714818802266, 
      "name": "Boskouter", 
      "lonmin": 4.740402554689535, 
      "sanName": "boskouter", 
      "numOfAddr": 21, 
      "lonmax": 4.742858257963993, 
      "latmin": 50.89705988148998
    }, 
    {
      "latmax": 50.87419830464003, 
      "name": "Boulevardstraat", 
      "lonmin": 4.7168883138064635, 
      "sanName": "boulevardstraat", 
      "numOfAddr": 24, 
      "lonmax": 4.717430958741218, 
      "latmin": 50.87332461871048
    }, 
    {
      "latmax": 50.88067062163191, 
      "name": "Bovenloweg", 
      "lonmin": 4.753409944453496, 
      "sanName": "bovenloweg", 
      "numOfAddr": 10, 
      "lonmax": 4.757638712592918, 
      "latmin": 50.877669110145995
    }, 
    {
      "latmax": 50.88852215873325, 
      "name": "Broederlijkheidstraat", 
      "lonmin": 4.720616366262688, 
      "sanName": "broederlijkheidstraat", 
      "numOfAddr": 4, 
      "lonmax": 4.720747335898565, 
      "latmin": 50.88839977771531
    }, 
    {
      "latmax": 50.89741509554266, 
      "name": "Bruineveld", 
      "lonmin": 4.726239862444166, 
      "sanName": "bruineveld", 
      "numOfAddr": 99, 
      "lonmax": 4.729709269053286, 
      "latmin": 50.895220848490155
    }, 
    {
      "latmax": 50.88202840760553, 
      "name": "Cristianlaan", 
      "lonmin": 4.726007078965254, 
      "sanName": "cristianlaan", 
      "numOfAddr": 36, 
      "lonmax": 4.7276140613263316, 
      "latmin": 50.879891752602816
    }, 
    {
      "latmax": 50.887429629120426, 
      "name": "Dennenboslaan", 
      "lonmin": 4.735928612017649, 
      "sanName": "dennenboslaan", 
      "numOfAddr": 11, 
      "lonmax": 4.73649228574633, 
      "latmin": 50.886847895551455
    }, 
    {
      "latmax": 50.88947419946756, 
      "name": "Diestsesteenweg", 
      "lonmin": 4.715958207871162, 
      "sanName": "diestsesteenweg", 
      "numOfAddr": 581, 
      "lonmax": 4.769665877484547, 
      "latmin": 50.88279677072954
    }, 
    {
      "latmax": 50.894022136937316, 
      "name": "Dijledreef", 
      "lonmin": 4.710631676840539, 
      "sanName": "dijledreef", 
      "numOfAddr": 23, 
      "lonmax": 4.71182577280738, 
      "latmin": 50.891423276275376
    }, 
    {
      "latmax": 50.87977340338916, 
      "name": "Distelvinkenstraat", 
      "lonmin": 4.734250538788364, 
      "sanName": "distelvinkenstraat", 
      "numOfAddr": 11, 
      "lonmax": 4.735070381939545, 
      "latmin": 50.87917940874083
    }, 
    {
      "latmax": 50.90069892414368, 
      "name": "Domeinstraat", 
      "lonmin": 4.717775058397832, 
      "sanName": "domeinstraat", 
      "numOfAddr": 85, 
      "lonmax": 4.725569815503791, 
      "latmin": 50.89770136552563
    }, 
    {
      "latmax": 50.87769679099291, 
      "name": "Don Boscolaan", 
      "lonmin": 4.734063327105117, 
      "sanName": "donboscolaan", 
      "numOfAddr": 9, 
      "lonmax": 4.7345193915417525, 
      "latmin": 50.877264873162076
    }, 
    {
      "latmax": 50.88328415616428, 
      "name": "D\u0082sir\u0082 Mellaertsstraat", 
      "lonmin": 4.727409010236755, 
      "sanName": "dsirmellaertsstraat", 
      "numOfAddr": 116, 
      "lonmax": 4.736334580053206, 
      "latmin": 50.87998630553467
    }, 
    {
      "latmax": 50.87908752235719, 
      "name": "Duivenstraat", 
      "lonmin": 4.732423862072339, 
      "sanName": "duivenstraat", 
      "numOfAddr": 22, 
      "lonmax": 4.733830383480855, 
      "latmin": 50.87801797574554
    }, 
    {
      "latmax": 50.90215173504928, 
      "name": "Edelzangerslaan", 
      "lonmin": 4.71859851811544, 
      "sanName": "edelzangerslaan", 
      "numOfAddr": 24, 
      "lonmax": 4.721624306721, 
      "latmin": 50.90118369345204
    }, 
    {
      "latmax": 50.872819052544735, 
      "name": "Eeuwfeeststraat", 
      "lonmin": 4.724766010697037, 
      "sanName": "eeuwfeeststraat", 
      "numOfAddr": 69, 
      "lonmax": 4.726822522266479, 
      "latmin": 50.871602555905284
    }, 
    {
      "latmax": 50.87846324114927, 
      "name": "Eikenboslaan", 
      "lonmin": 4.747790675166082, 
      "sanName": "eikenboslaan", 
      "numOfAddr": 20, 
      "lonmax": 4.74977215133093, 
      "latmin": 50.87657999036616
    }, 
    {
      "latmax": 50.88755832109482, 
      "name": "Elfnovemberlaan", 
      "lonmin": 4.724006473647795, 
      "sanName": "elfnovemberlaan", 
      "numOfAddr": 78, 
      "lonmax": 4.727702057938198, 
      "latmin": 50.88468117015275
    }, 
    {
      "latmax": 50.88931495884813, 
      "name": "Emiel Vlieberghlaan", 
      "lonmin": 4.733734622650712, 
      "sanName": "emielvlieberghlaan", 
      "numOfAddr": 24, 
      "lonmax": 4.73532334720626, 
      "latmin": 50.888762085550496
    }, 
    {
      "latmax": 50.89839436657822, 
      "name": "E\u0082nmeilaan", 
      "lonmin": 4.71638447829631, 
      "sanName": "enmeilaan", 
      "numOfAddr": 87, 
      "lonmax": 4.719553287871956, 
      "latmin": 50.88584790362016
    }, 
    {
      "latmax": 50.88236230369487, 
      "name": "Ernest Solvaystraat", 
      "lonmin": 4.717593817127261, 
      "sanName": "ernestsolvaystraat", 
      "numOfAddr": 70, 
      "lonmax": 4.720350611312182, 
      "latmin": 50.881312553421544
    }, 
    {
      "latmax": 50.8799076913315, 
      "name": "Eugeen Vanhoorenbekelaan", 
      "lonmin": 4.736643522747057, 
      "sanName": "eugeenvanhoorenbekelaan", 
      "numOfAddr": 35, 
      "lonmax": 4.741532152667953, 
      "latmin": 50.877400369639155
    }, 
    {
      "latmax": 50.90131727087256, 
      "name": "Fazantenlaan", 
      "lonmin": 4.717738188847464, 
      "sanName": "fazantenlaan", 
      "numOfAddr": 73, 
      "lonmax": 4.723029682942285, 
      "latmin": 50.89962128120592
    }, 
    {
      "latmax": 50.89053650031861, 
      "name": "Frans Nackaertsplein", 
      "lonmin": 4.731203349917356, 
      "sanName": "fransnackaertsplein", 
      "numOfAddr": 9, 
      "lonmax": 4.731879381623369, 
      "latmin": 50.89004276612008
    }, 
    {
      "latmax": 50.89114248402777, 
      "name": "Frans Nackaertsstraat", 
      "lonmin": 4.7319664484665385, 
      "sanName": "fransnackaertsstraat", 
      "numOfAddr": 20, 
      "lonmax": 4.733160817942661, 
      "latmin": 50.88986390369404
    }, 
    {
      "latmax": 50.87662269347413, 
      "name": "Franz Schollaertstraat", 
      "lonmin": 4.731904758068973, 
      "sanName": "franzschollaertstraat", 
      "numOfAddr": 28, 
      "lonmax": 4.7337871039309265, 
      "latmin": 50.875578089924986
    }, 
    {
      "latmax": 50.89066451689714, 
      "name": "Garestalaan", 
      "lonmin": 4.739864472343768, 
      "sanName": "garestalaan", 
      "numOfAddr": 23, 
      "lonmax": 4.74324500993556, 
      "latmin": 50.889443121754724
    }, 
    {
      "latmax": 50.877103130366756, 
      "name": "Gaston Eyskenslaan", 
      "lonmin": 4.733529480742313, 
      "sanName": "gastoneyskenslaan", 
      "numOfAddr": 33, 
      "lonmax": 4.735261565877846, 
      "latmin": 50.87555197067234
    }, 
    {
      "latmax": 50.88784384547823, 
      "name": "Gelijkheidstraat", 
      "lonmin": 4.720298812723112, 
      "sanName": "gelijkheidstraat", 
      "numOfAddr": 14, 
      "lonmax": 4.7211371073060935, 
      "latmin": 50.887542435891035
    }, 
    {
      "latmax": 50.89139634076158, 
      "name": "Gemeenteplein", 
      "lonmin": 4.729096954696026, 
      "sanName": "gemeenteplein", 
      "numOfAddr": 26, 
      "lonmax": 4.730481562026781, 
      "latmin": 50.89011680326434
    }, 
    {
      "latmax": 50.89076070582878, 
      "name": "Gemeentestraat", 
      "lonmin": 4.71965739421823, 
      "sanName": "gemeentestraat", 
      "numOfAddr": 236, 
      "lonmax": 4.729280860106547, 
      "latmin": 50.88584541180949
    }, 
    {
      "latmax": 50.881632945738566, 
      "name": "Gezondheidstraat", 
      "lonmin": 4.732412453703583, 
      "sanName": "gezondheidstraat", 
      "numOfAddr": 14, 
      "lonmax": 4.733261205656986, 
      "latmin": 50.881158598995086
    }, 
    {
      "latmax": 50.87769136022367, 
      "name": "Gezusters Gregoirestraat", 
      "lonmin": 4.736836633970521, 
      "sanName": "gezustersgregoirestraat", 
      "numOfAddr": 13, 
      "lonmax": 4.7385864758475105, 
      "latmin": 50.87657680846202
    }, 
    {
      "latmax": 50.8884831820496, 
      "name": "Glimwormstraat", 
      "lonmin": 4.738434358975676, 
      "sanName": "glimwormstraat", 
      "numOfAddr": 2, 
      "lonmax": 4.7387264556472894, 
      "latmin": 50.888388365649135
    }, 
    {
      "latmax": 50.874386494659376, 
      "name": "Grensstraat", 
      "lonmin": 4.7286383089721165, 
      "sanName": "grensstraat", 
      "numOfAddr": 85, 
      "lonmax": 4.733813609997234, 
      "latmin": 50.8709712090384
    }, 
    {
      "latmax": 50.89987496569852, 
      "name": "Groddeweg", 
      "lonmin": 4.749713989155662, 
      "sanName": "groddeweg", 
      "numOfAddr": 34, 
      "lonmax": 4.753905203770652, 
      "latmin": 50.89710431325879
    }, 
    {
      "latmax": 50.874039959149385, 
      "name": "Guido Gezellelaan", 
      "lonmin": 4.723083556115223, 
      "sanName": "guidogezellelaan", 
      "numOfAddr": 10, 
      "lonmax": 4.724254663724423, 
      "latmin": 50.873473043640935
    }, 
    {
      "latmax": 50.88368243078858, 
      "name": "Guldensporenlaan", 
      "lonmin": 4.736702562166489, 
      "sanName": "guldensporenlaan", 
      "numOfAddr": 72, 
      "lonmax": 4.739695732509941, 
      "latmin": 50.88187738692804
    }, 
    {
      "latmax": 50.88588443639409, 
      "name": "Heidebergstraat", 
      "lonmin": 4.740595395592842, 
      "sanName": "heidebergstraat", 
      "numOfAddr": 256, 
      "lonmax": 4.762148526665726, 
      "latmin": 50.87557241718031
    }, 
    {
      "latmax": 50.8752737534588, 
      "name": "Heidebloempad", 
      "lonmin": 4.754918612449072, 
      "sanName": "heidebloempad", 
      "numOfAddr": 10, 
      "lonmax": 4.756755240350404, 
      "latmin": 50.8722105479022
    }, 
    {
      "latmax": 50.90065305263814, 
      "name": "Heikneuterlaan", 
      "lonmin": 4.72004746323263, 
      "sanName": "heikneuterlaan", 
      "numOfAddr": 46, 
      "lonmax": 4.722479468069818, 
      "latmin": 50.899616681715
    }, 
    {
      "latmax": 50.89228662130872, 
      "name": "Herfstlaan", 
      "lonmin": 4.718417975064483, 
      "sanName": "herfstlaan", 
      "numOfAddr": 42, 
      "lonmax": 4.720847292848474, 
      "latmin": 50.889866266893065
    }, 
    {
      "latmax": 50.87679265617661, 
      "name": "Herman Teirlincklaan", 
      "lonmin": 4.735757121887354, 
      "sanName": "hermanteirlincklaan", 
      "numOfAddr": 15, 
      "lonmax": 4.73701940311159, 
      "latmin": 50.876176503024084
    }, 
    {
      "latmax": 50.90687520731708, 
      "name": "Hertendries", 
      "lonmin": 4.7412426856326375, 
      "sanName": "hertendries", 
      "numOfAddr": 3, 
      "lonmax": 4.741935011493994, 
      "latmin": 50.906097317841336
    }, 
    {
      "latmax": 50.87501767143377, 
      "name": "Hertog Jan I-straat", 
      "lonmin": 4.717149845089564, 
      "sanName": "hertogjanistraat", 
      "numOfAddr": 2, 
      "lonmax": 4.717202071229625, 
      "latmin": 50.87481848766201
    }, 
    {
      "latmax": 50.88862448637599, 
      "name": "Heuvelhof", 
      "lonmin": 4.729426211351131, 
      "sanName": "heuvelhof", 
      "numOfAddr": 68, 
      "lonmax": 4.732838085226665, 
      "latmin": 50.88710855529439
    }, 
    {
      "latmax": 50.88508384046966, 
      "name": "Heuvelstraat", 
      "lonmin": 4.725692835703784, 
      "sanName": "heuvelstraat", 
      "numOfAddr": 20, 
      "lonmax": 4.726106535570268, 
      "latmin": 50.884432221826465
    }, 
    {
      "latmax": 50.90741412410923, 
      "name": "Holsbeeksesteenweg", 
      "lonmin": 4.727320460786588, 
      "sanName": "holsbeeksesteenweg", 
      "numOfAddr": 298, 
      "lonmax": 4.747500419169672, 
      "latmin": 50.89144471515139
    }, 
    {
      "latmax": 50.88941804022293, 
      "name": "Honingbijstraat", 
      "lonmin": 4.737083328064087, 
      "sanName": "honingbijstraat", 
      "numOfAddr": 3, 
      "lonmax": 4.737348691216864, 
      "latmin": 50.888984284997385
    }, 
    {
      "latmax": 50.87549766110543, 
      "name": "Hugo Verriestlaan", 
      "lonmin": 4.731818407632712, 
      "sanName": "hugoverriestlaan", 
      "numOfAddr": 8, 
      "lonmax": 4.732881058382775, 
      "latmin": 50.874747040194805
    }, 
    {
      "latmax": 50.90815113822551, 
      "name": "Hulsberg", 
      "lonmin": 4.7197504416805955, 
      "sanName": "hulsberg", 
      "numOfAddr": 41, 
      "lonmax": 4.7211573005475564, 
      "latmin": 50.905609572732324
    }, 
    {
      "latmax": 50.884067090037504, 
      "name": "Ijzerenwegstraat", 
      "lonmin": 4.716229175820034, 
      "sanName": "ijzerenwegstraat", 
      "numOfAddr": 16, 
      "lonmax": 4.716758058325706, 
      "latmin": 50.883711544841645
    }, 
    {
      "latmax": 50.893235222127046, 
      "name": "Jan Davidtsstraat", 
      "lonmin": 4.750953812436932, 
      "sanName": "jandavidtsstraat", 
      "numOfAddr": 43, 
      "lonmax": 4.751430633070369, 
      "latmin": 50.88855300766025
    }, 
    {
      "latmax": 50.902291202216844, 
      "name": "Jan Van Bouwelstraat", 
      "lonmin": 4.726346090928321, 
      "sanName": "janvanbouwelstraat", 
      "numOfAddr": 12, 
      "lonmax": 4.7276646785044205, 
      "latmin": 50.9020071530273
    }, 
    {
      "latmax": 50.87472188559298, 
      "name": "Jan Vandeveldelaan", 
      "lonmin": 4.724368418744049, 
      "sanName": "janvandeveldelaan", 
      "numOfAddr": 18, 
      "lonmax": 4.726059024032095, 
      "latmin": 50.873714945394134
    }, 
    {
      "latmax": 50.88698751244288, 
      "name": "Jeugdplein", 
      "lonmin": 4.723627682840689, 
      "sanName": "jeugdplein", 
      "numOfAddr": 22, 
      "lonmax": 4.724679507948845, 
      "latmin": 50.88609478686525
    }, 
    {
      "latmax": 50.88632936184367, 
      "name": "Jeugdstraat", 
      "lonmin": 4.722921900834919, 
      "sanName": "jeugdstraat", 
      "numOfAddr": 17, 
      "lonmax": 4.723640969005862, 
      "latmin": 50.88568243115519
    }, 
    {
      "latmax": 50.87719702699239, 
      "name": "Jozef Deveusterlaan", 
      "lonmin": 4.734071929141018, 
      "sanName": "jozefdeveusterlaan", 
      "numOfAddr": 27, 
      "lonmax": 4.73574799349544, 
      "latmin": 50.87619343457174
    }, 
    {
      "latmax": 50.88598065812291, 
      "name": "Jozef Pierrestraat", 
      "lonmin": 4.720132131184279, 
      "sanName": "jozefpierrestraat", 
      "numOfAddr": 92, 
      "lonmax": 4.724970989283877, 
      "latmin": 50.8848236923068
    }, 
    {
      "latmax": 50.88151654348083, 
      "name": "Jozef Wautersstraat", 
      "lonmin": 4.721488761875732, 
      "sanName": "jozefwautersstraat", 
      "numOfAddr": 75, 
      "lonmax": 4.724542595217744, 
      "latmin": 50.880216903245916
    }, 
    {
      "latmax": 50.87715530031231, 
      "name": "Kamperfoeliepad", 
      "lonmin": 4.756151537879305, 
      "sanName": "kamperfoeliepad", 
      "numOfAddr": 2, 
      "lonmax": 4.7563778051089995, 
      "latmin": 50.87697553844468
    }, 
    {
      "latmax": 50.88219653347604, 
      "name": "Kamperfoelieweg", 
      "lonmin": 4.756545952123058, 
      "sanName": "kamperfoelieweg", 
      "numOfAddr": 5, 
      "lonmax": 4.758884470641851, 
      "latmin": 50.87989358497212
    }, 
    {
      "latmax": 50.88251493281834, 
      "name": "Kapellekensweg", 
      "lonmin": 4.750131268841922, 
      "sanName": "kapellekensweg", 
      "numOfAddr": 17, 
      "lonmax": 4.756793429906732, 
      "latmin": 50.87921949767004
    }, 
    {
      "latmax": 50.90381416933625, 
      "name": "Karekietenlaan", 
      "lonmin": 4.721962652191125, 
      "sanName": "karekietenlaan", 
      "numOfAddr": 64, 
      "lonmax": 4.723389784022813, 
      "latmin": 50.90117243865977
    }, 
    {
      "latmax": 50.88187318644249, 
      "name": "Karel Schurmansstraat", 
      "lonmin": 4.718508019871551, 
      "sanName": "karelschurmansstraat", 
      "numOfAddr": 93, 
      "lonmax": 4.7253029821323, 
      "latmin": 50.88040162930597
    }, 
    {
      "latmax": 50.89374287117328, 
      "name": "Katjeswilgenlaan", 
      "lonmin": 4.71779136403309, 
      "sanName": "katjeswilgenlaan", 
      "numOfAddr": 11, 
      "lonmax": 4.718661490463343, 
      "latmin": 50.89344996188326
    }, 
    {
      "latmax": 50.88705886012825, 
      "name": "Kerkstraat", 
      "lonmin": 4.7214721007085805, 
      "sanName": "kerkstraat", 
      "numOfAddr": 96, 
      "lonmax": 4.722197066812294, 
      "latmin": 50.884131192635046
    }, 
    {
      "latmax": 50.878406787462524, 
      "name": "Kerselarenstraat", 
      "lonmin": 4.737237601509028, 
      "sanName": "kerselarenstraat", 
      "numOfAddr": 18, 
      "lonmax": 4.739191155731124, 
      "latmin": 50.87746938941219
    }, 
    {
      "latmax": 50.900102811717694, 
      "name": "Kesselbergplein", 
      "lonmin": 4.717750162144497, 
      "sanName": "kesselbergplein", 
      "numOfAddr": 3, 
      "lonmax": 4.718120281347515, 
      "latmin": 50.89999994801449
    }, 
    {
      "latmax": 50.90423026584522, 
      "name": "Kesseldallaan", 
      "lonmin": 4.717318110408735, 
      "sanName": "kesseldallaan", 
      "numOfAddr": 28, 
      "lonmax": 4.722280674723769, 
      "latmin": 50.898778959013505
    }, 
    {
      "latmax": 50.90183400484913, 
      "name": "Kesselveld", 
      "lonmin": 4.7304101881984195, 
      "sanName": "kesselveld", 
      "numOfAddr": 8, 
      "lonmax": 4.731144783517878, 
      "latmin": 50.90088126014536
    }, 
    {
      "latmax": 50.88379207589148, 
      "name": "Ketelmakerij", 
      "lonmin": 4.723472321380372, 
      "sanName": "ketelmakerij", 
      "numOfAddr": 6, 
      "lonmax": 4.724007832250424, 
      "latmin": 50.883218268348806
    }, 
    {
      "latmax": 50.879106202171165, 
      "name": "Klaprozenveld", 
      "lonmin": 4.719838120316006, 
      "sanName": "klaprozenveld", 
      "numOfAddr": 10, 
      "lonmax": 4.720638058633843, 
      "latmin": 50.87818241110776
    }, 
    {
      "latmax": 50.87955745256333, 
      "name": "Klaverstraat", 
      "lonmin": 4.73529985492042, 
      "sanName": "klaverstraat", 
      "numOfAddr": 23, 
      "lonmax": 4.737166022859061, 
      "latmin": 50.87817412049102
    }, 
    {
      "latmax": 50.87450144660607, 
      "name": "Klein-Rijselstraat", 
      "lonmin": 4.715918660861148, 
      "sanName": "kleinrijselstraat", 
      "numOfAddr": 20, 
      "lonmax": 4.716560217769092, 
      "latmin": 50.8738203247385
    }, 
    {
      "latmax": 50.9009967876168, 
      "name": "Kloosterbosstraat", 
      "lonmin": 4.736313572125621, 
      "sanName": "kloosterbosstraat", 
      "numOfAddr": 18, 
      "lonmax": 4.737561191990046, 
      "latmin": 50.89946510516417
    }, 
    {
      "latmax": 50.87520105641442, 
      "name": "Kluisdelle", 
      "lonmin": 4.740181951759988, 
      "sanName": "kluisdelle", 
      "numOfAddr": 11, 
      "lonmax": 4.742154084223955, 
      "latmin": 50.873546420186514
    }, 
    {
      "latmax": 50.906453575597176, 
      "name": "Koestaart", 
      "lonmin": 4.73854073514116, 
      "sanName": "koestaart", 
      "numOfAddr": 5, 
      "lonmax": 4.741099645061639, 
      "latmin": 50.90612450085215
    }, 
    {
      "latmax": 50.879361962566286, 
      "name": "Koetsweg", 
      "lonmin": 2.306689562140502, 
      "sanName": "koetsweg", 
      "numOfAddr": 217, 
      "lonmax": 4.7495812190581255, 
      "latmin": 49.293335165093566
    }, 
    {
      "latmax": 50.87679206613413, 
      "name": "Koning Albertlaan", 
      "lonmin": 4.7201457670882325, 
      "sanName": "koningalbertlaan", 
      "numOfAddr": 145, 
      "lonmax": 4.727324020634144, 
      "latmin": 50.87310425576035
    }, 
    {
      "latmax": 50.87772041898112, 
      "name": "Koning Albertplein", 
      "lonmin": 4.7292559970782015, 
      "sanName": "koningalbertplein", 
      "numOfAddr": 3, 
      "lonmax": 4.731033189654501, 
      "latmin": 50.876830724700326
    }, 
    {
      "latmax": 50.87583606661958, 
      "name": "Koningin Astridlaan", 
      "lonmin": 4.720881484635888, 
      "sanName": "koninginastridlaan", 
      "numOfAddr": 57, 
      "lonmax": 4.7233004772420415, 
      "latmin": 50.87472122305644
    }, 
    {
      "latmax": 50.9053646980066, 
      "name": "Koningsstraat", 
      "lonmin": 4.7279481158234535, 
      "sanName": "koningsstraat", 
      "numOfAddr": 2, 
      "lonmax": 4.730705290980795, 
      "latmin": 50.90497198024309
    }, 
    {
      "latmax": 50.88366371498491, 
      "name": "Koperslagerij", 
      "lonmin": 4.722829604677364, 
      "sanName": "koperslagerij", 
      "numOfAddr": 15, 
      "lonmax": 4.723190885781593, 
      "latmin": 50.883013804135466
    }, 
    {
      "latmax": 50.87425701165354, 
      "name": "Korenstraat", 
      "lonmin": 4.716634317628224, 
      "sanName": "korenstraat", 
      "numOfAddr": 26, 
      "lonmax": 4.7178201379866245, 
      "latmin": 50.873613601400486
    }, 
    {
      "latmax": 50.8982057897916, 
      "name": "Kortrijksestraat", 
      "lonmin": 4.726244813165164, 
      "sanName": "kortrijksestraat", 
      "numOfAddr": 203, 
      "lonmax": 4.754313578490559, 
      "latmin": 50.8858589668119
    }, 
    {
      "latmax": 50.881514798762275, 
      "name": "Krakaulaan", 
      "lonmin": 4.723503511349489, 
      "sanName": "krakaulaan", 
      "numOfAddr": 16, 
      "lonmax": 4.724758319294791, 
      "latmin": 50.880905887384195
    }, 
    {
      "latmax": 50.88116365206244, 
      "name": "Krakauplein", 
      "lonmin": 4.7249095942158865, 
      "sanName": "krakauplein", 
      "numOfAddr": 6, 
      "lonmax": 4.725728422884635, 
      "latmin": 50.880635429196985
    }, 
    {
      "latmax": 50.90733816275201, 
      "name": "Kriekenbergweg", 
      "lonmin": 4.735493656360893, 
      "sanName": "kriekenbergweg", 
      "numOfAddr": 20, 
      "lonmax": 4.737792632936137, 
      "latmin": 50.90509288370636
    }, 
    {
      "latmax": 50.88271981763699, 
      "name": "Landbouwstraat", 
      "lonmin": 4.72783360977945, 
      "sanName": "landbouwstraat", 
      "numOfAddr": 28, 
      "lonmax": 4.7290634454715486, 
      "latmin": 50.88226690124633
    }, 
    {
      "latmax": 50.888961042835966, 
      "name": "Lange Lostraat", 
      "lonmin": 4.752305461923457, 
      "sanName": "langelostraat", 
      "numOfAddr": 75, 
      "lonmax": 4.769710129547912, 
      "latmin": 50.871859648780884
    }, 
    {
      "latmax": 50.88899207118344, 
      "name": "Laurent-Benoit Dewezlaan", 
      "lonmin": 4.740984475388003, 
      "sanName": "laurentbenoitdewezlaan", 
      "numOfAddr": 35, 
      "lonmax": 4.744199759815786, 
      "latmin": 50.88832562502271
    }, 
    {
      "latmax": 50.907960866501476, 
      "name": "Leming", 
      "lonmin": 4.748347490947476, 
      "sanName": "leming", 
      "numOfAddr": 34, 
      "lonmax": 4.758846051823796, 
      "latmin": 50.90640129264577
    }, 
    {
      "latmax": 50.89031893938909, 
      "name": "Lentedreef", 
      "lonmin": 4.718944647565139, 
      "sanName": "lentedreef", 
      "numOfAddr": 26, 
      "lonmax": 4.721497112499245, 
      "latmin": 50.88864286272803
    }, 
    {
      "latmax": 50.888305001307806, 
      "name": "Leopold Beosierlaan", 
      "lonmin": 4.724980808238044, 
      "sanName": "leopoldbeosierlaan", 
      "numOfAddr": 116, 
      "lonmax": 4.729976149149644, 
      "latmin": 50.885101915620076
    }, 
    {
      "latmax": 50.89191987574862, 
      "name": "Leopold Ruelensstraat", 
      "lonmin": 4.724879056238466, 
      "sanName": "leopoldruelensstraat", 
      "numOfAddr": 34, 
      "lonmax": 4.726787614548806, 
      "latmin": 50.88977565759996
    }, 
    {
      "latmax": 50.884807411165724, 
      "name": "Leuvensestraat", 
      "lonmin": 4.7168331788401, 
      "sanName": "leuvensestraat", 
      "numOfAddr": 38, 
      "lonmax": 4.718472821554719, 
      "latmin": 50.884074075657836
    }, 
    {
      "latmax": 50.903010463561756, 
      "name": "Liemingenstraat", 
      "lonmin": 4.729899672117468, 
      "sanName": "liemingenstraat", 
      "numOfAddr": 40, 
      "lonmax": 4.734031836794276, 
      "latmin": 50.90002002250345
    }, 
    {
      "latmax": 50.880528715272234, 
      "name": "Lijsterlaan", 
      "lonmin": 4.730051261275711, 
      "sanName": "lijsterlaan", 
      "numOfAddr": 44, 
      "lonmax": 4.735668994183313, 
      "latmin": 50.87810676634267
    }, 
    {
      "latmax": 50.88536596042974, 
      "name": "Lindensestraat", 
      "lonmin": 4.723122375218956, 
      "sanName": "lindensestraat", 
      "numOfAddr": 53, 
      "lonmax": 4.7260455075528185, 
      "latmin": 50.88438401429217
    }, 
    {
      "latmax": 50.87644552679329, 
      "name": "Lobergenbos", 
      "lonmin": 4.748197730665951, 
      "sanName": "lobergenbos", 
      "numOfAddr": 20, 
      "lonmax": 4.751304130889375, 
      "latmin": 50.87426866649872
    }, 
    {
      "latmax": 50.88298544479297, 
      "name": "Locomotievenstraat", 
      "lonmin": 4.717151792946258, 
      "sanName": "locomotievenstraat", 
      "numOfAddr": 3, 
      "lonmax": 4.724935025250926, 
      "latmin": 50.88257647761235
    }, 
    {
      "latmax": 50.88029565360789, 
      "name": "Lodreef", 
      "lonmin": 4.738696265836132, 
      "sanName": "lodreef", 
      "numOfAddr": 96, 
      "lonmax": 4.742944527966834, 
      "latmin": 50.87746793505351
    }, 
    {
      "latmax": 50.881779514292795, 
      "name": "Lolanden", 
      "lonmin": 4.728449807862481, 
      "sanName": "lolanden", 
      "numOfAddr": 12, 
      "lonmax": 4.730371404396947, 
      "latmin": 50.88013558794501
    }, 
    {
      "latmax": 50.87574917975633, 
      "name": "Losbergenlaan", 
      "lonmin": 4.737303146057548, 
      "sanName": "losbergenlaan", 
      "numOfAddr": 23, 
      "lonmax": 4.742328382684318, 
      "latmin": 50.874081515099036
    }, 
    {
      "latmax": 50.87362887868661, 
      "name": "Louis Pasteurwijk", 
      "lonmin": 4.727212789620323, 
      "sanName": "louispasteurwijk", 
      "numOfAddr": 32, 
      "lonmax": 4.728413542372113, 
      "latmin": 50.87284485384962
    }, 
    {
      "latmax": 50.87967209837449, 
      "name": "Lovensveldstraat", 
      "lonmin": 4.723256221130782, 
      "sanName": "lovensveldstraat", 
      "numOfAddr": 23, 
      "lonmax": 4.724149911970693, 
      "latmin": 50.8787812469384
    }, 
    {
      "latmax": 50.88461996322821, 
      "name": "Marie-Elisabeth Belpairestraat", 
      "lonmin": 4.7348025691845494, 
      "sanName": "marieelisabethbelpairestraat", 
      "numOfAddr": 8, 
      "lonmax": 4.735601387098553, 
      "latmin": 50.884544702394635
    }, 
    {
      "latmax": 50.88325498947175, 
      "name": "Martelarenlaan", 
      "lonmin": 4.716742571790375, 
      "sanName": "martelarenlaan", 
      "numOfAddr": 130, 
      "lonmax": 4.720666083941781, 
      "latmin": 50.872620592819814
    }, 
    {
      "latmax": 50.89842871483775, 
      "name": "Martellekensweg", 
      "lonmin": 4.744665880432216, 
      "sanName": "martellekensweg", 
      "numOfAddr": 3, 
      "lonmax": 4.7494782752705085, 
      "latmin": 50.89646215494529
    }, 
    {
      "latmax": 50.9086653453989, 
      "name": "Meesbergpad", 
      "lonmin": 4.749162764894201, 
      "sanName": "meesbergpad", 
      "numOfAddr": 1, 
      "lonmax": 4.749162764894201, 
      "latmin": 50.9086653453989
    }, 
    {
      "latmax": 50.889367833238786, 
      "name": "Meikeverstraat", 
      "lonmin": 4.738244388597323, 
      "sanName": "meikeverstraat", 
      "numOfAddr": 2, 
      "lonmax": 4.740458268330869, 
      "latmin": 50.88899298007469
    }, 
    {
      "latmax": 50.8908830574131, 
      "name": "Meugenslaan", 
      "lonmin": 4.74337004578283, 
      "sanName": "meugenslaan", 
      "numOfAddr": 39, 
      "lonmax": 4.745674895654884, 
      "latmin": 50.888440500078346
    }, 
    {
      "latmax": 50.89161838331199, 
      "name": "Molenstraat", 
      "lonmin": 4.733381431798987, 
      "sanName": "molenstraat", 
      "numOfAddr": 77, 
      "lonmax": 4.739893717689369, 
      "latmin": 50.88616120382531
    }, 
    {
      "latmax": 50.8871463185134, 
      "name": "Molenveldlaan", 
      "lonmin": 4.737046676963019, 
      "sanName": "molenveldlaan", 
      "numOfAddr": 24, 
      "lonmax": 4.73850181736366, 
      "latmin": 50.88644967287334
    }, 
    {
      "latmax": 50.88677628206492, 
      "name": "Molenveldplein", 
      "lonmin": 4.73596734060661, 
      "sanName": "molenveldplein", 
      "numOfAddr": 13, 
      "lonmax": 4.737004090508547, 
      "latmin": 50.88591937258386
    }, 
    {
      "latmax": 50.90691720961554, 
      "name": "Musbergpad", 
      "lonmin": 4.744011200214218, 
      "sanName": "musbergpad", 
      "numOfAddr": 5, 
      "lonmax": 4.7450833337109275, 
      "latmin": 50.906214699603495
    }, 
    {
      "latmax": 50.87285836213561, 
      "name": "Onafhankelijkheidstraat", 
      "lonmin": 4.726867384510268, 
      "sanName": "onafhankelijkheidstraat", 
      "numOfAddr": 9, 
      "lonmax": 4.727460592916358, 
      "latmin": 50.87231084738372
    }, 
    {
      "latmax": 50.875841974286374, 
      "name": "Ontvoogdingstraat", 
      "lonmin": 4.7261595517187045, 
      "sanName": "ontvoogdingstraat", 
      "numOfAddr": 29, 
      "lonmax": 4.728068348110655, 
      "latmin": 50.87474857658538
    }, 
    {
      "latmax": 50.88912890804445, 
      "name": "Onze-Toevluchtstraat", 
      "lonmin": 4.721497394924314, 
      "sanName": "onzetoevluchtstraat", 
      "numOfAddr": 8, 
      "lonmax": 4.721810748943232, 
      "latmin": 50.888861065764516
    }, 
    {
      "latmax": 50.9026234816016, 
      "name": "Op de Vliet", 
      "lonmin": 4.727160543744275, 
      "sanName": "opdevliet", 
      "numOfAddr": 25, 
      "lonmax": 4.730225294516414, 
      "latmin": 50.901615025852244
    }, 
    {
      "latmax": 50.882511198658726, 
      "name": "Opvoedingstraat", 
      "lonmin": 4.725323319450538, 
      "sanName": "opvoedingstraat", 
      "numOfAddr": 33, 
      "lonmax": 4.726848190626186, 
      "latmin": 50.88193495723046
    }, 
    {
      "latmax": 50.87808375631258, 
      "name": "Ortolanenstraat", 
      "lonmin": 4.731086844647556, 
      "sanName": "ortolanenstraat", 
      "numOfAddr": 12, 
      "lonmax": 4.7324368421470355, 
      "latmin": 50.876914274373725
    }, 
    {
      "latmax": 50.883672851052275, 
      "name": "Oude Diestsesteenweg", 
      "lonmin": 4.716424569896436, 
      "sanName": "oudediestsesteenweg", 
      "numOfAddr": 17, 
      "lonmax": 4.717454581513845, 
      "latmin": 50.883324159486364
    }, 
    {
      "latmax": 50.873723438611435, 
      "name": "Overwinningstraat", 
      "lonmin": 4.725678725581406, 
      "sanName": "overwinningstraat", 
      "numOfAddr": 87, 
      "lonmax": 4.729630040318143, 
      "latmin": 50.87141834784213
    }, 
    {
      "latmax": 50.88150206215024, 
      "name": "Partisanenstraat", 
      "lonmin": 4.73021504640392, 
      "sanName": "partisanenstraat", 
      "numOfAddr": 53, 
      "lonmax": 4.733862642683112, 
      "latmin": 50.879280564323636
    }, 
    {
      "latmax": 50.878785611120485, 
      "name": "Pasteelsblokweg", 
      "lonmin": 4.759629166470034, 
      "sanName": "pasteelsblokweg", 
      "numOfAddr": 40, 
      "lonmax": 4.7640960255145925, 
      "latmin": 50.87599234742007
    }, 
    {
      "latmax": 50.88936026062001, 
      "name": "Pastoor Eeckelaerslaan", 
      "lonmin": 4.733054201080381, 
      "sanName": "pastooreeckelaerslaan", 
      "numOfAddr": 16, 
      "lonmax": 4.734641656937682, 
      "latmin": 50.88747057498194
    }, 
    {
      "latmax": 50.88385582421591, 
      "name": "Paswerkerij", 
      "lonmin": 4.724379986952837, 
      "sanName": "paswerkerij", 
      "numOfAddr": 15, 
      "lonmax": 4.724780286658731, 
      "latmin": 50.88321349745065
    }, 
    {
      "latmax": 50.87819497674197, 
      "name": "Pater Lievenslaan", 
      "lonmin": 4.734360827875064, 
      "sanName": "paterlievenslaan", 
      "numOfAddr": 37, 
      "lonmax": 4.736479447027361, 
      "latmin": 50.876641334505116
    }, 
    {
      "latmax": 50.88473249827863, 
      "name": "Paternosterstraat", 
      "lonmin": 4.718557931997781, 
      "sanName": "paternosterstraat", 
      "numOfAddr": 44, 
      "lonmax": 4.719962253602422, 
      "latmin": 50.88391654033648
    }, 
    {
      "latmax": 50.90283553511009, 
      "name": "Patrijzenlaan", 
      "lonmin": 4.721558351677741, 
      "sanName": "patrijzenlaan", 
      "numOfAddr": 14, 
      "lonmax": 4.722325964590647, 
      "latmin": 50.90175142883087
    }, 
    {
      "latmax": 50.88519933890274, 
      "name": "Patroonschapstraat", 
      "lonmin": 4.723402764009639, 
      "sanName": "patroonschapstraat", 
      "numOfAddr": 19, 
      "lonmax": 4.724294265832422, 
      "latmin": 50.884441417884226
    }, 
    {
      "latmax": 50.870290302813515, 
      "name": "Pellenbergstraat", 
      "lonmin": 4.742126451207715, 
      "sanName": "pellenbergstraat", 
      "numOfAddr": 53, 
      "lonmax": 4.749607367914791, 
      "latmin": 50.86712637473099
    }, 
    {
      "latmax": 50.876238582561285, 
      "name": "Peter Benoitlaan", 
      "lonmin": 4.722427555943738, 
      "sanName": "peterbenoitlaan", 
      "numOfAddr": 55, 
      "lonmax": 4.724560895673376, 
      "latmin": 50.87517595118027
    }, 
    {
      "latmax": 50.88949213086193, 
      "name": "Peter Scribslaan", 
      "lonmin": 4.740785163309793, 
      "sanName": "peterscribslaan", 
      "numOfAddr": 13, 
      "lonmax": 4.741915509860421, 
      "latmin": 50.88864127770514
    }, 
    {
      "latmax": 50.878484620519814, 
      "name": "Pieter Nollekensstraat", 
      "lonmin": 4.719740338413848, 
      "sanName": "pieternollekensstraat", 
      "numOfAddr": 118, 
      "lonmax": 4.725510181882178, 
      "latmin": 50.87600799859628
    }, 
    {
      "latmax": 50.89043515156754, 
      "name": "Pieter Paradaenslaan", 
      "lonmin": 4.738577286328454, 
      "sanName": "pieterparadaenslaan", 
      "numOfAddr": 6, 
      "lonmax": 4.739829758315429, 
      "latmin": 50.88926520148503
    }, 
    {
      "latmax": 50.88804039998942, 
      "name": "Platte Lostraat", 
      "lonmin": 4.7208464590598656, 
      "sanName": "plattelostraat", 
      "numOfAddr": 424, 
      "lonmax": 4.754815374899544, 
      "latmin": 50.8724158203264
    }, 
    {
      "latmax": 50.88099703959632, 
      "name": "Ploegstaart", 
      "lonmin": 4.735831604925564, 
      "sanName": "ploegstaart", 
      "numOfAddr": 15, 
      "lonmax": 4.736737081296148, 
      "latmin": 50.88058445492532
    }, 
    {
      "latmax": 50.881152393564705, 
      "name": "Poortveldstraat", 
      "lonmin": 4.729741196979565, 
      "sanName": "poortveldstraat", 
      "numOfAddr": 39, 
      "lonmax": 4.732030203477166, 
      "latmin": 50.879639528399544
    }, 
    {
      "latmax": 50.87292617919475, 
      "name": "Predikherenberg", 
      "lonmin": 4.732545732075419, 
      "sanName": "predikherenberg", 
      "numOfAddr": 28, 
      "lonmax": 4.739408566985851, 
      "latmin": 50.87140817152486
    }, 
    {
      "latmax": 50.87622610456324, 
      "name": "Priester Daensstraat", 
      "lonmin": 4.732645761010886, 
      "sanName": "priesterdaensstraat", 
      "numOfAddr": 29, 
      "lonmax": 4.734364609222058, 
      "latmin": 50.87519754554382
    }, 
    {
      "latmax": 50.8788363361657, 
      "name": "Prins-Regentlaan", 
      "lonmin": 4.726703005055328, 
      "sanName": "prinsregentlaan", 
      "numOfAddr": 46, 
      "lonmax": 4.729239232810041, 
      "latmin": 50.87737190371266
    }, 
    {
      "latmax": 50.87974046120982, 
      "name": "Prins-Regentplein", 
      "lonmin": 4.728492979299835, 
      "sanName": "prinsregentplein", 
      "numOfAddr": 38, 
      "lonmax": 4.729971045538646, 
      "latmin": 50.87880635188917
    }, 
    {
      "latmax": 50.87662329514158, 
      "name": "Provincieplein", 
      "lonmin": 4.716907159398182, 
      "sanName": "provincieplein", 
      "numOfAddr": 1, 
      "lonmax": 4.716907159398182, 
      "latmin": 50.87662329514158
    }, 
    {
      "latmax": 50.88852598313516, 
      "name": "Raadhuislaan", 
      "lonmin": 4.734518723293236, 
      "sanName": "raadhuislaan", 
      "numOfAddr": 21, 
      "lonmax": 4.736173870289147, 
      "latmin": 50.88804332130625
    }, 
    {
      "latmax": 50.88489660436014, 
      "name": "Rerum Novarumlaan", 
      "lonmin": 4.735644692197775, 
      "sanName": "rerumnovarumlaan", 
      "numOfAddr": 42, 
      "lonmax": 4.7372282474812355, 
      "latmin": 50.881604284492845
    }, 
    {
      "latmax": 50.884262793340916, 
      "name": "Richard Valvekensstraat", 
      "lonmin": 4.725094157054371, 
      "sanName": "richardvalvekensstraat", 
      "numOfAddr": 89, 
      "lonmax": 4.72911507898287, 
      "latmin": 50.883045018670984
    }, 
    {
      "latmax": 50.899513494990536, 
      "name": "Rietgors", 
      "lonmin": 4.71816007490126, 
      "sanName": "rietgors", 
      "numOfAddr": 24, 
      "lonmax": 4.719565579080772, 
      "latmin": 50.898972291196344
    }, 
    {
      "latmax": 50.87542275160637, 
      "name": "Romain Rollandstraat", 
      "lonmin": 4.7304031185683915, 
      "sanName": "romainrollandstraat", 
      "numOfAddr": 10, 
      "lonmax": 4.731420668198344, 
      "latmin": 50.87472273869734
    }, 
    {
      "latmax": 50.883558566513116, 
      "name": "Rondestraat", 
      "lonmin": 4.7179815535470135, 
      "sanName": "rondestraat", 
      "numOfAddr": 47, 
      "lonmax": 4.719943820706486, 
      "latmin": 50.88266682749863
    }, 
    {
      "latmax": 50.887788558035865, 
      "name": "Ruiterslaan", 
      "lonmin": 4.734953964230184, 
      "sanName": "ruiterslaan", 
      "numOfAddr": 26, 
      "lonmax": 4.7369391589168055, 
      "latmin": 50.88730612468671
    }, 
    {
      "latmax": 50.8869958613084, 
      "name": "Rustoordlaan", 
      "lonmin": 4.728309504549884, 
      "sanName": "rustoordlaan", 
      "numOfAddr": 11, 
      "lonmax": 4.729882578966868, 
      "latmin": 50.88603244205602
    }, 
    {
      "latmax": 50.88218454383811, 
      "name": "Schakellaan", 
      "lonmin": 4.731256467859549, 
      "sanName": "schakellaan", 
      "numOfAddr": 24, 
      "lonmax": 4.732823569144717, 
      "latmin": 50.880733465011346
    }, 
    {
      "latmax": 50.89859782074966, 
      "name": "Schoolbergenstraat", 
      "lonmin": 4.73297554417767, 
      "sanName": "schoolbergenstraat", 
      "numOfAddr": 114, 
      "lonmax": 4.748852985101263, 
      "latmin": 50.8944478436977
    }, 
    {
      "latmax": 50.87610801110633, 
      "name": "Schoolstraat", 
      "lonmin": 4.726680835981481, 
      "sanName": "schoolstraat", 
      "numOfAddr": 17, 
      "lonmax": 4.728047744402392, 
      "latmin": 50.8755500605026
    }, 
    {
      "latmax": 50.87118022214691, 
      "name": "Sint-Martinusberg", 
      "lonmin": 4.743273208728311, 
      "sanName": "sintmartinusberg", 
      "numOfAddr": 3, 
      "lonmax": 4.7523862834413135, 
      "latmin": 50.87037031838179
    }, 
    {
      "latmax": 50.905493834115234, 
      "name": "Slangenstraat", 
      "lonmin": 4.753776113340879, 
      "sanName": "slangenstraat", 
      "numOfAddr": 19, 
      "lonmax": 4.758825973595253, 
      "latmin": 50.90082388579965
    }, 
    {
      "latmax": 50.883896151417325, 
      "name": "Smidsestraat", 
      "lonmin": 4.7249101717576, 
      "sanName": "smidsestraat", 
      "numOfAddr": 29, 
      "lonmax": 4.725537228193534, 
      "latmin": 50.88195616573286
    }, 
    {
      "latmax": 50.908190889471406, 
      "name": "Smokkelweg", 
      "lonmin": 4.743629227904239, 
      "sanName": "smokkelweg", 
      "numOfAddr": 3, 
      "lonmax": 4.744337265191537, 
      "latmin": 50.907505368400315
    }, 
    {
      "latmax": 50.90398654424838, 
      "name": "Sneppenstraat", 
      "lonmin": 4.733733328395061, 
      "sanName": "sneppenstraat", 
      "numOfAddr": 78, 
      "lonmax": 4.752349736053713, 
      "latmin": 50.89833201212832
    }, 
    {
      "latmax": 50.880414145955484, 
      "name": "Spaarstraat", 
      "lonmin": 4.719731973106554, 
      "sanName": "spaarstraat", 
      "numOfAddr": 135, 
      "lonmax": 4.727923619470548, 
      "latmin": 50.87825687239803
    }, 
    {
      "latmax": 50.89997104739492, 
      "name": "Sparrenboslaan", 
      "lonmin": 4.718978403948976, 
      "sanName": "sparrenboslaan", 
      "numOfAddr": 19, 
      "lonmax": 4.720245789378444, 
      "latmin": 50.898937300160775
    }, 
    {
      "latmax": 50.899060959884984, 
      "name": "Spechtenstraat", 
      "lonmin": 4.738128972514107, 
      "sanName": "spechtenstraat", 
      "numOfAddr": 10, 
      "lonmax": 4.740314793660927, 
      "latmin": 50.89772942793242
    }, 
    {
      "latmax": 50.878958489543294, 
      "name": "Spreeuwenstraat", 
      "lonmin": 4.736053104758587, 
      "sanName": "spreeuwenstraat", 
      "numOfAddr": 20, 
      "lonmax": 4.738042948474556, 
      "latmin": 50.87789969275677
    }, 
    {
      "latmax": 50.883396186507206, 
      "name": "Stadionlaan", 
      "lonmin": 4.734259993692366, 
      "sanName": "stadionlaan", 
      "numOfAddr": 9, 
      "lonmax": 4.736277125480848, 
      "latmin": 50.881514983358684
    }, 
    {
      "latmax": 50.87823020915283, 
      "name": "Steenbakkerijstraat", 
      "lonmin": 4.737957688726111, 
      "sanName": "steenbakkerijstraat", 
      "numOfAddr": 16, 
      "lonmax": 4.740005581424897, 
      "latmin": 50.876961997654085
    }, 
    {
      "latmax": 50.87635422593966, 
      "name": "Stijn Streuvelslaan", 
      "lonmin": 4.720248998153052, 
      "sanName": "stijnstreuvelslaan", 
      "numOfAddr": 59, 
      "lonmax": 4.7233643845646025, 
      "latmin": 50.87571813364318
    }, 
    {
      "latmax": 50.8825109560899, 
      "name": "Stoomstraat", 
      "lonmin": 4.722084037244574, 
      "sanName": "stoomstraat", 
      "numOfAddr": 16, 
      "lonmax": 4.7243338201649365, 
      "latmin": 50.881842153910405
    }, 
    {
      "latmax": 50.881605024937535, 
      "name": "Struiversstraat", 
      "lonmin": 4.738479955190964, 
      "sanName": "struiversstraat", 
      "numOfAddr": 12, 
      "lonmax": 4.739148210418838, 
      "latmin": 50.88108384007171
    }, 
    {
      "latmax": 50.88158632970128, 
      "name": "Tarweschoof", 
      "lonmin": 4.725391886886631, 
      "sanName": "tarweschoof", 
      "numOfAddr": 41, 
      "lonmax": 4.726908469298796, 
      "latmin": 50.88004056706986
    }, 
    {
      "latmax": 50.893638539799106, 
      "name": "Thomas Woodrow Wilsonlaan", 
      "lonmin": 4.730554077506532, 
      "sanName": "thomaswoodrowwilsonlaan", 
      "numOfAddr": 17, 
      "lonmax": 4.731950307037256, 
      "latmin": 50.891924871283095
    }, 
    {
      "latmax": 50.87376441816831, 
      "name": "Tiensesteenweg", 
      "lonmin": 4.71493048964386, 
      "sanName": "tiensesteenweg", 
      "numOfAddr": 164, 
      "lonmax": 4.747138630177319, 
      "latmin": 50.86640306257098
    }, 
    {
      "latmax": 50.876625321838574, 
      "name": "Tiensevest", 
      "lonmin": 4.714896323507834, 
      "sanName": "tiensevest", 
      "numOfAddr": 45, 
      "lonmax": 4.716285266825542, 
      "latmin": 50.8737498162724
    }, 
    {
      "latmax": 50.889554839203484, 
      "name": "Toekomststraat", 
      "lonmin": 4.7248124359855135, 
      "sanName": "toekomststraat", 
      "numOfAddr": 88, 
      "lonmax": 4.729581733807064, 
      "latmin": 50.88670790456046
    }, 
    {
      "latmax": 50.88067062431053, 
      "name": "'t Pachthof", 
      "lonmin": 4.724807024535732, 
      "sanName": "tpachthof", 
      "numOfAddr": 7, 
      "lonmax": 4.725171350514151, 
      "latmin": 50.88020480017171
    }, 
    {
      "latmax": 50.875983385398044, 
      "name": "Trolieberg", 
      "lonmin": 4.7344222589021046, 
      "sanName": "trolieberg", 
      "numOfAddr": 97, 
      "lonmax": 4.756421862475185, 
      "latmin": 50.8723050217471
    }, 
    {
      "latmax": 50.87474502829954, 
      "name": "Troliebergplein", 
      "lonmin": 4.739659206649842, 
      "sanName": "troliebergplein", 
      "numOfAddr": 6, 
      "lonmax": 4.740632100125962, 
      "latmin": 50.8741070150793
    }, 
    {
      "latmax": 50.901561318321114, 
      "name": "Tweebunders", 
      "lonmin": 4.728112598075959, 
      "sanName": "tweebunders", 
      "numOfAddr": 28, 
      "lonmax": 4.72986823429072, 
      "latmin": 50.90017462130107
    }, 
    {
      "latmax": 50.867322502634714, 
      "name": "Uitbreidingslaan", 
      "lonmin": 4.747123752244532, 
      "sanName": "uitbreidingslaan", 
      "numOfAddr": 6, 
      "lonmax": 4.747921255807699, 
      "latmin": 50.8667514285186
    }, 
    {
      "latmax": 50.89027237279854, 
      "name": "Van Rodestraat", 
      "lonmin": 4.7219450296479755, 
      "sanName": "vanrodestraat", 
      "numOfAddr": 34, 
      "lonmax": 4.724704771007873, 
      "latmin": 50.88854064283707
    }, 
    {
      "latmax": 50.89024322099462, 
      "name": "Veeweidelaan", 
      "lonmin": 4.719105200482669, 
      "sanName": "veeweidelaan", 
      "numOfAddr": 9, 
      "lonmax": 4.719856767388474, 
      "latmin": 50.88967317543091
    }, 
    {
      "latmax": 50.90068721433579, 
      "name": "Velderblok", 
      "lonmin": 4.731283976662272, 
      "sanName": "velderblok", 
      "numOfAddr": 19, 
      "lonmax": 4.732435022459588, 
      "latmin": 50.899097773870054
    }, 
    {
      "latmax": 50.8778006127794, 
      "name": "Veldovenweg", 
      "lonmin": 4.745563544566398, 
      "sanName": "veldovenweg", 
      "numOfAddr": 11, 
      "lonmax": 4.747645864069008, 
      "latmin": 50.87515483501189
    }, 
    {
      "latmax": 50.90765226848343, 
      "name": "Verbrandenbos", 
      "lonmin": 4.738521285770198, 
      "sanName": "verbrandenbos", 
      "numOfAddr": 16, 
      "lonmax": 4.742992247387893, 
      "latmin": 50.90645632107586
    }, 
    {
      "latmax": 50.87434075541623, 
      "name": "Verenigingstraat", 
      "lonmin": 4.729074381915659, 
      "sanName": "verenigingstraat", 
      "numOfAddr": 47, 
      "lonmax": 4.731749940669508, 
      "latmin": 50.87285677094745
    }, 
    {
      "latmax": 50.87025388985024, 
      "name": "Vertommensberg", 
      "lonmin": 4.749707207058441, 
      "sanName": "vertommensberg", 
      "numOfAddr": 11, 
      "lonmax": 4.751218591729803, 
      "latmin": 50.86772496353339
    }, 
    {
      "latmax": 50.889096888187765, 
      "name": "Verzoeningstraat", 
      "lonmin": 4.722577169696379, 
      "sanName": "verzoeningstraat", 
      "numOfAddr": 13, 
      "lonmax": 4.723290037412052, 
      "latmin": 50.88874206989163
    }, 
    {
      "latmax": 50.89529171622308, 
      "name": "Vijverlaan", 
      "lonmin": 4.727739089545852, 
      "sanName": "vijverlaan", 
      "numOfAddr": 33, 
      "lonmax": 4.730320767157938, 
      "latmin": 50.89489678331813
    }, 
    {
      "latmax": 50.89197391238679, 
      "name": "Vlierbeeklaan", 
      "lonmin": 4.730259325665658, 
      "sanName": "vlierbeeklaan", 
      "numOfAddr": 26, 
      "lonmax": 4.73353264709662, 
      "latmin": 50.89082836625307
    }, 
    {
      "latmax": 50.87656494734021, 
      "name": "Vosseweg", 
      "lonmin": 4.742961023729671, 
      "sanName": "vosseweg", 
      "numOfAddr": 10, 
      "lonmax": 4.744781911709868, 
      "latmin": 50.872983005069045
    }, 
    {
      "latmax": 50.888814750252436, 
      "name": "Vredeplein", 
      "lonmin": 4.720792509789499, 
      "sanName": "vredeplein", 
      "numOfAddr": 27, 
      "lonmax": 4.722199925988062, 
      "latmin": 50.88797803547615
    }, 
    {
      "latmax": 50.888207284168246, 
      "name": "Vredestraat", 
      "lonmin": 4.7215944266998, 
      "sanName": "vredestraat", 
      "numOfAddr": 26, 
      "lonmax": 4.722310382875188, 
      "latmin": 50.887217556800636
    }, 
    {
      "latmax": 50.88861271193193, 
      "name": "Vrijheidstraat", 
      "lonmin": 4.722520866326448, 
      "sanName": "vrijheidstraat", 
      "numOfAddr": 19, 
      "lonmax": 4.723231091560204, 
      "latmin": 50.88786118899823
    }, 
    {
      "latmax": 50.88677643191043, 
      "name": "Warandelaan", 
      "lonmin": 4.729268083555296, 
      "sanName": "warandelaan", 
      "numOfAddr": 1, 
      "lonmax": 4.729268083555296, 
      "latmin": 50.88677643191043
    }, 
    {
      "latmax": 50.8806427990274, 
      "name": "Waterleidingstraat", 
      "lonmin": 4.726729750659412, 
      "sanName": "waterleidingstraat", 
      "numOfAddr": 23, 
      "lonmax": 4.728544826051325, 
      "latmin": 50.879141869293555
    }, 
    {
      "latmax": 50.903264451781546, 
      "name": "Waterlelielaan", 
      "lonmin": 4.720815664882156, 
      "sanName": "waterlelielaan", 
      "numOfAddr": 9, 
      "lonmax": 4.721817337712173, 
      "latmin": 50.902946631008845
    }, 
    {
      "latmax": 50.90283402922974, 
      "name": "Waterlelieplein", 
      "lonmin": 4.719821861172751, 
      "sanName": "waterlelieplein", 
      "numOfAddr": 5, 
      "lonmax": 4.7204713312019875, 
      "latmin": 50.90238393722019
    }, 
    {
      "latmax": 50.88951914547511, 
      "name": "Weergalmlaan", 
      "lonmin": 4.726948245638413, 
      "sanName": "weergalmlaan", 
      "numOfAddr": 9, 
      "lonmax": 4.728097490997632, 
      "latmin": 50.889006317286395
    }, 
    {
      "latmax": 50.88020423654514, 
      "name": "Weerstandlaan", 
      "lonmin": 4.726980340335532, 
      "sanName": "weerstandlaan", 
      "numOfAddr": 16, 
      "lonmax": 4.728609944243864, 
      "latmin": 50.879545220475386
    }, 
    {
      "latmax": 50.88361094198178, 
      "name": "Werkhuizenstraat", 
      "lonmin": 4.719949403031151, 
      "sanName": "werkhuizenstraat", 
      "numOfAddr": 32, 
      "lonmax": 4.720797184049437, 
      "latmin": 50.88173069379829
    }, 
    {
      "latmax": 50.90178942184884, 
      "name": "Wielewaallaan", 
      "lonmin": 4.718664598355532, 
      "sanName": "wielewaallaan", 
      "numOfAddr": 63, 
      "lonmax": 4.722194330856399, 
      "latmin": 50.900273663852815
    }, 
    {
      "latmax": 50.901759762813825, 
      "name": "Wijkweg", 
      "lonmin": 4.728951319960672, 
      "sanName": "wijkweg", 
      "numOfAddr": 24, 
      "lonmax": 4.731511791421003, 
      "latmin": 50.90029025295318
    }, 
    {
      "latmax": 50.90406653691109, 
      "name": "Wijnbergenstraat", 
      "lonmin": 4.73564194788745, 
      "sanName": "wijnbergenstraat", 
      "numOfAddr": 91, 
      "lonmax": 4.750885173374472, 
      "latmin": 50.900613988877375
    }, 
    {
      "latmax": 50.90040561379691, 
      "name": "Wilderbos", 
      "lonmin": 4.729724256098428, 
      "sanName": "wilderbos", 
      "numOfAddr": 24, 
      "lonmax": 4.731850694927932, 
      "latmin": 50.89964387806834
    }, 
    {
      "latmax": 50.908409560442195, 
      "name": "Wilgenhof", 
      "lonmin": 4.7205829564804365, 
      "sanName": "wilgenhof", 
      "numOfAddr": 28, 
      "lonmax": 4.721661488107109, 
      "latmin": 50.90760060316053
    }, 
    {
      "latmax": 50.880358936613504, 
      "name": "Willem Coosemansstraat", 
      "lonmin": 4.7186999493569, 
      "sanName": "willemcoosemansstraat", 
      "numOfAddr": 155, 
      "lonmax": 4.726693622918491, 
      "latmin": 50.87737528212208
    }, 
    {
      "latmax": 50.87626756598601, 
      "name": "Willem Quarr\u0082laan", 
      "lonmin": 4.749674997078264, 
      "sanName": "willemquarrlaan", 
      "numOfAddr": 11, 
      "lonmax": 4.751760378029728, 
      "latmin": 50.87421346214901
    }, 
    {
      "latmax": 50.9085426815256, 
      "name": "Wilselsesteenweg", 
      "lonmin": 4.716758253652495, 
      "sanName": "wilselsesteenweg", 
      "numOfAddr": 259, 
      "lonmax": 4.731864037575273, 
      "latmin": 50.89786953948276
    }, 
    {
      "latmax": 50.88469625452904, 
      "name": "Wimmershof", 
      "lonmin": 4.752010860707764, 
      "sanName": "wimmershof", 
      "numOfAddr": 16, 
      "lonmax": 4.761937622938159, 
      "latmin": 50.882215061673634
    }, 
    {
      "latmax": 50.88777127799872, 
      "name": "Wipstraat", 
      "lonmin": 4.7190221223590845, 
      "sanName": "wipstraat", 
      "numOfAddr": 50, 
      "lonmax": 4.720910148393703, 
      "latmin": 50.88682414559289
    }, 
    {
      "latmax": 50.886981249135395, 
      "name": "Zavelstraat", 
      "lonmin": 4.753782987113062, 
      "sanName": "zavelstraat", 
      "numOfAddr": 128, 
      "lonmax": 4.770161882617414, 
      "latmin": 50.883783045696106
    }
  ]
}