{
  "streets": [
    {
      "latmax": 50.78595263475952, 
      "name": "Acacialaan", 
      "lonmin": 4.586837106851097, 
      "sanName": "acacialaan", 
      "numOfAddr": 17, 
      "lonmax": 4.589506930321505, 
      "latmin": 50.78486890026665
    }, 
    {
      "latmax": 50.79317955996399, 
      "name": "A. Goossensstraat", 
      "lonmin": 4.582990244277634, 
      "sanName": "agoossensstraat", 
      "numOfAddr": 24, 
      "lonmax": 4.586713625086723, 
      "latmin": 50.789713531898464
    }, 
    {
      "latmax": 50.78773519546954, 
      "name": "A. Van Houthemweg", 
      "lonmin": 4.581564377586671, 
      "sanName": "avanhouthemweg", 
      "numOfAddr": 3, 
      "lonmax": 4.5828648207599665, 
      "latmin": 50.787639774632225
    }, 
    {
      "latmax": 50.81755654270915, 
      "name": "Beekstraat", 
      "lonmin": 4.623328743069544, 
      "sanName": "beekstraat", 
      "numOfAddr": 45, 
      "lonmax": 4.627258893788814, 
      "latmin": 50.813916718151525
    }, 
    {
      "latmax": 50.759393235759404, 
      "name": "Bergstraat", 
      "lonmin": 4.622077076975501, 
      "sanName": "bergstraat", 
      "numOfAddr": 18, 
      "lonmax": 4.624282896549985, 
      "latmin": 50.75576019474152
    }, 
    {
      "latmax": 50.809514268573274, 
      "name": "Bertelsheide", 
      "lonmin": 4.61088930052865, 
      "sanName": "bertelsheide", 
      "numOfAddr": 27, 
      "lonmax": 4.619159637824394, 
      "latmin": 50.80613323051022
    }, 
    {
      "latmax": 50.816895602245694, 
      "name": "Biezenstraat", 
      "lonmin": 4.5992322687571, 
      "sanName": "biezenstraat", 
      "numOfAddr": 45, 
      "lonmax": 4.607148851736541, 
      "latmin": 50.806835167437754
    }, 
    {
      "latmax": 50.760490738260636, 
      "name": "Billandestraat", 
      "lonmin": 4.5992482700971005, 
      "sanName": "billandestraat", 
      "numOfAddr": 8, 
      "lonmax": 4.601722094472442, 
      "latmin": 50.75972173976251
    }, 
    {
      "latmax": 50.75200934329228, 
      "name": "Bloemenstraat", 
      "lonmin": 4.617024657493718, 
      "sanName": "bloemenstraat", 
      "numOfAddr": 6, 
      "lonmax": 4.617413481253631, 
      "latmin": 50.75125056122219
    }, 
    {
      "latmax": 50.77162729543937, 
      "name": "Boesberg", 
      "lonmin": 4.63084565075952, 
      "sanName": "boesberg", 
      "numOfAddr": 13, 
      "lonmax": 4.631990260648236, 
      "latmin": 50.76929460232629
    }, 
    {
      "latmax": 50.75519263575012, 
      "name": "Borheidestraat", 
      "lonmin": 4.608392328611255, 
      "sanName": "borheidestraat", 
      "numOfAddr": 26, 
      "lonmax": 4.613084872937416, 
      "latmin": 50.75293261676368
    }, 
    {
      "latmax": 50.75468562769355, 
      "name": "Borrestraat", 
      "lonmin": 4.606996965284725, 
      "sanName": "borrestraat", 
      "numOfAddr": 14, 
      "lonmax": 4.610109990912498, 
      "latmin": 50.75262421255084
    }, 
    {
      "latmax": 50.779140466320236, 
      "name": "Bosstraat", 
      "lonmin": 4.62646973628958, 
      "sanName": "bosstraat", 
      "numOfAddr": 5, 
      "lonmax": 4.62759294444249, 
      "latmin": 50.77889621433356
    }, 
    {
      "latmax": 50.76761198490195, 
      "name": "Bosweg", 
      "lonmin": 4.626349286000333, 
      "sanName": "bosweg", 
      "numOfAddr": 3, 
      "lonmax": 4.627947987614611, 
      "latmin": 50.767548198472056
    }, 
    {
      "latmax": 50.783578031494756, 
      "name": "Breembosstraat", 
      "lonmin": 4.586578419292407, 
      "sanName": "breembosstraat", 
      "numOfAddr": 54, 
      "lonmax": 4.592311259681145, 
      "latmin": 50.77921464399694
    }, 
    {
      "latmax": 50.76740051263451, 
      "name": "Burgemeesterstraat", 
      "lonmin": 4.628789226545257, 
      "sanName": "burgemeesterstraat", 
      "numOfAddr": 9, 
      "lonmax": 4.635625694977108, 
      "latmin": 50.76545159631801
    }, 
    {
      "latmax": 50.79115019511839, 
      "name": "Cahystraat", 
      "lonmin": 4.579962919253974, 
      "sanName": "cahystraat", 
      "numOfAddr": 12, 
      "lonmax": 4.582308803079839, 
      "latmin": 50.790365945051136
    }, 
    {
      "latmax": 50.812830548454265, 
      "name": "de Limburg Stirumlaan", 
      "lonmin": 4.570421012150292, 
      "sanName": "delimburgstirumlaan", 
      "numOfAddr": 46, 
      "lonmax": 4.587518161943872, 
      "latmin": 50.789794194179926
    }, 
    {
      "latmax": 50.791234787989886, 
      "name": "Dennenlaan", 
      "lonmin": 4.585697809688623, 
      "sanName": "dennenlaan", 
      "numOfAddr": 16, 
      "lonmax": 4.587395003249266, 
      "latmin": 50.79012734009757
    }, 
    {
      "latmax": 50.79096643740101, 
      "name": "de Peuthystraat", 
      "lonmin": 4.567351153373964, 
      "sanName": "depeuthystraat", 
      "numOfAddr": 41, 
      "lonmax": 4.5825142538304435, 
      "latmin": 50.7849839565164
    }, 
    {
      "latmax": 50.811575632810865, 
      "name": "de Wilderstraat", 
      "lonmin": 4.623516452052583, 
      "sanName": "dewilderstraat", 
      "numOfAddr": 13, 
      "lonmax": 4.626402202861426, 
      "latmin": 50.81123051985399
    }, 
    {
      "latmax": 50.77863645590859, 
      "name": "Dijlestraat", 
      "lonmin": 4.633444467806923, 
      "sanName": "dijlestraat", 
      "numOfAddr": 7, 
      "lonmax": 4.634687903549972, 
      "latmin": 50.778162794619675
    }, 
    {
      "latmax": 50.821585807323935, 
      "name": "Donkerstraat", 
      "lonmin": 4.6176162492472805, 
      "sanName": "donkerstraat", 
      "numOfAddr": 38, 
      "lonmax": 4.623683161955104, 
      "latmin": 50.817534938821005
    }, 
    {
      "latmax": 50.81926394231815, 
      "name": "Dorpsstraat", 
      "lonmin": 4.62083994443373, 
      "sanName": "dorpsstraat", 
      "numOfAddr": 77, 
      "lonmax": 4.629780035799958, 
      "latmin": 50.816049218915026
    }, 
    {
      "latmax": 50.79332547362023, 
      "name": "Dreefstraat", 
      "lonmin": 4.578540927593069, 
      "sanName": "dreefstraat", 
      "numOfAddr": 9, 
      "lonmax": 4.581294158459844, 
      "latmin": 50.79092005648106
    }, 
    {
      "latmax": 50.79132591500516, 
      "name": "E. Gilisstraat", 
      "lonmin": 4.58243707328649, 
      "sanName": "egilisstraat", 
      "numOfAddr": 11, 
      "lonmax": 4.582938739305096, 
      "latmin": 50.79020808377403
    }, 
    {
      "latmax": 50.815399646715925, 
      "name": "Elsenstraat", 
      "lonmin": 4.6348872765176, 
      "sanName": "elsenstraat", 
      "numOfAddr": 2, 
      "lonmax": 4.634933509694327, 
      "latmin": 50.81530419203407
    }, 
    {
      "latmax": 50.78865431393332, 
      "name": "Elzasstraat", 
      "lonmin": 4.582666341803735, 
      "sanName": "elzasstraat", 
      "numOfAddr": 33, 
      "lonmax": 4.584850831953155, 
      "latmin": 50.7861558026643
    }, 
    {
      "latmax": 50.75248683032101, 
      "name": "Ernest Langelezstraat", 
      "lonmin": 4.6027345789933864, 
      "sanName": "ernestlangelezstraat", 
      "numOfAddr": 40, 
      "lonmax": 4.605511224481336, 
      "latmin": 50.746327387748174
    }, 
    {
      "latmax": 50.82117735947839, 
      "name": "Eygenstraat", 
      "lonmin": 4.630820577389548, 
      "sanName": "eygenstraat", 
      "numOfAddr": 31, 
      "lonmax": 4.633876927587231, 
      "latmin": 50.81901058521306
    }, 
    {
      "latmax": 50.75986760258112, 
      "name": "Florivalstraat", 
      "lonmin": 4.6163731927201335, 
      "sanName": "florivalstraat", 
      "numOfAddr": 60, 
      "lonmax": 4.649692366123658, 
      "latmin": 50.75215257883331
    }, 
    {
      "latmax": 50.80828493622839, 
      "name": "Ganspoel", 
      "lonmin": 4.57597044283092, 
      "sanName": "ganspoel", 
      "numOfAddr": 2, 
      "lonmax": 4.576374664165374, 
      "latmin": 50.808218231768876
    }, 
    {
      "latmax": 50.821367662984954, 
      "name": "Ganzemanstraat", 
      "lonmin": 4.59462614385076, 
      "sanName": "ganzemanstraat", 
      "numOfAddr": 36, 
      "lonmax": 4.614821305115518, 
      "latmin": 50.813165211359035
    }, 
    {
      "latmax": 50.7899215887982, 
      "name": "Gemeenteplein", 
      "lonmin": 4.582579553664397, 
      "sanName": "gemeenteplein", 
      "numOfAddr": 19, 
      "lonmax": 4.584928849574721, 
      "latmin": 50.78814137192669
    }, 
    {
      "latmax": 50.786299647865825, 
      "name": "Geroytstraat", 
      "lonmin": 4.588404410309274, 
      "sanName": "geroytstraat", 
      "numOfAddr": 24, 
      "lonmax": 4.59111219036749, 
      "latmin": 50.78419580179431
    }, 
    {
      "latmax": 50.7548421555605, 
      "name": "Grote Grubbe", 
      "lonmin": 4.623523830835324, 
      "sanName": "grotegrubbe", 
      "numOfAddr": 7, 
      "lonmax": 4.62572994525607, 
      "latmin": 50.753143426923856
    }, 
    {
      "latmax": 50.797237468598084, 
      "name": "Grote Keistraat", 
      "lonmin": 4.62450447987312, 
      "sanName": "grotekeistraat", 
      "numOfAddr": 6, 
      "lonmax": 4.626333536539866, 
      "latmin": 50.796559314187114
    }, 
    {
      "latmax": 50.82947381634016, 
      "name": "Grote Puystraat", 
      "lonmin": 4.611848832089986, 
      "sanName": "grotepuystraat", 
      "numOfAddr": 16, 
      "lonmax": 4.6294295549555216, 
      "latmin": 50.81938825563941
    }, 
    {
      "latmax": 50.788098406027444, 
      "name": "G. Steenbeekstraat", 
      "lonmin": 4.624766434892933, 
      "sanName": "gsteenbeekstraat", 
      "numOfAddr": 9, 
      "lonmax": 4.626198081075123, 
      "latmin": 50.787483793009386
    }, 
    {
      "latmax": 50.74750921071274, 
      "name": "Hasselheidestraat", 
      "lonmin": 4.603651119472848, 
      "sanName": "hasselheidestraat", 
      "numOfAddr": 15, 
      "lonmax": 4.615032404100397, 
      "latmin": 50.7448646890023
    }, 
    {
      "latmax": 50.79598269870614, 
      "name": "Hoekstraat", 
      "lonmin": 4.627236737096121, 
      "sanName": "hoekstraat", 
      "numOfAddr": 33, 
      "lonmax": 4.634828547959997, 
      "latmin": 50.78978699983366
    }, 
    {
      "latmax": 50.762518249188695, 
      "name": "Hoevestraat", 
      "lonmin": 4.604518410014851, 
      "sanName": "hoevestraat", 
      "numOfAddr": 63, 
      "lonmax": 4.613784127264112, 
      "latmin": 50.75300131986054
    }, 
    {
      "latmax": 50.81080928935676, 
      "name": "Hollestraat", 
      "lonmin": 4.60007592004641, 
      "sanName": "hollestraat", 
      "numOfAddr": 8, 
      "lonmax": 4.609641033842572, 
      "latmin": 50.809599103728836
    }, 
    {
      "latmax": 50.7805890737692, 
      "name": "Holstheide", 
      "lonmin": 4.602453899529111, 
      "sanName": "holstheide", 
      "numOfAddr": 37, 
      "lonmax": 4.611102194666078, 
      "latmin": 50.77577398993787
    }, 
    {
      "latmax": 50.787906279051526, 
      "name": "Huldenbergstraat", 
      "lonmin": 4.631860734154656, 
      "sanName": "huldenbergstraat", 
      "numOfAddr": 8, 
      "lonmax": 4.634374673144875, 
      "latmin": 50.78762630215342
    }, 
    {
      "latmax": 50.78726823986801, 
      "name": "Ijsedal", 
      "lonmin": 4.584927728334568, 
      "sanName": "ijsedal", 
      "numOfAddr": 9, 
      "lonmax": 4.5874263295822155, 
      "latmin": 50.78638982210436
    }, 
    {
      "latmax": 50.79383246359762, 
      "name": "J. Minetstraat", 
      "lonmin": 4.5877140896070125, 
      "sanName": "jminetstraat", 
      "numOfAddr": 23, 
      "lonmax": 4.590269758393064, 
      "latmin": 50.79196415014362
    }, 
    {
      "latmax": 50.80759175282929, 
      "name": "J.Van der Vorstlaan", 
      "lonmin": 4.597756980586603, 
      "sanName": "jvandervorstlaan", 
      "numOfAddr": 56, 
      "lonmax": 4.606638418733844, 
      "latmin": 50.80048766238607
    }, 
    {
      "latmax": 50.82984699572081, 
      "name": "J. Vranckxstraat", 
      "lonmin": 4.624960570290939, 
      "sanName": "jvranckxstraat", 
      "numOfAddr": 10, 
      "lonmax": 4.632329578175439, 
      "latmin": 50.82585547440697
    }, 
    {
      "latmax": 50.7917494798742, 
      "name": "Kaalheide", 
      "lonmin": 4.5554660791323265, 
      "sanName": "kaalheide", 
      "numOfAddr": 30, 
      "lonmax": 4.568127758507036, 
      "latmin": 50.78525963826654
    }, 
    {
      "latmax": 50.78870438342656, 
      "name": "Kaalheidehof", 
      "lonmin": 4.564716856740152, 
      "sanName": "kaalheidehof", 
      "numOfAddr": 1, 
      "lonmax": 4.564716856740152, 
      "latmin": 50.78870438342656
    }, 
    {
      "latmax": 50.78530363566793, 
      "name": "Kafmaasberg", 
      "lonmin": 4.587076125722801, 
      "sanName": "kafmaasberg", 
      "numOfAddr": 10, 
      "lonmax": 4.589210588639315, 
      "latmin": 50.784543493916985
    }, 
    {
      "latmax": 50.81500209510255, 
      "name": "Kamstraat", 
      "lonmin": 4.619246987612459, 
      "sanName": "kamstraat", 
      "numOfAddr": 36, 
      "lonmax": 4.623224005528888, 
      "latmin": 50.81224193759308
    }, 
    {
      "latmax": 50.821148536920916, 
      "name": "Kapelbergstraat", 
      "lonmin": 4.62965208791091, 
      "sanName": "kapelbergstraat", 
      "numOfAddr": 12, 
      "lonmax": 4.631227208724533, 
      "latmin": 50.81965115705396
    }, 
    {
      "latmax": 50.81896049245879, 
      "name": "Kapelweg", 
      "lonmin": 4.630893795197022, 
      "sanName": "kapelweg", 
      "numOfAddr": 3, 
      "lonmax": 4.632851328620844, 
      "latmin": 50.818031322602515
    }, 
    {
      "latmax": 50.809118153441204, 
      "name": "Kastanjekouter", 
      "lonmin": 4.605857577340199, 
      "sanName": "kastanjekouter", 
      "numOfAddr": 9, 
      "lonmax": 4.6078837975182685, 
      "latmin": 50.80839711089259
    }, 
    {
      "latmax": 50.79022969345504, 
      "name": "Kasteelpark", 
      "lonmin": 4.576367566235931, 
      "sanName": "kasteelpark", 
      "numOfAddr": 5, 
      "lonmax": 4.5788754233043205, 
      "latmin": 50.78883311372215
    }, 
    {
      "latmax": 50.78636480354127, 
      "name": "Kausdelle", 
      "lonmin": 4.580654233559558, 
      "sanName": "kausdelle", 
      "numOfAddr": 44, 
      "lonmax": 4.583644834393123, 
      "latmin": 50.780446192084554
    }, 
    {
      "latmax": 50.7835519775151, 
      "name": "Keienveld", 
      "lonmin": 4.588765185753909, 
      "sanName": "keienveld", 
      "numOfAddr": 21, 
      "lonmax": 4.591095847234742, 
      "latmin": 50.78189224725758
    }, 
    {
      "latmax": 50.75271988118112, 
      "name": "Kerkstraat", 
      "lonmin": 4.613970931261817, 
      "sanName": "kerkstraat", 
      "numOfAddr": 11, 
      "lonmax": 4.615677321278134, 
      "latmin": 50.75168322415738
    }, 
    {
      "latmax": 50.755451275519796, 
      "name": "Klabbeekstraat", 
      "lonmin": 4.650970065064398, 
      "sanName": "klabbeekstraat", 
      "numOfAddr": 1, 
      "lonmax": 4.650970065064398, 
      "latmin": 50.755451275519796
    }, 
    {
      "latmax": 50.799627721322565, 
      "name": "Kleine Keistraat", 
      "lonmin": 4.62331701138314, 
      "sanName": "kleinekeistraat", 
      "numOfAddr": 6, 
      "lonmax": 4.627449654162543, 
      "latmin": 50.79902310810231
    }, 
    {
      "latmax": 50.753326757649646, 
      "name": "Kleine Langeheidestraat", 
      "lonmin": 4.628108645415488, 
      "sanName": "kleinelangeheidestraat", 
      "numOfAddr": 18, 
      "lonmax": 4.630750022500924, 
      "latmin": 50.75129266194874
    }, 
    {
      "latmax": 50.822722016239226, 
      "name": "Kleine Puystraat", 
      "lonmin": 4.628212033563255, 
      "sanName": "kleinepuystraat", 
      "numOfAddr": 11, 
      "lonmax": 4.630393083939853, 
      "latmin": 50.82131770710371
    }, 
    {
      "latmax": 50.75069207752846, 
      "name": "Kleine Schoolstraat", 
      "lonmin": 4.61216811570891, 
      "sanName": "kleineschoolstraat", 
      "numOfAddr": 13, 
      "lonmax": 4.61400369286561, 
      "latmin": 50.74970385031191
    }, 
    {
      "latmax": 50.74830614205761, 
      "name": "Kleine Tommestraat", 
      "lonmin": 4.633169855283075, 
      "sanName": "kleinetommestraat", 
      "numOfAddr": 5, 
      "lonmax": 4.633709341182113, 
      "latmin": 50.74717876719135
    }, 
    {
      "latmax": 50.79341351171634, 
      "name": "Kleinwaverstraat", 
      "lonmin": 4.597228241088425, 
      "sanName": "kleinwaverstraat", 
      "numOfAddr": 44, 
      "lonmax": 4.603124032686787, 
      "latmin": 50.78896085333142
    }, 
    {
      "latmax": 50.79092508999401, 
      "name": "Koestraat", 
      "lonmin": 4.620105091619366, 
      "sanName": "koestraat", 
      "numOfAddr": 2, 
      "lonmax": 4.625076958698706, 
      "latmin": 50.789676975282056
    }, 
    {
      "latmax": 50.806966836355386, 
      "name": "Korenheide", 
      "lonmin": 4.592928901364618, 
      "sanName": "korenheide", 
      "numOfAddr": 42, 
      "lonmax": 4.601986950170914, 
      "latmin": 50.8033981297097
    }, 
    {
      "latmax": 50.80592719863728, 
      "name": "Kouterstraat", 
      "lonmin": 4.601249276750497, 
      "sanName": "kouterstraat", 
      "numOfAddr": 34, 
      "lonmax": 4.606584318477388, 
      "latmin": 50.80193753158544
    }, 
    {
      "latmax": 50.785983741514414, 
      "name": "Koxberg", 
      "lonmin": 4.58378874909381, 
      "sanName": "koxberg", 
      "numOfAddr": 42, 
      "lonmax": 4.5882032143396065, 
      "latmin": 50.78294153095158
    }, 
    {
      "latmax": 50.75854861890927, 
      "name": "Langeheidestraat", 
      "lonmin": 4.625154333662141, 
      "sanName": "langeheidestraat", 
      "numOfAddr": 83, 
      "lonmax": 4.636305450490047, 
      "latmin": 50.74879016844115
    }, 
    {
      "latmax": 50.83152178859492, 
      "name": "Langerodestraat", 
      "lonmin": 2.306689562140502, 
      "sanName": "langerodestraat", 
      "numOfAddr": 44, 
      "lonmax": 4.635243738533255, 
      "latmin": 49.293335165093566
    }, 
    {
      "latmax": 50.82852941075744, 
      "name": "Langestraat", 
      "lonmin": 4.605104599396757, 
      "sanName": "langestraat", 
      "numOfAddr": 40, 
      "lonmax": 4.621855310937973, 
      "latmin": 50.817162051277265
    }, 
    {
      "latmax": 50.79120440556135, 
      "name": "Leuvensebaan", 
      "lonmin": 4.615184256967027, 
      "sanName": "leuvensebaan", 
      "numOfAddr": 344, 
      "lonmax": 4.638099788679062, 
      "latmin": 50.743604519372624
    }, 
    {
      "latmax": 50.819259299564614, 
      "name": "Lindenhoflaan", 
      "lonmin": 4.627886824957367, 
      "sanName": "lindenhoflaan", 
      "numOfAddr": 6, 
      "lonmax": 4.63957420003646, 
      "latmin": 50.81730428249103
    }, 
    {
      "latmax": 50.798714956433294, 
      "name": "L. Kriegelstraat", 
      "lonmin": 4.596715185137455, 
      "sanName": "lkriegelstraat", 
      "numOfAddr": 46, 
      "lonmax": 4.599390507352731, 
      "latmin": 50.79355575508099
    }, 
    {
      "latmax": 50.81588902807699, 
      "name": "Loonbeekstraat", 
      "lonmin": 4.614021348083332, 
      "sanName": "loonbeekstraat", 
      "numOfAddr": 42, 
      "lonmax": 4.621000395739775, 
      "latmin": 50.8126458523824
    }, 
    {
      "latmax": 50.74981681315702, 
      "name": "Loswegstraat", 
      "lonmin": 4.6334320018770185, 
      "sanName": "loswegstraat", 
      "numOfAddr": 13, 
      "lonmax": 4.634932618480967, 
      "latmin": 50.748557737948765
    }, 
    {
      "latmax": 50.80254142579291, 
      "name": "Margijsbosweg", 
      "lonmin": 4.605857779784838, 
      "sanName": "margijsbosweg", 
      "numOfAddr": 3, 
      "lonmax": 4.608193671417203, 
      "latmin": 50.79840545313838
    }, 
    {
      "latmax": 50.79252672665551, 
      "name": "Molenweg", 
      "lonmin": 4.59595590899984, 
      "sanName": "molenweg", 
      "numOfAddr": 31, 
      "lonmax": 4.599236097036505, 
      "latmin": 50.78815244070667
    }, 
    {
      "latmax": 50.7466482766324, 
      "name": "Nachtegaalstraat", 
      "lonmin": 4.635595956389586, 
      "sanName": "nachtegaalstraat", 
      "numOfAddr": 12, 
      "lonmax": 4.63807286472476, 
      "latmin": 50.74608036142368
    }, 
    {
      "latmax": 50.76415425608181, 
      "name": "Neerpoortenstraat", 
      "lonmin": 4.601071720787296, 
      "sanName": "neerpoortenstraat", 
      "numOfAddr": 83, 
      "lonmax": 4.60994221683401, 
      "latmin": 50.74703144712855
    }, 
    {
      "latmax": 50.784928051332216, 
      "name": "Neesveld", 
      "lonmin": 4.590438468645093, 
      "sanName": "neesveld", 
      "numOfAddr": 42, 
      "lonmax": 4.593543777287732, 
      "latmin": 50.78054965415341
    }, 
    {
      "latmax": 50.7788492057221, 
      "name": "Nieuwelaan", 
      "lonmin": 4.6266278458967625, 
      "sanName": "nieuwelaan", 
      "numOfAddr": 9, 
      "lonmax": 4.627570875896282, 
      "latmin": 50.77729821037265
    }, 
    {
      "latmax": 50.811081289654275, 
      "name": "Nijvelsebaan", 
      "lonmin": 4.586282196953314, 
      "sanName": "nijvelsebaan", 
      "numOfAddr": 74, 
      "lonmax": 4.626876095661178, 
      "latmin": 50.77614739984832
    }, 
    {
      "latmax": 50.763670795216186, 
      "name": "Oliestraat", 
      "lonmin": 4.6079800507405535, 
      "sanName": "oliestraat", 
      "numOfAddr": 12, 
      "lonmax": 4.617032550822697, 
      "latmin": 50.75822447808629
    }, 
    {
      "latmax": 50.79841400273199, 
      "name": "O. L. V. Weg", 
      "lonmin": 4.5807965563996245, 
      "sanName": "olvweg", 
      "numOfAddr": 10, 
      "lonmax": 4.582762649679143, 
      "latmin": 50.796743488049074
    }, 
    {
      "latmax": 50.78161759505761, 
      "name": "Onderbosstraat", 
      "lonmin": 4.607923476763036, 
      "sanName": "onderbosstraat", 
      "numOfAddr": 29, 
      "lonmax": 4.628291889091799, 
      "latmin": 50.76683970909797
    }, 
    {
      "latmax": 50.79191946455498, 
      "name": "Ondersmeysberg", 
      "lonmin": 4.594203094081623, 
      "sanName": "ondersmeysberg", 
      "numOfAddr": 15, 
      "lonmax": 4.597641160144708, 
      "latmin": 50.78960875196831
    }, 
    {
      "latmax": 50.78748607610267, 
      "name": "Oude Waversebaan", 
      "lonmin": 4.626786921455922, 
      "sanName": "oudewaversebaan", 
      "numOfAddr": 86, 
      "lonmax": 4.633264435575698, 
      "latmin": 50.77530428087944
    }, 
    {
      "latmax": 50.75217239063722, 
      "name": "Pastorijstraat", 
      "lonmin": 4.61385607395968, 
      "sanName": "pastorijstraat", 
      "numOfAddr": 5, 
      "lonmax": 4.614447191778422, 
      "latmin": 50.75174437561457
    }, 
    {
      "latmax": 50.74732435497132, 
      "name": "Poelstraat", 
      "lonmin": 4.63515719082305, 
      "sanName": "poelstraat", 
      "numOfAddr": 9, 
      "lonmax": 4.636212922662313, 
      "latmin": 50.74610721322147
    }, 
    {
      "latmax": 50.751186528672605, 
      "name": "Pompstraat", 
      "lonmin": 4.614171079491777, 
      "sanName": "pompstraat", 
      "numOfAddr": 8, 
      "lonmax": 4.615362275322693, 
      "latmin": 50.750713911266885
    }, 
    {
      "latmax": 50.749485899478486, 
      "name": "Potbeekstraat", 
      "lonmin": 4.601050184962784, 
      "sanName": "potbeekstraat", 
      "numOfAddr": 7, 
      "lonmax": 4.604337988015954, 
      "latmin": 50.74829241818362
    }, 
    {
      "latmax": 50.78601197202011, 
      "name": "Potterstraat", 
      "lonmin": 4.631370743236908, 
      "sanName": "potterstraat", 
      "numOfAddr": 5, 
      "lonmax": 4.633216820853585, 
      "latmin": 50.78582281770302
    }, 
    {
      "latmax": 50.79412348825865, 
      "name": "Priesterberg", 
      "lonmin": 4.58466002484898, 
      "sanName": "priesterberg", 
      "numOfAddr": 3, 
      "lonmax": 4.584917694887726, 
      "latmin": 50.79410238971373
    }, 
    {
      "latmax": 50.79455215535764, 
      "name": "Priesterdelle", 
      "lonmin": 4.584731452735895, 
      "sanName": "priesterdelle", 
      "numOfAddr": 24, 
      "lonmax": 4.586300449584479, 
      "latmin": 50.792936180972866
    }, 
    {
      "latmax": 50.758664242325, 
      "name": "Processieweg", 
      "lonmin": 4.612167940253329, 
      "sanName": "processieweg", 
      "numOfAddr": 15, 
      "lonmax": 4.614710784348326, 
      "latmin": 50.75645229747728
    }, 
    {
      "latmax": 50.77686101703036, 
      "name": "Radarweg", 
      "lonmin": 4.628585035497957, 
      "sanName": "radarweg", 
      "numOfAddr": 8, 
      "lonmax": 4.629909642849062, 
      "latmin": 50.77581543648023
    }, 
    {
      "latmax": 50.79344984864898, 
      "name": "R. Borremansstraat", 
      "lonmin": 4.58436898045749, 
      "sanName": "rborremansstraat", 
      "numOfAddr": 51, 
      "lonmax": 4.597041712781162, 
      "latmin": 50.788887047171634
    }, 
    {
      "latmax": 50.80109679668819, 
      "name": "Renierstraat", 
      "lonmin": 4.593003417053797, 
      "sanName": "renierstraat", 
      "numOfAddr": 29, 
      "lonmax": 4.598389138689445, 
      "latmin": 50.79894725828887
    }, 
    {
      "latmax": 50.813449661715, 
      "name": "Ridderstraat", 
      "lonmin": 4.619692662457502, 
      "sanName": "ridderstraat", 
      "numOfAddr": 38, 
      "lonmax": 4.625834287072308, 
      "latmin": 50.80874793714276
    }, 
    {
      "latmax": 50.81625704078342, 
      "name": "Schaveystraat", 
      "lonmin": 2.306689562140502, 
      "sanName": "schaveystraat", 
      "numOfAddr": 21, 
      "lonmax": 4.623382068909658, 
      "latmin": 49.293335165093566
    }, 
    {
      "latmax": 50.79318490077132, 
      "name": "Schonenberg", 
      "lonmin": 4.5759497007959125, 
      "sanName": "schonenberg", 
      "numOfAddr": 13, 
      "lonmax": 4.5775318990898155, 
      "latmin": 50.791041053386905
    }, 
    {
      "latmax": 50.75249985579769, 
      "name": "Schoolstraat", 
      "lonmin": 4.613302864186126, 
      "sanName": "schoolstraat", 
      "numOfAddr": 26, 
      "lonmax": 4.61488375207456, 
      "latmin": 50.749261862086804
    }, 
    {
      "latmax": 50.79006770167534, 
      "name": "Smeysberg", 
      "lonmin": 4.5927867848771635, 
      "sanName": "smeysberg", 
      "numOfAddr": 54, 
      "lonmax": 4.601624836354066, 
      "latmin": 50.78127700486821
    }, 
    {
      "latmax": 50.79174622970181, 
      "name": "Solheidelaan", 
      "lonmin": 4.587202939183082, 
      "sanName": "solheidelaan", 
      "numOfAddr": 13, 
      "lonmax": 4.58832867081524, 
      "latmin": 50.79038266627107
    }, 
    {
      "latmax": 50.78298484397948, 
      "name": "Speylaert", 
      "lonmin": 4.581533632096092, 
      "sanName": "speylaert", 
      "numOfAddr": 22, 
      "lonmax": 4.584517843644229, 
      "latmin": 50.77676021518839
    }, 
    {
      "latmax": 50.8001215558228, 
      "name": "Spitsberg", 
      "lonmin": 4.592066811292217, 
      "sanName": "spitsberg", 
      "numOfAddr": 14, 
      "lonmax": 4.5978146692942214, 
      "latmin": 50.79806545215773
    }, 
    {
      "latmax": 50.78724673850521, 
      "name": "St.-Agathastraat", 
      "lonmin": 4.633516697376263, 
      "sanName": "stagathastraat", 
      "numOfAddr": 2, 
      "lonmax": 4.633530473427051, 
      "latmin": 50.78714970828328
    }, 
    {
      "latmax": 50.81384571593398, 
      "name": "Stationplaats", 
      "lonmin": 4.625750137715827, 
      "sanName": "stationplaats", 
      "numOfAddr": 8, 
      "lonmax": 4.627728807323834, 
      "latmin": 50.813518385601014
    }, 
    {
      "latmax": 50.81256237058963, 
      "name": "St.-Jansbergsteenweg", 
      "lonmin": 2.306689562140502, 
      "sanName": "stjansbergsteenweg", 
      "numOfAddr": 94, 
      "lonmax": 4.614186552162446, 
      "latmin": 49.293335165093566
    }, 
    {
      "latmax": 50.78699302683186, 
      "name": "Stockemstraat", 
      "lonmin": 4.580383874605261, 
      "sanName": "stockemstraat", 
      "numOfAddr": 16, 
      "lonmax": 4.582799882152176, 
      "latmin": 50.785817845570605
    }, 
    {
      "latmax": 50.79102324938221, 
      "name": "St.-Rochusstraat", 
      "lonmin": 4.583866413686396, 
      "sanName": "strochusstraat", 
      "numOfAddr": 12, 
      "lonmax": 4.585175778043393, 
      "latmin": 50.789608087657534
    }, 
    {
      "latmax": 50.78790658352064, 
      "name": "Stroobantsstraat", 
      "lonmin": 4.588108915655339, 
      "sanName": "stroobantsstraat", 
      "numOfAddr": 80, 
      "lonmax": 4.623788132124416, 
      "latmin": 50.78076172760167
    }, 
    {
      "latmax": 50.83147515635393, 
      "name": "Struikenbos", 
      "lonmin": 4.6292668830440995, 
      "sanName": "struikenbos", 
      "numOfAddr": 8, 
      "lonmax": 4.633182170622611, 
      "latmin": 50.83013729811522
    }, 
    {
      "latmax": 50.75067108407169, 
      "name": "Tekkerstraat", 
      "lonmin": 4.634431407891788, 
      "sanName": "tekkerstraat", 
      "numOfAddr": 19, 
      "lonmax": 4.639331760147939, 
      "latmin": 50.74772147799161
    }, 
    {
      "latmax": 50.75313856315445, 
      "name": "Terlaenenstraat", 
      "lonmin": 4.605907866052141, 
      "sanName": "terlaenenstraat", 
      "numOfAddr": 54, 
      "lonmax": 4.6155191143723915, 
      "latmin": 50.75111693643361
    }, 
    {
      "latmax": 50.862227012428306, 
      "name": "Tiensesteenweg", 
      "lonmin": 4.762794212802103, 
      "sanName": "tiensesteenweg", 
      "numOfAddr": 1, 
      "lonmax": 4.762794212802103, 
      "latmin": 50.862227012428306
    }, 
    {
      "latmax": 50.75138899323081, 
      "name": "Tommestraat", 
      "lonmin": 4.616543897815242, 
      "sanName": "tommestraat", 
      "numOfAddr": 115, 
      "lonmax": 4.638111882193535, 
      "latmin": 50.746488338159466
    }, 
    {
      "latmax": 50.782716433324985, 
      "name": "'t Veldeke", 
      "lonmin": 4.631882687136819, 
      "sanName": "tveldeke", 
      "numOfAddr": 21, 
      "lonmax": 4.633277763183231, 
      "latmin": 50.779347893577715
    }, 
    {
      "latmax": 50.79261319597936, 
      "name": "Vanderkelenstraat", 
      "lonmin": 4.5616898720597465, 
      "sanName": "vanderkelenstraat", 
      "numOfAddr": 5, 
      "lonmax": 4.563259427416629, 
      "latmin": 50.78693454789002
    }, 
    {
      "latmax": 50.76892375060604, 
      "name": "Veeweidestraat", 
      "lonmin": 4.634917819131555, 
      "sanName": "veeweidestraat", 
      "numOfAddr": 63, 
      "lonmax": 4.640334634947031, 
      "latmin": 50.75973965549503
    }, 
    {
      "latmax": 50.79999907776149, 
      "name": "Veldweg", 
      "lonmin": 4.579888563580477, 
      "sanName": "veldweg", 
      "numOfAddr": 2, 
      "lonmax": 4.580323960439939, 
      "latmin": 50.799852926955964
    }, 
    {
      "latmax": 50.7699560876363, 
      "name": "Verstrekenstraat", 
      "lonmin": 4.629239674045443, 
      "sanName": "verstrekenstraat", 
      "numOfAddr": 19, 
      "lonmax": 4.634133766939791, 
      "latmin": 50.76748568134644
    }, 
    {
      "latmax": 50.778369446615656, 
      "name": "Vijverstraat", 
      "lonmin": 2.306689562140502, 
      "sanName": "vijverstraat", 
      "numOfAddr": 75, 
      "lonmax": 4.636669188748002, 
      "latmin": 49.293335165093566
    }, 
    {
      "latmax": 50.75940353699455, 
      "name": "Vinkstraat", 
      "lonmin": 4.60933594104958, 
      "sanName": "vinkstraat", 
      "numOfAddr": 12, 
      "lonmax": 4.611702016376121, 
      "latmin": 50.75806563206115
    }, 
    {
      "latmax": 50.775481793796594, 
      "name": "Vossekouter", 
      "lonmin": 4.60047402487061, 
      "sanName": "vossekouter", 
      "numOfAddr": 21, 
      "lonmax": 4.606367061608499, 
      "latmin": 50.774549558220265
    }, 
    {
      "latmax": 50.786594865822174, 
      "name": "V. Philipsstraat", 
      "lonmin": 4.584395866832896, 
      "sanName": "vphilipsstraat", 
      "numOfAddr": 19, 
      "lonmax": 4.586578379431514, 
      "latmin": 50.78466054960525
    }, 
    {
      "latmax": 50.803487469192, 
      "name": "Vranksberg", 
      "lonmin": 4.591469999877716, 
      "sanName": "vranksberg", 
      "numOfAddr": 38, 
      "lonmax": 4.601871279085603, 
      "latmin": 50.801078621507116
    }, 
    {
      "latmax": 50.74683132077914, 
      "name": "Waversestraat", 
      "lonmin": 4.634026841260736, 
      "sanName": "waversestraat", 
      "numOfAddr": 15, 
      "lonmax": 4.636180945359404, 
      "latmin": 50.74466270256229
    }, 
    {
      "latmax": 50.768496895749074, 
      "name": "Wijmingenstraat", 
      "lonmin": 4.618454522590782, 
      "sanName": "wijmingenstraat", 
      "numOfAddr": 11, 
      "lonmax": 4.634327747293121, 
      "latmin": 50.75823864022777
    }, 
    {
      "latmax": 50.753093016448695, 
      "name": "Wilgenpad", 
      "lonmin": 4.618689903357521, 
      "sanName": "wilgenpad", 
      "numOfAddr": 1, 
      "lonmax": 4.618689903357521, 
      "latmin": 50.753093016448695
    }, 
    {
      "latmax": 50.81355833006721, 
      "name": "Wolfshaegen", 
      "lonmin": 4.609498688715693, 
      "sanName": "wolfshaegen", 
      "numOfAddr": 203, 
      "lonmax": 4.631301639692214, 
      "latmin": 50.77437088068728
    }, 
    {
      "latmax": 50.778994080646534, 
      "name": "Zavelstraat", 
      "lonmin": 4.592983473616114, 
      "sanName": "zavelstraat", 
      "numOfAddr": 12, 
      "lonmax": 4.5955564291243824, 
      "latmin": 50.778204363278014
    }, 
    {
      "latmax": 50.77534244409251, 
      "name": "Zesdagmaalstraat", 
      "lonmin": 4.628870008146106, 
      "sanName": "zesdagmaalstraat", 
      "numOfAddr": 20, 
      "lonmax": 4.630587019563202, 
      "latmin": 50.774024362661265
    }
  ]
}