{
  "streets": [
    {
      "latmax": 50.94593150765511, 
      "name": "Beukepleinbaan", 
      "lonmin": 4.778069113043898, 
      "sanName": "beukepleinbaan", 
      "numOfAddr": 1, 
      "lonmax": 4.778069113043898, 
      "latmin": 50.94593150765511
    }, 
    {
      "latmax": 50.98314863105068, 
      "name": "Beverlaak", 
      "lonmin": 4.682118049091182, 
      "sanName": "beverlaak", 
      "numOfAddr": 74, 
      "lonmax": 4.696262048535113, 
      "latmin": 50.97107327197787
    }, 
    {
      "latmax": 50.97666297884253, 
      "name": "Blaasbroek", 
      "lonmin": 4.752293257286318, 
      "sanName": "blaasbroek", 
      "numOfAddr": 4, 
      "lonmax": 4.753060172485478, 
      "latmin": 50.976404055641176
    }, 
    {
      "latmax": 50.97368459903796, 
      "name": "Bremberg", 
      "lonmin": 4.713542628091574, 
      "sanName": "bremberg", 
      "numOfAddr": 11, 
      "lonmax": 4.714589049578502, 
      "latmin": 50.973153472705484
    }, 
    {
      "latmax": 50.97378912465869, 
      "name": "Brouwerijstraat", 
      "lonmin": 4.692783077205988, 
      "sanName": "brouwerijstraat", 
      "numOfAddr": 19, 
      "lonmax": 4.6960730399041575, 
      "latmin": 50.97289319856024
    }, 
    {
      "latmax": 50.97047727426134, 
      "name": "Demerbroekstraat", 
      "lonmin": 4.697736953352678, 
      "sanName": "demerbroekstraat", 
      "numOfAddr": 30, 
      "lonmax": 4.703076529186214, 
      "latmin": 50.96980182411317
    }, 
    {
      "latmax": 50.96551720103038, 
      "name": "Dijlekant", 
      "lonmin": 4.681757317974178, 
      "sanName": "dijlekant", 
      "numOfAddr": 16, 
      "lonmax": 4.692673181144644, 
      "latmin": 50.95574092606842
    }, 
    {
      "latmax": 50.98007790630973, 
      "name": "Eggelbroek", 
      "lonmin": 4.677183859757324, 
      "sanName": "eggelbroek", 
      "numOfAddr": 23, 
      "lonmax": 4.683966703614413, 
      "latmin": 50.977537768184234
    }, 
    {
      "latmax": 50.975459715980335, 
      "name": "Frans Van Leemputtenstraat", 
      "lonmin": 4.706758469442395, 
      "sanName": "fransvanleemputtenstraat", 
      "numOfAddr": 4, 
      "lonmax": 4.706895823034968, 
      "latmin": 50.975039431917594
    }, 
    {
      "latmax": 50.983762809748704, 
      "name": "Grotestraat", 
      "lonmin": 4.703328655165661, 
      "sanName": "grotestraat", 
      "numOfAddr": 121, 
      "lonmax": 4.735829763910733, 
      "latmin": 50.97475058396304
    }, 
    {
      "latmax": 50.9810775779817, 
      "name": "Guldentop", 
      "lonmin": 4.74946453567994, 
      "sanName": "guldentop", 
      "numOfAddr": 42, 
      "lonmax": 4.752482555759983, 
      "latmin": 50.978925483482676
    }, 
    {
      "latmax": 50.969966291221816, 
      "name": "Haachtsesteenweg", 
      "lonmin": 4.6852347671265795, 
      "sanName": "haachtsesteenweg", 
      "numOfAddr": 11, 
      "lonmax": 4.690257636450735, 
      "latmin": 50.969047417834446
    }, 
    {
      "latmax": 50.974403290959316, 
      "name": "Hamstraat", 
      "lonmin": 2.306689562140502, 
      "sanName": "hamstraat", 
      "numOfAddr": 7, 
      "lonmax": 4.719143471142756, 
      "latmin": 49.293335165093566
    }, 
    {
      "latmax": 50.97767540523038, 
      "name": "Hanewijk", 
      "lonmin": 4.6779631251125755, 
      "sanName": "hanewijk", 
      "numOfAddr": 109, 
      "lonmax": 4.690816806198882, 
      "latmin": 50.96977385725706
    }, 
    {
      "latmax": 50.970725710527226, 
      "name": "Hazepad", 
      "lonmin": 4.686649196578401, 
      "sanName": "hazepad", 
      "numOfAddr": 8, 
      "lonmax": 4.689260690863765, 
      "latmin": 50.97011929025527
    }, 
    {
      "latmax": 50.97399950327999, 
      "name": "Hermansstraat", 
      "lonmin": 4.709224277435156, 
      "sanName": "hermansstraat", 
      "numOfAddr": 10, 
      "lonmax": 4.710994305589224, 
      "latmin": 50.97287568543731
    }, 
    {
      "latmax": 50.977492878529226, 
      "name": "Hinderenberg", 
      "lonmin": 4.6930612726780145, 
      "sanName": "hinderenberg", 
      "numOfAddr": 19, 
      "lonmax": 4.69518709076502, 
      "latmin": 50.97687365391012
    }, 
    {
      "latmax": 50.96977651541272, 
      "name": "Hoekje", 
      "lonmin": 4.693079647239665, 
      "sanName": "hoekje", 
      "numOfAddr": 14, 
      "lonmax": 4.694972348216159, 
      "latmin": 50.96926137452003
    }, 
    {
      "latmax": 50.97518223067952, 
      "name": "Hogeweg", 
      "lonmin": 4.702837043532108, 
      "sanName": "hogeweg", 
      "numOfAddr": 89, 
      "lonmax": 4.717532120273496, 
      "latmin": 50.97342595243881
    }, 
    {
      "latmax": 50.9761152542141, 
      "name": "Hoogland", 
      "lonmin": 4.70297693022934, 
      "sanName": "hoogland", 
      "numOfAddr": 138, 
      "lonmax": 4.731172462597086, 
      "latmin": 50.971935070455125
    }, 
    {
      "latmax": 50.97485081691629, 
      "name": "Jack-Opstraat", 
      "lonmin": 4.707308224686831, 
      "sanName": "jackopstraat", 
      "numOfAddr": 1, 
      "lonmax": 4.707308224686831, 
      "latmin": 50.97485081691629
    }, 
    {
      "latmax": 50.97201487925233, 
      "name": "Jan Bolsstraat", 
      "lonmin": 4.700742404661512, 
      "sanName": "janbolsstraat", 
      "numOfAddr": 4, 
      "lonmax": 4.701059087755086, 
      "latmin": 50.97106279911042
    }, 
    {
      "latmax": 50.97556518921759, 
      "name": "Jef Scherensstraat", 
      "lonmin": 4.707677716346698, 
      "sanName": "jefscherensstraat", 
      "numOfAddr": 14, 
      "lonmax": 4.7109981804880094, 
      "latmin": 50.9748844896744
    }, 
    {
      "latmax": 50.97360348724161, 
      "name": "Kleine Molenweg", 
      "lonmin": 4.707000891154475, 
      "sanName": "kleinemolenweg", 
      "numOfAddr": 8, 
      "lonmax": 4.7075576815146905, 
      "latmin": 50.97280638737181
    }, 
    {
      "latmax": 50.97683686826693, 
      "name": "Kleinstraat", 
      "lonmin": 4.710163890815623, 
      "sanName": "kleinstraat", 
      "numOfAddr": 19, 
      "lonmax": 4.714340554886115, 
      "latmin": 50.97495284320307
    }, 
    {
      "latmax": 50.97618936548324, 
      "name": "Leybos", 
      "lonmin": 4.729770340941455, 
      "sanName": "leybos", 
      "numOfAddr": 51, 
      "lonmax": 4.737086801394687, 
      "latmin": 50.973100676738355
    }, 
    {
      "latmax": 50.981779790235485, 
      "name": "Mettensstraat", 
      "lonmin": 4.734152999814876, 
      "sanName": "mettensstraat", 
      "numOfAddr": 3, 
      "lonmax": 4.7362496399302385, 
      "latmin": 50.97920833941208
    }, 
    {
      "latmax": 50.97628985465854, 
      "name": "Mezenpad", 
      "lonmin": 4.714626793358966, 
      "sanName": "mezenpad", 
      "numOfAddr": 11, 
      "lonmax": 4.716201628685528, 
      "latmin": 50.97479081123089
    }, 
    {
      "latmax": 50.97333314964724, 
      "name": "Nieuwebaan", 
      "lonmin": 4.69408338869701, 
      "sanName": "nieuwebaan", 
      "numOfAddr": 31, 
      "lonmax": 4.703404920742542, 
      "latmin": 50.96927865065144
    }, 
    {
      "latmax": 50.9736638314918, 
      "name": "Olifant", 
      "lonmin": 4.725511802020919, 
      "sanName": "olifant", 
      "numOfAddr": 43, 
      "lonmax": 4.729428627490258, 
      "latmin": 50.97035959790921
    }, 
    {
      "latmax": 50.98300663781423, 
      "name": "Olmstraat", 
      "lonmin": 4.685346533530489, 
      "sanName": "olmstraat", 
      "numOfAddr": 6, 
      "lonmax": 4.685925676665775, 
      "latmin": 50.98242640207309
    }, 
    {
      "latmax": 50.96999975959456, 
      "name": "Onze Lieve Vrouwstraat", 
      "lonmin": 4.692956413558185, 
      "sanName": "onzelievevrouwstraat", 
      "numOfAddr": 5, 
      "lonmax": 4.69336450306237, 
      "latmin": 50.96993282334395
    }, 
    {
      "latmax": 50.98197884714157, 
      "name": "Preterstraat", 
      "lonmin": 4.740463340058987, 
      "sanName": "preterstraat", 
      "numOfAddr": 48, 
      "lonmax": 4.758625145791187, 
      "latmin": 50.97582652259215
    }, 
    {
      "latmax": 50.976868175788724, 
      "name": "Processieweg", 
      "lonmin": 4.715563739182509, 
      "sanName": "processieweg", 
      "numOfAddr": 18, 
      "lonmax": 4.717542241889557, 
      "latmin": 50.9750255653939
    }, 
    {
      "latmax": 50.969061459434236, 
      "name": "Provinciebaan", 
      "lonmin": 4.6904680781480215, 
      "sanName": "provinciebaan", 
      "numOfAddr": 17, 
      "lonmax": 4.71052236313534, 
      "latmin": 50.95085616415808
    }, 
    {
      "latmax": 50.97832967692524, 
      "name": "Rademakersstraat", 
      "lonmin": 4.71579784718533, 
      "sanName": "rademakersstraat", 
      "numOfAddr": 4, 
      "lonmax": 4.716520527159052, 
      "latmin": 50.97775924433317
    }, 
    {
      "latmax": 50.97461630615857, 
      "name": "Rochusstraat", 
      "lonmin": 4.6964684347192245, 
      "sanName": "rochusstraat", 
      "numOfAddr": 37, 
      "lonmax": 4.702084696190533, 
      "latmin": 50.97218345856296
    }, 
    {
      "latmax": 50.9782061969522, 
      "name": "Sint-Adriaansweg", 
      "lonmin": 4.741009129513942, 
      "sanName": "sintadriaansweg", 
      "numOfAddr": 9, 
      "lonmax": 4.742108656446084, 
      "latmin": 50.97785520387428
    }, 
    {
      "latmax": 50.97362040933918, 
      "name": "Sint Jansstraat", 
      "lonmin": 4.6931989211283485, 
      "sanName": "sintjansstraat", 
      "numOfAddr": 90, 
      "lonmax": 4.7023331331446805, 
      "latmin": 50.97105162587686
    }, 
    {
      "latmax": 50.97331174289751, 
      "name": "Slagersweg", 
      "lonmin": 4.693873284466678, 
      "sanName": "slagersweg", 
      "numOfAddr": 14, 
      "lonmax": 4.694734848688867, 
      "latmin": 50.971903388938756
    }, 
    {
      "latmax": 50.975403919369235, 
      "name": "Spandonck", 
      "lonmin": 4.723640724317971, 
      "sanName": "spandonck", 
      "numOfAddr": 16, 
      "lonmax": 4.728376906406194, 
      "latmin": 50.97417780866834
    }, 
    {
      "latmax": 50.96897463400609, 
      "name": "Tarweland", 
      "lonmin": 4.688805916177008, 
      "sanName": "tarweland", 
      "numOfAddr": 5, 
      "lonmax": 4.690211551208297, 
      "latmin": 50.96632841144146
    }, 
    {
      "latmax": 50.97824113346841, 
      "name": "Tremelobaan", 
      "lonmin": 4.700056466135599, 
      "sanName": "tremelobaan", 
      "numOfAddr": 20, 
      "lonmax": 4.703103254429338, 
      "latmin": 50.97402388363625
    }, 
    {
      "latmax": 50.970930428018804, 
      "name": "Tweebruggenstraat", 
      "lonmin": 4.691211836633564, 
      "sanName": "tweebruggenstraat", 
      "numOfAddr": 17, 
      "lonmax": 4.692924796426471, 
      "latmin": 50.96945173018442
    }, 
    {
      "latmax": 50.980448182369265, 
      "name": "Varentstraat", 
      "lonmin": 4.717625796421123, 
      "sanName": "varentstraat", 
      "numOfAddr": 127, 
      "lonmax": 4.743617308656851, 
      "latmin": 50.974251693717044
    }, 
    {
      "latmax": 50.972611863117834, 
      "name": "Veerpont", 
      "lonmin": 4.7184705992663805, 
      "sanName": "veerpont", 
      "numOfAddr": 4, 
      "lonmax": 4.7190915580728054, 
      "latmin": 50.97146593422771
    }, 
    {
      "latmax": 50.98138511560791, 
      "name": "Vondelweg", 
      "lonmin": 4.7157302819970255, 
      "sanName": "vondelweg", 
      "numOfAddr": 52, 
      "lonmax": 4.722723371054754, 
      "latmin": 50.9787352308698
    }, 
    {
      "latmax": 50.97825056508083, 
      "name": "Vossebergen", 
      "lonmin": 4.705697391707301, 
      "sanName": "vossebergen", 
      "numOfAddr": 20, 
      "lonmax": 4.708859286207135, 
      "latmin": 50.976900312338884
    }, 
    {
      "latmax": 50.9717594322708, 
      "name": "Walstraat", 
      "lonmin": 4.694282993295092, 
      "sanName": "walstraat", 
      "numOfAddr": 50, 
      "lonmax": 4.69845912071482, 
      "latmin": 50.969530262184286
    }, 
    {
      "latmax": 50.97113557442474, 
      "name": "Werchterplein", 
      "lonmin": 4.693202803581147, 
      "sanName": "werchterplein", 
      "numOfAddr": 16, 
      "lonmax": 4.694953948467407, 
      "latmin": 50.970062250600684
    }
  ]
}