{
  "streets": [
    {
      "latmax": 50.997581860697444, 
      "name": "Aan de Berg", 
      "lonmin": 4.7531464042897715, 
      "sanName": "aandeberg", 
      "numOfAddr": 15, 
      "lonmax": 4.753813843409771, 
      "latmin": 50.9968906271879
    }, 
    {
      "latmax": 50.99599605481631, 
      "name": "Baalsebaan", 
      "lonmin": 4.731733682990842, 
      "sanName": "baalsebaan", 
      "numOfAddr": 119, 
      "lonmax": 4.753012400629346, 
      "latmin": 50.99370691233226
    }, 
    {
      "latmax": 50.99388264982058, 
      "name": "Bakelstraat", 
      "lonmin": 2.306689562140502, 
      "sanName": "bakelstraat", 
      "numOfAddr": 18, 
      "lonmax": 4.753544206069561, 
      "latmin": 49.293335165093566
    }, 
    {
      "latmax": 51.00795037378554, 
      "name": "Balenbergstraat", 
      "lonmin": 4.7672180887480025, 
      "sanName": "balenbergstraat", 
      "numOfAddr": 18, 
      "lonmax": 4.7739225873589275, 
      "latmin": 50.99684154333275
    }, 
    {
      "latmax": 51.0071130087293, 
      "name": "Balenbergstraatje", 
      "lonmin": 4.762956299415279, 
      "sanName": "balenbergstraatje", 
      "numOfAddr": 12, 
      "lonmax": 4.768895650707429, 
      "latmin": 51.00260408699391
    }, 
    {
      "latmax": 50.99163551459291, 
      "name": "Belv\u0082d\u008arestraat", 
      "lonmin": 4.736366486596794, 
      "sanName": "belvdrestraat", 
      "numOfAddr": 13, 
      "lonmax": 4.737099672602176, 
      "latmin": 50.9903763492916
    }, 
    {
      "latmax": 50.99262902905363, 
      "name": "Berkendreef", 
      "lonmin": 4.752387929822586, 
      "sanName": "berkendreef", 
      "numOfAddr": 9, 
      "lonmax": 4.75377494670883, 
      "latmin": 50.99159244580348
    }, 
    {
      "latmax": 50.99546123742489, 
      "name": "Betekomsestraat", 
      "lonmin": 4.753130011898453, 
      "sanName": "betekomsestraat", 
      "numOfAddr": 69, 
      "lonmax": 4.764304564858552, 
      "latmin": 50.99063344675965
    }, 
    {
      "latmax": 50.99987632483497, 
      "name": "Beulkensstraat", 
      "lonmin": 4.751515484863249, 
      "sanName": "beulkensstraat", 
      "numOfAddr": 30, 
      "lonmax": 4.758148951673341, 
      "latmin": 50.997337301288596
    }, 
    {
      "latmax": 50.99295763880514, 
      "name": "Blinkenbergstraat", 
      "lonmin": 4.740334054863166, 
      "sanName": "blinkenbergstraat", 
      "numOfAddr": 16, 
      "lonmax": 4.742674878433863, 
      "latmin": 50.99204048612595
    }, 
    {
      "latmax": 51.017299331331174, 
      "name": "Bonten Osstraat", 
      "lonmin": 4.735751568014744, 
      "sanName": "bontenosstraat", 
      "numOfAddr": 41, 
      "lonmax": 4.741912772178227, 
      "latmin": 51.009855698371396
    }, 
    {
      "latmax": 51.01389800225165, 
      "name": "Booischotsestraat", 
      "lonmin": 4.753474726283864, 
      "sanName": "booischotsestraat", 
      "numOfAddr": 25, 
      "lonmax": 4.757176079884995, 
      "latmin": 51.0096027294064
    }, 
    {
      "latmax": 50.999206510534535, 
      "name": "Bossepleinstraat", 
      "lonmin": 4.764824741630828, 
      "sanName": "bossepleinstraat", 
      "numOfAddr": 34, 
      "lonmax": 4.772247585076279, 
      "latmin": 50.99462351003538
    }, 
    {
      "latmax": 50.991698021771235, 
      "name": "Bosstraat", 
      "lonmin": 4.734830617001059, 
      "sanName": "bosstraat", 
      "numOfAddr": 9, 
      "lonmax": 4.735764879596939, 
      "latmin": 50.99027571423507
    }, 
    {
      "latmax": 50.99587279921828, 
      "name": "Bredevennestraat", 
      "lonmin": 4.76418498602381, 
      "sanName": "bredevennestraat", 
      "numOfAddr": 2, 
      "lonmax": 4.768049323682058, 
      "latmin": 50.99487584170432
    }, 
    {
      "latmax": 51.007554428920706, 
      "name": "Camille Huysmansstraat", 
      "lonmin": 4.73656157912398, 
      "sanName": "camillehuysmansstraat", 
      "numOfAddr": 115, 
      "lonmax": 4.750141315118945, 
      "latmin": 50.99892593126823
    }, 
    {
      "latmax": 50.99717581701832, 
      "name": "Denstraat", 
      "lonmin": 4.734888531285635, 
      "sanName": "denstraat", 
      "numOfAddr": 19, 
      "lonmax": 4.735961253719711, 
      "latmin": 50.99533930814529
    }, 
    {
      "latmax": 50.994845266694036, 
      "name": "Domstraat", 
      "lonmin": 4.737890664025257, 
      "sanName": "domstraat", 
      "numOfAddr": 57, 
      "lonmax": 4.740146486561651, 
      "latmin": 50.98832988651601
    }, 
    {
      "latmax": 50.99348265895159, 
      "name": "Duinenstraat", 
      "lonmin": 4.7361393771000255, 
      "sanName": "duinenstraat", 
      "numOfAddr": 7, 
      "lonmax": 4.736884455498905, 
      "latmin": 50.992167539397585
    }, 
    {
      "latmax": 51.00045567872272, 
      "name": "Eekhoornlaan", 
      "lonmin": 4.733769651098724, 
      "sanName": "eekhoornlaan", 
      "numOfAddr": 19, 
      "lonmax": 4.736301938942367, 
      "latmin": 50.99935121932494
    }, 
    {
      "latmax": 50.996688679214465, 
      "name": "E\u0082n-Meistraat", 
      "lonmin": 4.752999578494266, 
      "sanName": "enmeistraat", 
      "numOfAddr": 7, 
      "lonmax": 4.753829536589485, 
      "latmin": 50.99634800036534
    }, 
    {
      "latmax": 50.99423134762123, 
      "name": "Familie De Cockstraat", 
      "lonmin": 4.739873970424663, 
      "sanName": "familiedecockstraat", 
      "numOfAddr": 36, 
      "lonmax": 4.746004192236359, 
      "latmin": 50.99290398293725
    }, 
    {
      "latmax": 50.997813984326434, 
      "name": "Fasbinderstraat", 
      "lonmin": 4.749506792424809, 
      "sanName": "fasbinderstraat", 
      "numOfAddr": 12, 
      "lonmax": 4.750597706624611, 
      "latmin": 50.997373246136796
    }, 
    {
      "latmax": 51.01260887911398, 
      "name": "Felix Aertgeertsstraat", 
      "lonmin": 4.754428545955941, 
      "sanName": "felixaertgeertsstraat", 
      "numOfAddr": 48, 
      "lonmax": 4.759410691095084, 
      "latmin": 51.00708901392969
    }, 
    {
      "latmax": 50.99370949865982, 
      "name": "Galgenbergstraat", 
      "lonmin": 4.732238276100014, 
      "sanName": "galgenbergstraat", 
      "numOfAddr": 17, 
      "lonmax": 4.73393605178949, 
      "latmin": 50.99159703862691
    }, 
    {
      "latmax": 51.012576850698096, 
      "name": "Geertruimoerstraat", 
      "lonmin": 4.7357601967433, 
      "sanName": "geertruimoerstraat", 
      "numOfAddr": 41, 
      "lonmax": 4.745402995027274, 
      "latmin": 51.00752260775953
    }, 
    {
      "latmax": 51.01924395172623, 
      "name": "Grootlosestraat", 
      "lonmin": 4.7280457788560994, 
      "sanName": "grootlosestraat", 
      "numOfAddr": 34, 
      "lonmax": 4.74072225748262, 
      "latmin": 51.015497017168656
    }, 
    {
      "latmax": 50.997625407953024, 
      "name": "Grote Loopstraat", 
      "lonmin": 4.754398420579475, 
      "sanName": "groteloopstraat", 
      "numOfAddr": 6, 
      "lonmax": 4.755564772098432, 
      "latmin": 50.99711280605091
    }, 
    {
      "latmax": 51.00955093606146, 
      "name": "Hannekensstraat", 
      "lonmin": 4.765673275113252, 
      "sanName": "hannekensstraat", 
      "numOfAddr": 8, 
      "lonmax": 4.767669032189161, 
      "latmin": 51.009022983071574
    }, 
    {
      "latmax": 51.013781782517384, 
      "name": "Heistraat", 
      "lonmin": 4.733636849934766, 
      "sanName": "heistraat", 
      "numOfAddr": 24, 
      "lonmax": 4.736050983914942, 
      "latmin": 51.006649478117765
    }, 
    {
      "latmax": 50.9972900178128, 
      "name": "Jef Van Horicklaan", 
      "lonmin": 4.733566387084316, 
      "sanName": "jefvanhoricklaan", 
      "numOfAddr": 16, 
      "lonmax": 4.734389213969743, 
      "latmin": 50.995240171619905
    }, 
    {
      "latmax": 51.02435144402418, 
      "name": "Jos Ceulemansstraat", 
      "lonmin": 4.731001577501094, 
      "sanName": "josceulemansstraat", 
      "numOfAddr": 26, 
      "lonmax": 4.741855475779145, 
      "latmin": 51.02094608901446
    }, 
    {
      "latmax": 50.99586835406725, 
      "name": "Kapellestraat", 
      "lonmin": 4.756361336255014, 
      "sanName": "kapellestraat", 
      "numOfAddr": 3, 
      "lonmax": 4.757193026825464, 
      "latmin": 50.9951408045245
    }, 
    {
      "latmax": 50.99533585855979, 
      "name": "Kapellestraatje", 
      "lonmin": 4.7549268753221545, 
      "sanName": "kapellestraatje", 
      "numOfAddr": 8, 
      "lonmax": 4.756824694005738, 
      "latmin": 50.994675893240384
    }, 
    {
      "latmax": 51.00567358697614, 
      "name": "Kerkebosstraat", 
      "lonmin": 4.756406328388393, 
      "sanName": "kerkebosstraat", 
      "numOfAddr": 39, 
      "lonmax": 4.762524771897355, 
      "latmin": 50.998584744674915
    }, 
    {
      "latmax": 51.011007922313276, 
      "name": "Kleine Remerstraat", 
      "lonmin": 4.748410097856995, 
      "sanName": "kleineremerstraat", 
      "numOfAddr": 27, 
      "lonmax": 4.753265684236145, 
      "latmin": 51.00543460546837
    }, 
    {
      "latmax": 51.00140029312759, 
      "name": "Kleine Schaluinstraat", 
      "lonmin": 4.737357343612653, 
      "sanName": "kleineschaluinstraat", 
      "numOfAddr": 27, 
      "lonmax": 4.7420661662771755, 
      "latmin": 50.99956348457268
    }, 
    {
      "latmax": 50.99288916391102, 
      "name": "Kruisboslaan", 
      "lonmin": 4.750540599766259, 
      "sanName": "kruisboslaan", 
      "numOfAddr": 15, 
      "lonmax": 4.753236908263317, 
      "latmin": 50.991860510075774
    }, 
    {
      "latmax": 51.01598061826753, 
      "name": "Lange Hoevestraat", 
      "lonmin": 4.756473329501652, 
      "sanName": "langehoevestraat", 
      "numOfAddr": 19, 
      "lonmax": 4.761289002934574, 
      "latmin": 51.01285260478875
    }, 
    {
      "latmax": 50.99774150561381, 
      "name": "Lange Rechtestraat", 
      "lonmin": 4.731831396361303, 
      "sanName": "langerechtestraat", 
      "numOfAddr": 15, 
      "lonmax": 4.736446063915701, 
      "latmin": 50.99726813296646
    }, 
    {
      "latmax": 51.026650703758996, 
      "name": "Langestraat", 
      "lonmin": 4.731277339484871, 
      "sanName": "langestraat", 
      "numOfAddr": 32, 
      "lonmax": 4.751500666283332, 
      "latmin": 51.02426648478984
    }, 
    {
      "latmax": 51.01750316394724, 
      "name": "Lange Venstraat", 
      "lonmin": 4.745833041854803, 
      "sanName": "langevenstraat", 
      "numOfAddr": 80, 
      "lonmax": 4.754000364521781, 
      "latmin": 51.01123520185296
    }, 
    {
      "latmax": 50.993084614878434, 
      "name": "Lentedreef", 
      "lonmin": 4.737246204948387, 
      "sanName": "lentedreef", 
      "numOfAddr": 2, 
      "lonmax": 4.738166483061936, 
      "latmin": 50.99306428445532
    }, 
    {
      "latmax": 50.99415421051013, 
      "name": "Lindenlaan", 
      "lonmin": 4.750712219392884, 
      "sanName": "lindenlaan", 
      "numOfAddr": 2, 
      "lonmax": 4.751174632500567, 
      "latmin": 50.99402645012718
    }, 
    {
      "latmax": 50.9991419582864, 
      "name": "Louis Van Holestraat", 
      "lonmin": 4.752761036506373, 
      "sanName": "louisvanholestraat", 
      "numOfAddr": 11, 
      "lonmax": 4.753959379263127, 
      "latmin": 50.99722556009776
    }, 
    {
      "latmax": 51.01642423426279, 
      "name": "Marcinellestraat", 
      "lonmin": 4.745129985930629, 
      "sanName": "marcinellestraat", 
      "numOfAddr": 8, 
      "lonmax": 4.745816748427903, 
      "latmin": 51.015691125039496
    }, 
    {
      "latmax": 51.01200045114429, 
      "name": "Meiboomlaan", 
      "lonmin": 4.7321540013275545, 
      "sanName": "meiboomlaan", 
      "numOfAddr": 8, 
      "lonmax": 4.734117799180037, 
      "latmin": 51.01033961444896
    }, 
    {
      "latmax": 51.02194028391521, 
      "name": "Merestraat", 
      "lonmin": 4.749608083699983, 
      "sanName": "merestraat", 
      "numOfAddr": 9, 
      "lonmax": 4.755095951354876, 
      "latmin": 51.02050285368687
    }, 
    {
      "latmax": 50.99972858678207, 
      "name": "Monnikstraat", 
      "lonmin": 4.74357577891141, 
      "sanName": "monnikstraat", 
      "numOfAddr": 28, 
      "lonmax": 4.746123174384019, 
      "latmin": 50.995310663925544
    }, 
    {
      "latmax": 50.9944570117647, 
      "name": "Montystraat", 
      "lonmin": 4.744441530818934, 
      "sanName": "montystraat", 
      "numOfAddr": 26, 
      "lonmax": 4.748318332861109, 
      "latmin": 50.9906006321473
    }, 
    {
      "latmax": 51.001589446779285, 
      "name": "Moorsemsestraat", 
      "lonmin": 4.752988900645622, 
      "sanName": "moorsemsestraat", 
      "numOfAddr": 85, 
      "lonmax": 4.770459427052745, 
      "latmin": 50.99576482259657
    }, 
    {
      "latmax": 51.02389429533377, 
      "name": "Nobelstraat", 
      "lonmin": 4.739297183155123, 
      "sanName": "nobelstraat", 
      "numOfAddr": 234, 
      "lonmax": 4.751329856854181, 
      "latmin": 50.99934669413042
    }, 
    {
      "latmax": 51.02038602527356, 
      "name": "Pandhoevestraat", 
      "lonmin": 4.742207659923322, 
      "sanName": "pandhoevestraat", 
      "numOfAddr": 108, 
      "lonmax": 4.756422245279051, 
      "latmin": 51.01345747321103
    }, 
    {
      "latmax": 51.02032556868253, 
      "name": "Pandhoevestraatje", 
      "lonmin": 4.755427141308889, 
      "sanName": "pandhoevestraatje", 
      "numOfAddr": 7, 
      "lonmax": 4.7605267131980185, 
      "latmin": 51.0161322927065
    }, 
    {
      "latmax": 50.99443490479172, 
      "name": "Parkheidestraat", 
      "lonmin": 4.747496792112975, 
      "sanName": "parkheidestraat", 
      "numOfAddr": 48, 
      "lonmax": 4.750858966038369, 
      "latmin": 50.98851790996862
    }, 
    {
      "latmax": 51.00070939677432, 
      "name": "Pastoor Caytanstraat", 
      "lonmin": 4.74800919495063, 
      "sanName": "pastoorcaytanstraat", 
      "numOfAddr": 13, 
      "lonmax": 4.749605037521534, 
      "latmin": 50.99968708939847
    }, 
    {
      "latmax": 50.99924629901579, 
      "name": "Pastoriestraat", 
      "lonmin": 4.750578904357624, 
      "sanName": "pastoriestraat", 
      "numOfAddr": 56, 
      "lonmax": 4.752945174222821, 
      "latmin": 50.99567643578249
    }, 
    {
      "latmax": 51.003432642912585, 
      "name": "Peter Benoitlaan", 
      "lonmin": 4.732137422339678, 
      "sanName": "peterbenoitlaan", 
      "numOfAddr": 29, 
      "lonmax": 4.735353665601163, 
      "latmin": 51.001476630287776
    }, 
    {
      "latmax": 51.0097204022929, 
      "name": "Remerstraat", 
      "lonmin": 4.750427211278269, 
      "sanName": "remerstraat", 
      "numOfAddr": 69, 
      "lonmax": 4.764273451148792, 
      "latmin": 51.00078286835535
    }, 
    {
      "latmax": 50.99864244732744, 
      "name": "Rozendal", 
      "lonmin": 4.745100253904485, 
      "sanName": "rozendal", 
      "numOfAddr": 151, 
      "lonmax": 4.7497012521034705, 
      "latmin": 50.99656673156152
    }, 
    {
      "latmax": 51.01199693748514, 
      "name": "Rozenlaan", 
      "lonmin": 4.7316853793980185, 
      "sanName": "rozenlaan", 
      "numOfAddr": 15, 
      "lonmax": 4.733585366669967, 
      "latmin": 51.00776252994718
    }, 
    {
      "latmax": 50.999690904807906, 
      "name": "Saffraanstraat", 
      "lonmin": 4.746831355074705, 
      "sanName": "saffraanstraat", 
      "numOfAddr": 4, 
      "lonmax": 4.74699961695487, 
      "latmin": 50.99914920171888
    }, 
    {
      "latmax": 51.005540857764935, 
      "name": "Schaluinstraat", 
      "lonmin": 4.731752015283925, 
      "sanName": "schaluinstraat", 
      "numOfAddr": 89, 
      "lonmax": 4.739329889896682, 
      "latmin": 50.99535808912488
    }, 
    {
      "latmax": 50.99702620929892, 
      "name": "Stappaertblokstraat", 
      "lonmin": 4.736242337219946, 
      "sanName": "stappaertblokstraat", 
      "numOfAddr": 15, 
      "lonmax": 4.737133007635937, 
      "latmin": 50.99548266970644
    }, 
    {
      "latmax": 51.01928881648321, 
      "name": "Stijn Streuvelslaan", 
      "lonmin": 4.743191398111725, 
      "sanName": "stijnstreuvelslaan", 
      "numOfAddr": 48, 
      "lonmax": 4.747680060290868, 
      "latmin": 51.01534775995457
    }, 
    {
      "latmax": 50.999557467210614, 
      "name": "Tuinwijkstraat", 
      "lonmin": 4.734664100149148, 
      "sanName": "tuinwijkstraat", 
      "numOfAddr": 12, 
      "lonmax": 4.736562551157418, 
      "latmin": 50.99867606047985
    }, 
    {
      "latmax": 51.000291699057684, 
      "name": "Turfhoeveweg", 
      "lonmin": 4.740966432508936, 
      "sanName": "turfhoeveweg", 
      "numOfAddr": 9, 
      "lonmax": 4.7444855958112955, 
      "latmin": 50.99947872282412
    }, 
    {
      "latmax": 50.99631081972132, 
      "name": "Turfweg", 
      "lonmin": 4.747679198590067, 
      "sanName": "turfweg", 
      "numOfAddr": 5, 
      "lonmax": 4.748848205858786, 
      "latmin": 50.99530330517822
    }, 
    {
      "latmax": 50.99704498002852, 
      "name": "Van Regenmortelstraat", 
      "lonmin": 4.749182591754054, 
      "sanName": "vanregenmortelstraat", 
      "numOfAddr": 19, 
      "lonmax": 4.7511062574723075, 
      "latmin": 50.99634942341881
    }, 
    {
      "latmax": 50.99340989246506, 
      "name": "Veldonkstraat", 
      "lonmin": 4.731795756695666, 
      "sanName": "veldonkstraat", 
      "numOfAddr": 106, 
      "lonmax": 4.771288723150137, 
      "latmin": 50.98812846233018
    }, 
    {
      "latmax": 50.992517034364916, 
      "name": "Veldonkweg", 
      "lonmin": 4.734324907513565, 
      "sanName": "veldonkweg", 
      "numOfAddr": 9, 
      "lonmax": 4.7385626483849315, 
      "latmin": 50.9916513521734
    }, 
    {
      "latmax": 50.991638120604584, 
      "name": "Verlofstraat", 
      "lonmin": 4.7375747399431285, 
      "sanName": "verlofstraat", 
      "numOfAddr": 8, 
      "lonmax": 4.738665897707779, 
      "latmin": 50.99096221477574
    }, 
    {
      "latmax": 51.002607608771726, 
      "name": "Vijfvijversweg", 
      "lonmin": 4.758627671320339, 
      "sanName": "vijfvijversweg", 
      "numOfAddr": 6, 
      "lonmax": 4.76117020426859, 
      "latmin": 50.9986537166575
    }, 
    {
      "latmax": 50.99458774957305, 
      "name": "Villadreef", 
      "lonmin": 4.734636237241913, 
      "sanName": "villadreef", 
      "numOfAddr": 22, 
      "lonmax": 4.737431971062746, 
      "latmin": 50.992046407596625
    }, 
    {
      "latmax": 50.99634878021048, 
      "name": "Wandelingstraat", 
      "lonmin": 4.738068646916075, 
      "sanName": "wandelingstraat", 
      "numOfAddr": 5, 
      "lonmax": 4.740833343875159, 
      "latmin": 50.99574786876588
    }, 
    {
      "latmax": 50.997097841629, 
      "name": "Weekeindstraat", 
      "lonmin": 4.732011570809336, 
      "sanName": "weekeindstraat", 
      "numOfAddr": 17, 
      "lonmax": 4.732724676881184, 
      "latmin": 50.994978164692405
    }, 
    {
      "latmax": 50.99395724404637, 
      "name": "Zuidlaan", 
      "lonmin": 4.753745908859265, 
      "sanName": "zuidlaan", 
      "numOfAddr": 55, 
      "lonmax": 4.755094187031995, 
      "latmin": 50.988529547982736
    }
  ]
}