{
  "streets": [
    {
      "latmax": 51.032331420537034, 
      "name": "Abdijstraat", 
      "lonmin": 4.9797531035423725, 
      "sanName": "abdijstraat", 
      "numOfAddr": 9, 
      "lonmax": 4.998541569945138, 
      "latmin": 51.02427729645478
    }, 
    {
      "latmax": 50.98051357562936, 
      "name": "Acacialaan", 
      "lonmin": 4.956035695092367, 
      "sanName": "acacialaan", 
      "numOfAddr": 10, 
      "lonmax": 4.957762664074494, 
      "latmin": 50.98001181130884
    }, 
    {
      "latmax": 50.98416182420493, 
      "name": "Alleenstaande Huizen", 
      "lonmin": 4.989123351455507, 
      "sanName": "alleenstaandehuizen", 
      "numOfAddr": 2, 
      "lonmax": 4.9895519168339, 
      "latmin": 50.98386407720215
    }, 
    {
      "latmax": 50.97929849638568, 
      "name": "August Nihoulstraat", 
      "lonmin": 4.975147583517735, 
      "sanName": "augustnihoulstraat", 
      "numOfAddr": 1, 
      "lonmax": 4.975147583517735, 
      "latmin": 50.97929849638568
    }, 
    {
      "latmax": 51.032534632058166, 
      "name": "Averbodeweg", 
      "lonmin": 5.000454198046071, 
      "sanName": "averbodeweg", 
      "numOfAddr": 68, 
      "lonmax": 5.012586669806683, 
      "latmin": 51.030366397550914
    }, 
    {
      "latmax": 51.006390564418, 
      "name": "Beemdenstraat", 
      "lonmin": 4.9853892236079576, 
      "sanName": "beemdenstraat", 
      "numOfAddr": 2, 
      "lonmax": 4.985691469978393, 
      "latmin": 51.00626402607639
    }, 
    {
      "latmax": 50.97991328664481, 
      "name": "Beukenlaan", 
      "lonmin": 4.956671158331465, 
      "sanName": "beukenlaan", 
      "numOfAddr": 9, 
      "lonmax": 4.958070792002227, 
      "latmin": 50.97947377272475
    }, 
    {
      "latmax": 50.9889384537081, 
      "name": "Binnenstraat", 
      "lonmin": 4.937829648314624, 
      "sanName": "binnenstraat", 
      "numOfAddr": 3, 
      "lonmax": 4.941107782865664, 
      "latmin": 50.98730776555677
    }, 
    {
      "latmax": 51.03047119668924, 
      "name": "Boonstraat", 
      "lonmin": 4.97468607927086, 
      "sanName": "boonstraat", 
      "numOfAddr": 15, 
      "lonmax": 4.976295165409161, 
      "latmin": 51.029480125778086
    }, 
    {
      "latmax": 50.984859782379885, 
      "name": "Bouckaertstraat", 
      "lonmin": 4.975358380061649, 
      "sanName": "bouckaertstraat", 
      "numOfAddr": 18, 
      "lonmax": 4.977709776514119, 
      "latmin": 50.984199211044434
    }, 
    {
      "latmax": 51.0295298576819, 
      "name": "Brabantsebaan", 
      "lonmin": 5.0017759973030245, 
      "sanName": "brabantsebaan", 
      "numOfAddr": 58, 
      "lonmax": 5.013949757531445, 
      "latmin": 51.024862350237356
    }, 
    {
      "latmax": 51.026155854234254, 
      "name": "Bredestraat", 
      "lonmin": 4.972765604943528, 
      "sanName": "bredestraat", 
      "numOfAddr": 92, 
      "lonmax": 4.9863713907683875, 
      "latmin": 51.0222743737622
    }, 
    {
      "latmax": 50.99685200378762, 
      "name": "Bredeveldstraat", 
      "lonmin": 4.975281865703646, 
      "sanName": "bredeveldstraat", 
      "numOfAddr": 28, 
      "lonmax": 4.991924935235924, 
      "latmin": 50.993218786733344
    }, 
    {
      "latmax": 51.018507558350954, 
      "name": "Broekstraat", 
      "lonmin": 4.986729958971776, 
      "sanName": "broekstraat", 
      "numOfAddr": 22, 
      "lonmax": 4.990070777653359, 
      "latmin": 51.01752270640476
    }, 
    {
      "latmax": 50.98088821454809, 
      "name": "Dahlialaan", 
      "lonmin": 4.955318945188949, 
      "sanName": "dahlialaan", 
      "numOfAddr": 6, 
      "lonmax": 4.956225185821194, 
      "latmin": 50.97975970363341
    }, 
    {
      "latmax": 51.02731520599019, 
      "name": "Dennenlaan", 
      "lonmin": 4.985967433587527, 
      "sanName": "dennenlaan", 
      "numOfAddr": 27, 
      "lonmax": 4.990711886341771, 
      "latmin": 51.023598879157355
    }, 
    {
      "latmax": 50.99606242635563, 
      "name": "Eekhoornstraat", 
      "lonmin": 4.956107527894571, 
      "sanName": "eekhoornstraat", 
      "numOfAddr": 9, 
      "lonmax": 4.956873918351552, 
      "latmin": 50.995025340399195
    }, 
    {
      "latmax": 50.99577237542312, 
      "name": "Egelstraat", 
      "lonmin": 4.954934901217123, 
      "sanName": "egelstraat", 
      "numOfAddr": 6, 
      "lonmax": 4.955632165181497, 
      "latmin": 50.99469859581686
    }, 
    {
      "latmax": 50.987657358264556, 
      "name": "Eikstraat", 
      "lonmin": 4.949023014528261, 
      "sanName": "eikstraat", 
      "numOfAddr": 33, 
      "lonmax": 4.954048755156886, 
      "latmin": 50.9863003204403
    }, 
    {
      "latmax": 51.021767027384854, 
      "name": "Elzenstraat", 
      "lonmin": 4.966504608411778, 
      "sanName": "elzenstraat", 
      "numOfAddr": 39, 
      "lonmax": 4.969841822814813, 
      "latmin": 51.02009795644064
    }, 
    {
      "latmax": 50.99564595992004, 
      "name": "Engelenberg", 
      "lonmin": 4.942399064031749, 
      "sanName": "engelenberg", 
      "numOfAddr": 5, 
      "lonmax": 4.94429177532794, 
      "latmin": 50.99226298946752
    }, 
    {
      "latmax": 51.01588135503466, 
      "name": "Ernest Claesstraat", 
      "lonmin": 4.987097527108048, 
      "sanName": "ernestclaesstraat", 
      "numOfAddr": 117, 
      "lonmax": 4.992204829779951, 
      "latmin": 51.0019987107424
    }, 
    {
      "latmax": 51.02804990902763, 
      "name": "Frankenstraat", 
      "lonmin": 4.979449288476997, 
      "sanName": "frankenstraat", 
      "numOfAddr": 15, 
      "lonmax": 4.98090709729912, 
      "latmin": 51.02713357937979
    }, 
    {
      "latmax": 51.0217163494933, 
      "name": "Galgenberg", 
      "lonmin": 4.990369223759333, 
      "sanName": "galgenberg", 
      "numOfAddr": 40, 
      "lonmax": 4.992889266565975, 
      "latmin": 51.01814273517899
    }, 
    {
      "latmax": 51.04570137555253, 
      "name": "Grensstraat", 
      "lonmin": 4.963739199634743, 
      "sanName": "grensstraat", 
      "numOfAddr": 22, 
      "lonmax": 4.96779111115831, 
      "latmin": 51.04237675536187
    }, 
    {
      "latmax": 50.99144762965695, 
      "name": "Haegenveld", 
      "lonmin": 4.959118771486258, 
      "sanName": "haegenveld", 
      "numOfAddr": 4, 
      "lonmax": 4.9599019670414215, 
      "latmin": 50.99100285177597
    }, 
    {
      "latmax": 51.00299796379658, 
      "name": "Hamerstraat", 
      "lonmin": 4.971174729348022, 
      "sanName": "hamerstraat", 
      "numOfAddr": 18, 
      "lonmax": 4.972418759370908, 
      "latmin": 50.99929314257498
    }, 
    {
      "latmax": 50.97929540527869, 
      "name": "Haverweide", 
      "lonmin": 4.93623589393802, 
      "sanName": "haverweide", 
      "numOfAddr": 1, 
      "lonmax": 4.93623589393802, 
      "latmin": 50.97929540527869
    }, 
    {
      "latmax": 50.99725934979382, 
      "name": "Hazenstraat", 
      "lonmin": 4.959231795539537, 
      "sanName": "hazenstraat", 
      "numOfAddr": 6, 
      "lonmax": 4.9610033739416854, 
      "latmin": 50.99675988639887
    }, 
    {
      "latmax": 51.02884991352205, 
      "name": "Heesterweg", 
      "lonmin": 4.9778344782583535, 
      "sanName": "heesterweg", 
      "numOfAddr": 5, 
      "lonmax": 4.979154239643026, 
      "latmin": 51.02850776801045
    }, 
    {
      "latmax": 50.98053921941043, 
      "name": "Heidebloemlaan", 
      "lonmin": 4.953545807291654, 
      "sanName": "heidebloemlaan", 
      "numOfAddr": 14, 
      "lonmax": 4.955371291857581, 
      "latmin": 50.97960643793233
    }, 
    {
      "latmax": 50.9978138589733, 
      "name": "Heidebosstraat", 
      "lonmin": 4.95764551642273, 
      "sanName": "heidebosstraat", 
      "numOfAddr": 6, 
      "lonmax": 4.959950102925241, 
      "latmin": 50.99683463476032
    }, 
    {
      "latmax": 51.017593454984734, 
      "name": "Heidedijk", 
      "lonmin": 4.988392829416143, 
      "sanName": "heidedijk", 
      "numOfAddr": 28, 
      "lonmax": 4.990945439375529, 
      "latmin": 51.01620664724129
    }, 
    {
      "latmax": 51.04306167755172, 
      "name": "Herseltsebaan", 
      "lonmin": 4.959564747708118, 
      "sanName": "herseltsebaan", 
      "numOfAddr": 18, 
      "lonmax": 4.976563693919669, 
      "latmin": 51.030530038140455
    }, 
    {
      "latmax": 50.99946161718032, 
      "name": "Hondenstraat", 
      "lonmin": 4.986690902631578, 
      "sanName": "hondenstraat", 
      "numOfAddr": 23, 
      "lonmax": 4.988136715234496, 
      "latmin": 50.99891435638837
    }, 
    {
      "latmax": 51.021467229377976, 
      "name": "Hoornblaas", 
      "lonmin": 4.991952954579628, 
      "sanName": "hoornblaas", 
      "numOfAddr": 117, 
      "lonmax": 5.01520595139762, 
      "latmin": 51.00900042168142
    }, 
    {
      "latmax": 50.97972880508941, 
      "name": "Hortensialaan", 
      "lonmin": 4.9543983576804775, 
      "sanName": "hortensialaan", 
      "numOfAddr": 5, 
      "lonmax": 4.9556086299271485, 
      "latmin": 50.97930096274793
    }, 
    {
      "latmax": 50.99308210402263, 
      "name": "Ijsbergstraat", 
      "lonmin": 4.944963379145071, 
      "sanName": "ijsbergstraat", 
      "numOfAddr": 72, 
      "lonmax": 4.9496397683217985, 
      "latmin": 50.97907682737707
    }, 
    {
      "latmax": 50.979826360768556, 
      "name": "Jasmijnlaan", 
      "lonmin": 4.952610322023886, 
      "sanName": "jasmijnlaan", 
      "numOfAddr": 8, 
      "lonmax": 4.953744298628507, 
      "latmin": 50.979317817994506
    }, 
    {
      "latmax": 51.027687026667145, 
      "name": "Judocus Pauwelslaan", 
      "lonmin": 4.9847027037214096, 
      "sanName": "judocuspauwelslaan", 
      "numOfAddr": 3, 
      "lonmax": 4.985774770040811, 
      "latmin": 51.02739707723941
    }, 
    {
      "latmax": 51.0014322134818, 
      "name": "Kapt. M. Cuypersstraat", 
      "lonmin": 4.984933709975304, 
      "sanName": "kaptmcuypersstraat", 
      "numOfAddr": 80, 
      "lonmax": 4.987355587029593, 
      "latmin": 50.99783735099495
    }, 
    {
      "latmax": 50.99908333402527, 
      "name": "Kastanjestraat", 
      "lonmin": 4.954959445218452, 
      "sanName": "kastanjestraat", 
      "numOfAddr": 2, 
      "lonmax": 4.955398176768647, 
      "latmin": 50.99889350995399
    }, 
    {
      "latmax": 51.02216353711051, 
      "name": "Klein Broekstraat", 
      "lonmin": 4.986202249597653, 
      "sanName": "kleinbroekstraat", 
      "numOfAddr": 49, 
      "lonmax": 4.988024296703504, 
      "latmin": 51.01798953687426
    }, 
    {
      "latmax": 50.99949584268295, 
      "name": "Klottebergstraat", 
      "lonmin": 4.952709367706992, 
      "sanName": "klottebergstraat", 
      "numOfAddr": 11, 
      "lonmax": 4.954662124174439, 
      "latmin": 50.99665360803556
    }, 
    {
      "latmax": 51.033728764898214, 
      "name": "Kompaniestraat", 
      "lonmin": 5.007360693744556, 
      "sanName": "kompaniestraat", 
      "numOfAddr": 38, 
      "lonmax": 5.009046377619015, 
      "latmin": 51.02905073068396
    }, 
    {
      "latmax": 50.99687989855088, 
      "name": "Konijntjesstraat", 
      "lonmin": 4.956037663163418, 
      "sanName": "konijntjesstraat", 
      "numOfAddr": 1, 
      "lonmax": 4.956037663163418, 
      "latmin": 50.99687989855088
    }, 
    {
      "latmax": 51.00132493999111, 
      "name": "Kranenburgstraat", 
      "lonmin": 4.98776014920433, 
      "sanName": "kranenburgstraat", 
      "numOfAddr": 108, 
      "lonmax": 4.991357763940515, 
      "latmin": 50.997461505970556
    }, 
    {
      "latmax": 50.99726031992252, 
      "name": "Kwalijkstraat", 
      "lonmin": 4.986222751507083, 
      "sanName": "kwalijkstraat", 
      "numOfAddr": 8, 
      "lonmax": 4.987537999923818, 
      "latmin": 50.996762396250865
    }, 
    {
      "latmax": 51.02926876911808, 
      "name": "Langedreef", 
      "lonmin": 4.963048031723295, 
      "sanName": "langedreef", 
      "numOfAddr": 41, 
      "lonmax": 4.976020145960911, 
      "latmin": 51.02371141348208
    }, 
    {
      "latmax": 51.041005574975046, 
      "name": "Langestraat", 
      "lonmin": 4.943501550500798, 
      "sanName": "langestraat", 
      "numOfAddr": 53, 
      "lonmax": 4.959813246741887, 
      "latmin": 51.03185701754748
    }, 
    {
      "latmax": 50.989298244922786, 
      "name": "Leistraat", 
      "lonmin": 4.978936727206704, 
      "sanName": "leistraat", 
      "numOfAddr": 24, 
      "lonmax": 4.980006995848852, 
      "latmin": 50.98486414936481
    }, 
    {
      "latmax": 50.98326191033844, 
      "name": "Lelielaan", 
      "lonmin": 4.959564840470633, 
      "sanName": "lelielaan", 
      "numOfAddr": 23, 
      "lonmax": 4.961368181760384, 
      "latmin": 50.9806490615445
    }, 
    {
      "latmax": 50.99389416824767, 
      "name": "Libellestraat", 
      "lonmin": 4.956207754996976, 
      "sanName": "libellestraat", 
      "numOfAddr": 22, 
      "lonmax": 4.958812700699954, 
      "latmin": 50.99087339541747
    }, 
    {
      "latmax": 50.985071899033855, 
      "name": "Lobbense Molenweg", 
      "lonmin": 4.971008649516801, 
      "sanName": "lobbensemolenweg", 
      "numOfAddr": 5, 
      "lonmax": 4.97177053107581, 
      "latmin": 50.98417650077518
    }, 
    {
      "latmax": 50.99425416387115, 
      "name": "Lobbensestraat", 
      "lonmin": 4.938186585229446, 
      "sanName": "lobbensestraat", 
      "numOfAddr": 193, 
      "lonmax": 4.972069696917108, 
      "latmin": 50.98280545599881
    }, 
    {
      "latmax": 50.97931755243984, 
      "name": "Mannenberg", 
      "lonmin": 4.9427220707071, 
      "sanName": "mannenberg", 
      "numOfAddr": 9, 
      "lonmax": 4.947928114966792, 
      "latmin": 50.97805544500526
    }, 
    {
      "latmax": 51.0021882205301, 
      "name": "Markt", 
      "lonmin": 4.985893869915641, 
      "sanName": "markt", 
      "numOfAddr": 41, 
      "lonmax": 4.988541838210688, 
      "latmin": 51.00087610465254
    }, 
    {
      "latmax": 51.02356087416881, 
      "name": "Martensstraat", 
      "lonmin": 4.975895892943081, 
      "sanName": "martensstraat", 
      "numOfAddr": 33, 
      "lonmax": 4.98346536489633, 
      "latmin": 51.02227180409356
    }, 
    {
      "latmax": 51.02697321692869, 
      "name": "Melkerijstraat", 
      "lonmin": 4.980758684518172, 
      "sanName": "melkerijstraat", 
      "numOfAddr": 7, 
      "lonmax": 4.982022232656473, 
      "latmin": 51.02611857437337
    }, 
    {
      "latmax": 50.988584326971456, 
      "name": "Molenstraat", 
      "lonmin": 4.974086605644022, 
      "sanName": "molenstraat", 
      "numOfAddr": 28, 
      "lonmax": 4.976069175572861, 
      "latmin": 50.98399582465921
    }, 
    {
      "latmax": 51.02234150631184, 
      "name": "Molenvijver", 
      "lonmin": 4.995546483213218, 
      "sanName": "molenvijver", 
      "numOfAddr": 20, 
      "lonmax": 5.006946383798298, 
      "latmin": 51.01896470320171
    }, 
    {
      "latmax": 50.99216382354713, 
      "name": "Mollenveldwijk", 
      "lonmin": 4.975777070753979, 
      "sanName": "mollenveldwijk", 
      "numOfAddr": 25, 
      "lonmax": 4.977210269712666, 
      "latmin": 50.99003927706477
    }, 
    {
      "latmax": 50.99785275425057, 
      "name": "Molstraat", 
      "lonmin": 4.95651744934004, 
      "sanName": "molstraat", 
      "numOfAddr": 2, 
      "lonmax": 4.957075269009134, 
      "latmin": 50.997651576133315
    }, 
    {
      "latmax": 51.023470916285184, 
      "name": "Mortelbroekstraat", 
      "lonmin": 4.978905187157009, 
      "sanName": "mortelbroekstraat", 
      "numOfAddr": 37, 
      "lonmax": 4.984133892796966, 
      "latmin": 51.01921041188281
    }, 
    {
      "latmax": 50.98645691615827, 
      "name": "Nassaustraat", 
      "lonmin": 4.97605269381484, 
      "sanName": "nassaustraat", 
      "numOfAddr": 32, 
      "lonmax": 4.977832425405556, 
      "latmin": 50.98471009679563
    }, 
    {
      "latmax": 51.03640277646016, 
      "name": "Nieuwstraat", 
      "lonmin": 4.940010518285682, 
      "sanName": "nieuwstraat", 
      "numOfAddr": 47, 
      "lonmax": 4.962578598410495, 
      "latmin": 51.02103415885174
    }, 
    {
      "latmax": 50.99887077535292, 
      "name": "Notelaarstraat", 
      "lonmin": 4.954308550469963, 
      "sanName": "notelaarstraat", 
      "numOfAddr": 7, 
      "lonmax": 4.956268113287511, 
      "latmin": 50.99850829397065
    }, 
    {
      "latmax": 51.02243979240442, 
      "name": "Op 't Zand", 
      "lonmin": 4.9648167731373345, 
      "sanName": "optzand", 
      "numOfAddr": 8, 
      "lonmax": 4.966115689730483, 
      "latmin": 51.02210308159836
    }, 
    {
      "latmax": 51.00065145385426, 
      "name": "Oranjestraat", 
      "lonmin": 4.98317264440222, 
      "sanName": "oranjestraat", 
      "numOfAddr": 52, 
      "lonmax": 4.987804499775105, 
      "latmin": 50.99978826665972
    }, 
    {
      "latmax": 51.03779751673036, 
      "name": "Oude Baan", 
      "lonmin": 5.007991562004923, 
      "sanName": "oudebaan", 
      "numOfAddr": 61, 
      "lonmax": 5.021223254467205, 
      "latmin": 51.01960819234678
    }, 
    {
      "latmax": 50.98922368568664, 
      "name": "Oude Bergstraat", 
      "lonmin": 4.9767071500928735, 
      "sanName": "oudebergstraat", 
      "numOfAddr": 42, 
      "lonmax": 4.9785920072678636, 
      "latmin": 50.98479150689391
    }, 
    {
      "latmax": 51.023612484649966, 
      "name": "Park Ter Heide", 
      "lonmin": 4.990968667388597, 
      "sanName": "parkterheide", 
      "numOfAddr": 90, 
      "lonmax": 4.995391667150143, 
      "latmin": 51.0205691643315
    }, 
    {
      "latmax": 51.029555021192685, 
      "name": "Pastoor Brissacstraat", 
      "lonmin": 5.004557954351924, 
      "sanName": "pastoorbrissacstraat", 
      "numOfAddr": 36, 
      "lonmax": 5.014454031517428, 
      "latmin": 51.02277356269327
    }, 
    {
      "latmax": 51.00126657205674, 
      "name": "Pater Beckxstraat", 
      "lonmin": 4.9838692589998, 
      "sanName": "paterbeckxstraat", 
      "numOfAddr": 27, 
      "lonmax": 4.986288547313617, 
      "latmin": 51.00078342822935
    }, 
    {
      "latmax": 51.04357309359143, 
      "name": "Pater De Grootstraat", 
      "lonmin": 4.964197755670452, 
      "sanName": "paterdegrootstraat", 
      "numOfAddr": 8, 
      "lonmax": 4.967155702192814, 
      "latmin": 51.04241239687892
    }, 
    {
      "latmax": 51.00257993524271, 
      "name": "Pater R. Van De Wouwerstraat", 
      "lonmin": 4.977913239134279, 
      "sanName": "paterrvandewouwerstraat", 
      "numOfAddr": 102, 
      "lonmax": 4.985935243806146, 
      "latmin": 50.998582398696044
    }, 
    {
      "latmax": 50.996628039447174, 
      "name": "Pelgrimsstraat", 
      "lonmin": 4.9500243242843975, 
      "sanName": "pelgrimsstraat", 
      "numOfAddr": 13, 
      "lonmax": 4.951829041063764, 
      "latmin": 50.9952533345844
    }, 
    {
      "latmax": 51.02842996284911, 
      "name": "Prelaatstraat", 
      "lonmin": 4.97852203142863, 
      "sanName": "prelaatstraat", 
      "numOfAddr": 12, 
      "lonmax": 4.9797278036426125, 
      "latmin": 51.02779988622538
    }, 
    {
      "latmax": 51.02956434843478, 
      "name": "Prins De Merodelaan", 
      "lonmin": 4.981416158091598, 
      "sanName": "prinsdemerodelaan", 
      "numOfAddr": 53, 
      "lonmax": 4.988716298790028, 
      "latmin": 51.02460167656933
    }, 
    {
      "latmax": 50.9908147575074, 
      "name": "Processieweg", 
      "lonmin": 4.948691244976925, 
      "sanName": "processieweg", 
      "numOfAddr": 14, 
      "lonmax": 4.951229529391985, 
      "latmin": 50.989679563241786
    }, 
    {
      "latmax": 51.01714659639391, 
      "name": "Reppelsebaan", 
      "lonmin": 4.99185944218205, 
      "sanName": "reppelsebaan", 
      "numOfAddr": 38, 
      "lonmax": 5.002406548962428, 
      "latmin": 51.01555728753265
    }, 
    {
      "latmax": 51.00169660766516, 
      "name": "Reyndersveldweg", 
      "lonmin": 4.971785113959544, 
      "sanName": "reyndersveldweg", 
      "numOfAddr": 32, 
      "lonmax": 4.978966786949485, 
      "latmin": 51.00041538212289
    }, 
    {
      "latmax": 50.99669025373351, 
      "name": "Schildpadstraat", 
      "lonmin": 4.960333071095352, 
      "sanName": "schildpadstraat", 
      "numOfAddr": 3, 
      "lonmax": 4.960589408647465, 
      "latmin": 50.996436361190796
    }, 
    {
      "latmax": 50.983537249770926, 
      "name": "Schuttersweg", 
      "lonmin": 4.940526469549232, 
      "sanName": "schuttersweg", 
      "numOfAddr": 15, 
      "lonmax": 4.9418815120891715, 
      "latmin": 50.9806524033624
    }, 
    {
      "latmax": 50.99606801133977, 
      "name": "Spitsmuisstraat", 
      "lonmin": 4.956059388160676, 
      "sanName": "spitsmuisstraat", 
      "numOfAddr": 9, 
      "lonmax": 4.960689451696566, 
      "latmin": 50.99437882273427
    }, 
    {
      "latmax": 51.02517357397007, 
      "name": "Sprinkhaanstraat", 
      "lonmin": 4.988159805860754, 
      "sanName": "sprinkhaanstraat", 
      "numOfAddr": 45, 
      "lonmax": 4.99668494313176, 
      "latmin": 51.022503419289166
    }, 
    {
      "latmax": 50.997802795025564, 
      "name": "Steenweg Diest", 
      "lonmin": 4.991250756267674, 
      "sanName": "steenwegdiest", 
      "numOfAddr": 67, 
      "lonmax": 5.016728067276161, 
      "latmin": 50.985986228701314
    }, 
    {
      "latmax": 51.02248644624527, 
      "name": "Steenweg Engsbergen", 
      "lonmin": 5.018910643522501, 
      "sanName": "steenwegengsbergen", 
      "numOfAddr": 9, 
      "lonmax": 5.020162257032388, 
      "latmin": 51.02176143698604
    }, 
    {
      "latmax": 51.015514553885794, 
      "name": "Steenweg Molenstede", 
      "lonmin": 5.003729533680864, 
      "sanName": "steenwegmolenstede", 
      "numOfAddr": 12, 
      "lonmax": 5.0068860292397215, 
      "latmin": 51.014175362520895
    }, 
    {
      "latmax": 50.99877792626581, 
      "name": "Steenweg Scherpenheuvel", 
      "lonmin": 4.972996377428386, 
      "sanName": "steenwegscherpenheuvel", 
      "numOfAddr": 38, 
      "lonmax": 4.976772290187884, 
      "latmin": 50.98792140001972
    }, 
    {
      "latmax": 51.02446243222938, 
      "name": "Ten Bosch", 
      "lonmin": 4.993554635429385, 
      "sanName": "tenbosch", 
      "numOfAddr": 13, 
      "lonmax": 4.995230054880725, 
      "latmin": 51.023094506346965
    }, 
    {
      "latmax": 51.00199648345054, 
      "name": "Ter Elzen", 
      "lonmin": 4.9807893055102435, 
      "sanName": "terelzen", 
      "numOfAddr": 20, 
      "lonmax": 4.983109369640244, 
      "latmin": 51.000836231964065
    }, 
    {
      "latmax": 51.03121579071907, 
      "name": "Tessenderlobaan", 
      "lonmin": 5.004131908890263, 
      "sanName": "tessenderlobaan", 
      "numOfAddr": 71, 
      "lonmax": 5.014477208637149, 
      "latmin": 51.01832458086546
    }, 
    {
      "latmax": 51.03012401900969, 
      "name": "Testeltsesteenweg", 
      "lonmin": 4.962761180744187, 
      "sanName": "testeltsesteenweg", 
      "numOfAddr": 136, 
      "lonmax": 4.9775142442282565, 
      "latmin": 51.02068669822275
    }, 
    {
      "latmax": 50.994910099588104, 
      "name": "Tiensestraat", 
      "lonmin": 4.9505735724406, 
      "sanName": "tiensestraat", 
      "numOfAddr": 145, 
      "lonmax": 4.959908446028276, 
      "latmin": 50.97959335389207
    }, 
    {
      "latmax": 50.98339745672528, 
      "name": "Tulpenlaan", 
      "lonmin": 4.950219045258806, 
      "sanName": "tulpenlaan", 
      "numOfAddr": 13, 
      "lonmax": 4.951136463847135, 
      "latmin": 50.982223210639894
    }, 
    {
      "latmax": 51.03825551898094, 
      "name": "Turnhoutsebaan", 
      "lonmin": 5.009281003114644, 
      "sanName": "turnhoutsebaan", 
      "numOfAddr": 90, 
      "lonmax": 5.019898869537432, 
      "latmin": 51.01915302349082
    }, 
    {
      "latmax": 51.0252748888434, 
      "name": "Tussenstraat", 
      "lonmin": 4.9801286308843595, 
      "sanName": "tussenstraat", 
      "numOfAddr": 10, 
      "lonmax": 4.981758394655852, 
      "latmin": 51.02469084442873
    }, 
    {
      "latmax": 51.00162543983738, 
      "name": "Van Thienwinckelstraat", 
      "lonmin": 4.96260452098871, 
      "sanName": "vanthienwinckelstraat", 
      "numOfAddr": 23, 
      "lonmax": 4.972013665843605, 
      "latmin": 50.99559712930298
    }, 
    {
      "latmax": 50.99988838049645, 
      "name": "Veststraat", 
      "lonmin": 4.979685969707072, 
      "sanName": "veststraat", 
      "numOfAddr": 122, 
      "lonmax": 4.990002722498347, 
      "latmin": 50.997471436593536
    }, 
    {
      "latmax": 50.98815677467855, 
      "name": "Vinkenberg", 
      "lonmin": 5.001573165964787, 
      "sanName": "vinkenberg", 
      "numOfAddr": 15, 
      "lonmax": 5.0109415578490895, 
      "latmin": 50.98251704185061
    }, 
    {
      "latmax": 51.03483933286579, 
      "name": "Vorststraat", 
      "lonmin": 4.992273737309593, 
      "sanName": "vorststraat", 
      "numOfAddr": 148, 
      "lonmax": 5.010614316685357, 
      "latmin": 51.01661829618981
    }, 
    {
      "latmax": 50.99400243800296, 
      "name": "Vossekotstraat", 
      "lonmin": 4.949206744594198, 
      "sanName": "vossekotstraat", 
      "numOfAddr": 116, 
      "lonmax": 4.972759353900199, 
      "latmin": 50.97925387607791
    }, 
    {
      "latmax": 50.98239819321273, 
      "name": "Vosselaar", 
      "lonmin": 4.9468657696954015, 
      "sanName": "vosselaar", 
      "numOfAddr": 30, 
      "lonmax": 4.951229628879389, 
      "latmin": 50.979308609700716
    }, 
    {
      "latmax": 50.98108854662041, 
      "name": "Vossenberg", 
      "lonmin": 4.949048937722086, 
      "sanName": "vossenberg", 
      "numOfAddr": 33, 
      "lonmax": 4.952415286579942, 
      "latmin": 50.980022747906965
    }, 
    {
      "latmax": 51.02551877505943, 
      "name": "Weefbergstraat", 
      "lonmin": 4.961110497137679, 
      "sanName": "weefbergstraat", 
      "numOfAddr": 56, 
      "lonmax": 4.970289336107895, 
      "latmin": 51.02264946344343
    }, 
    {
      "latmax": 51.00044072509115, 
      "name": "Weg Messelbroek", 
      "lonmin": 4.943743601032923, 
      "sanName": "wegmesselbroek", 
      "numOfAddr": 144, 
      "lonmax": 4.977942581946613, 
      "latmin": 50.99306887488458
    }, 
    {
      "latmax": 51.03028313371252, 
      "name": "Westelsebaan", 
      "lonmin": 2.306689562140502, 
      "sanName": "westelsebaan", 
      "numOfAddr": 178, 
      "lonmax": 4.9919207609890694, 
      "latmin": 49.293335165093566
    }, 
    {
      "latmax": 50.996581386174924, 
      "name": "Wezelbaan", 
      "lonmin": 4.9544047702359375, 
      "sanName": "wezelbaan", 
      "numOfAddr": 14, 
      "lonmax": 4.958366568953039, 
      "latmin": 50.99555159469233
    }, 
    {
      "latmax": 51.00014515641487, 
      "name": "Wijk\"De Stad\"", 
      "lonmin": 4.98255564430803, 
      "sanName": "wijkdestad", 
      "numOfAddr": 12, 
      "lonmax": 4.984297031591637, 
      "latmin": 50.99918818735393
    }, 
    {
      "latmax": 50.99192558003806, 
      "name": "Wijnputstraat", 
      "lonmin": 4.995631941046463, 
      "sanName": "wijnputstraat", 
      "numOfAddr": 17, 
      "lonmax": 5.002446390676326, 
      "latmin": 50.98294543503539
    }, 
    {
      "latmax": 50.981278790855015, 
      "name": "Wilgenlaan", 
      "lonmin": 4.957448819718705, 
      "sanName": "wilgenlaan", 
      "numOfAddr": 13, 
      "lonmax": 4.958758880197265, 
      "latmin": 50.97985784616493
    }, 
    {
      "latmax": 51.02874628594895, 
      "name": "Zandstraat", 
      "lonmin": 4.976453765082985, 
      "sanName": "zandstraat", 
      "numOfAddr": 89, 
      "lonmax": 4.982882786112669, 
      "latmin": 51.02361073646105
    }, 
    {
      "latmax": 50.98533819993245, 
      "name": "Zichemseweg", 
      "lonmin": 4.978466715319874, 
      "sanName": "zichemseweg", 
      "numOfAddr": 11, 
      "lonmax": 4.982223008682506, 
      "latmin": 50.984662494011445
    }
  ]
}