{
  "streets": [
    {
      "latmax": 51.013630030614934, 
      "name": "Ambachtenlaan", 
      "lonmin": 5.01354006416257, 
      "sanName": "ambachtenlaan", 
      "numOfAddr": 15, 
      "lonmax": 5.01691132800597, 
      "latmin": 51.00957365697695
    }, 
    {
      "latmax": 51.02225526680783, 
      "name": "Asdonkstraat", 
      "lonmin": 5.032626092663874, 
      "sanName": "asdonkstraat", 
      "numOfAddr": 18, 
      "lonmax": 5.053757441972075, 
      "latmin": 51.01008612721276
    }, 
    {
      "latmax": 51.00525905076334, 
      "name": "Beemdenweg", 
      "lonmin": 5.01017222006925, 
      "sanName": "beemdenweg", 
      "numOfAddr": 4, 
      "lonmax": 5.0111742643119985, 
      "latmin": 51.0047807356294
    }, 
    {
      "latmax": 50.999154667802635, 
      "name": "Blaasberg", 
      "lonmin": 5.020453599217952, 
      "sanName": "blaasberg", 
      "numOfAddr": 7, 
      "lonmax": 5.0249011207620295, 
      "latmin": 50.99720723813726
    }, 
    {
      "latmax": 51.003486806590814, 
      "name": "Boonhof", 
      "lonmin": 5.010393770116028, 
      "sanName": "boonhof", 
      "numOfAddr": 10, 
      "lonmax": 5.011567396377947, 
      "latmin": 51.002245216670374
    }, 
    {
      "latmax": 51.01129237826922, 
      "name": "Bosmansstraat", 
      "lonmin": 5.017126578720491, 
      "sanName": "bosmansstraat", 
      "numOfAddr": 10, 
      "lonmax": 5.022026235384604, 
      "latmin": 51.009543192726234
    }, 
    {
      "latmax": 50.99800918361222, 
      "name": "Bosstraat", 
      "lonmin": 5.016015891313359, 
      "sanName": "bosstraat", 
      "numOfAddr": 23, 
      "lonmax": 5.020173179758225, 
      "latmin": 50.996237959164404
    }, 
    {
      "latmax": 50.99608325647617, 
      "name": "Boven Molenstede", 
      "lonmin": 5.022853238615033, 
      "sanName": "bovenmolenstede", 
      "numOfAddr": 10, 
      "lonmax": 5.023735274474009, 
      "latmin": 50.99454270599126
    }, 
    {
      "latmax": 51.003095766129825, 
      "name": "Broekstraat", 
      "lonmin": 5.013633515962871, 
      "sanName": "broekstraat", 
      "numOfAddr": 112, 
      "lonmax": 5.032040312758906, 
      "latmin": 50.99548439757719
    }, 
    {
      "latmax": 50.99541746545347, 
      "name": "Bronweg", 
      "lonmin": 5.014981915490269, 
      "sanName": "bronweg", 
      "numOfAddr": 6, 
      "lonmax": 5.020766926452519, 
      "latmin": 50.994158979423865
    }, 
    {
      "latmax": 50.99578271941113, 
      "name": "Calenberg", 
      "lonmin": 5.020643521656616, 
      "sanName": "calenberg", 
      "numOfAddr": 6, 
      "lonmax": 5.0226579182578135, 
      "latmin": 50.99428925372495
    }, 
    {
      "latmax": 51.00798725987661, 
      "name": "Cauwberg", 
      "lonmin": 5.042067042047214, 
      "sanName": "cauwberg", 
      "numOfAddr": 10, 
      "lonmax": 5.044703836903712, 
      "latmin": 51.000572907056046
    }, 
    {
      "latmax": 50.996653157841514, 
      "name": "Crauwelsbos", 
      "lonmin": 5.0237192124955055, 
      "sanName": "crauwelsbos", 
      "numOfAddr": 19, 
      "lonmax": 5.026485547504611, 
      "latmin": 50.994692313662625
    }, 
    {
      "latmax": 51.00703557199682, 
      "name": "Diesterestraat", 
      "lonmin": 5.035944726208669, 
      "sanName": "diesterestraat", 
      "numOfAddr": 68, 
      "lonmax": 5.047494163115307, 
      "latmin": 50.99662318503571
    }, 
    {
      "latmax": 50.996682183767156, 
      "name": "Doornhof", 
      "lonmin": 5.029704302503237, 
      "sanName": "doornhof", 
      "numOfAddr": 6, 
      "lonmax": 5.0308086846952556, 
      "latmin": 50.996019852367255
    }, 
    {
      "latmax": 51.00402427961813, 
      "name": "Dorpsplein", 
      "lonmin": 5.013900131306358, 
      "sanName": "dorpsplein", 
      "numOfAddr": 7, 
      "lonmax": 5.014919508161245, 
      "latmin": 51.0037359202306
    }, 
    {
      "latmax": 51.003557754134015, 
      "name": "Dorpsstraat", 
      "lonmin": 5.01375471969416, 
      "sanName": "dorpsstraat", 
      "numOfAddr": 76, 
      "lonmax": 5.023577985147225, 
      "latmin": 51.00024167212566
    }, 
    {
      "latmax": 51.01221733932941, 
      "name": "Eikelenberg", 
      "lonmin": 5.023850772704265, 
      "sanName": "eikelenberg", 
      "numOfAddr": 36, 
      "lonmax": 5.030127024546929, 
      "latmin": 51.00936930324084
    }, 
    {
      "latmax": 51.013888555911905, 
      "name": "Eilandstraat", 
      "lonmin": 5.009258642442455, 
      "sanName": "eilandstraat", 
      "numOfAddr": 3, 
      "lonmax": 5.011269691392511, 
      "latmin": 51.012955451479115
    }, 
    {
      "latmax": 50.99380433083192, 
      "name": "Fabrieksstraat", 
      "lonmin": 5.035917368723027, 
      "sanName": "fabrieksstraat", 
      "numOfAddr": 25, 
      "lonmax": 5.039705847175401, 
      "latmin": 50.99284388614806
    }, 
    {
      "latmax": 50.99693317003066, 
      "name": "Fort Leopold", 
      "lonmin": 5.051070218190729, 
      "sanName": "fortleopold", 
      "numOfAddr": 6, 
      "lonmax": 5.05356473424426, 
      "latmin": 50.99448769941547
    }, 
    {
      "latmax": 50.99646595901138, 
      "name": "Fort Leopoldlaan", 
      "lonmin": 5.04537858850059, 
      "sanName": "fortleopoldlaan", 
      "numOfAddr": 4, 
      "lonmax": 5.049797365274244, 
      "latmin": 50.994480011467026
    }, 
    {
      "latmax": 51.003440121175785, 
      "name": "Ganzenbeemd", 
      "lonmin": 5.010002387149556, 
      "sanName": "ganzenbeemd", 
      "numOfAddr": 10, 
      "lonmax": 5.010796565148655, 
      "latmin": 51.002654886283636
    }, 
    {
      "latmax": 50.99550664551998, 
      "name": "Grasbos", 
      "lonmin": 5.016220209177017, 
      "sanName": "grasbos", 
      "numOfAddr": 56, 
      "lonmax": 5.029138806107732, 
      "latmin": 50.991913229258046
    }, 
    {
      "latmax": 50.995739373774555, 
      "name": "Groenstraat", 
      "lonmin": 5.042232304773905, 
      "sanName": "groenstraat", 
      "numOfAddr": 13, 
      "lonmax": 5.044182163218862, 
      "latmin": 50.99492709000179
    }, 
    {
      "latmax": 51.019735366941106, 
      "name": "Heide", 
      "lonmin": 5.021431510883359, 
      "sanName": "heide", 
      "numOfAddr": 28, 
      "lonmax": 5.02882522580419, 
      "latmin": 51.01442781763634
    }, 
    {
      "latmax": 50.995118309034225, 
      "name": "Hellestraat", 
      "lonmin": 5.030000697592482, 
      "sanName": "hellestraat", 
      "numOfAddr": 1, 
      "lonmax": 5.030000697592482, 
      "latmin": 50.995118309034225
    }, 
    {
      "latmax": 51.01439061220012, 
      "name": "Herrestraat", 
      "lonmin": 5.009864018511702, 
      "sanName": "herrestraat", 
      "numOfAddr": 26, 
      "lonmax": 5.021888185165755, 
      "latmin": 51.01205880622439
    }, 
    {
      "latmax": 51.00308053853619, 
      "name": "Hoekweg", 
      "lonmin": 5.008014979497093, 
      "sanName": "hoekweg", 
      "numOfAddr": 14, 
      "lonmax": 5.013512048847399, 
      "latmin": 51.000439002282256
    }, 
    {
      "latmax": 50.99808888245551, 
      "name": "Holleweg", 
      "lonmin": 5.033369091793485, 
      "sanName": "holleweg", 
      "numOfAddr": 27, 
      "lonmax": 5.041767945816491, 
      "latmin": 50.99552342960703
    }, 
    {
      "latmax": 51.00371450977482, 
      "name": "Hongarijenstraat", 
      "lonmin": 5.025649274492778, 
      "sanName": "hongarijenstraat", 
      "numOfAddr": 74, 
      "lonmax": 5.029585248720186, 
      "latmin": 51.00073348435924
    }, 
    {
      "latmax": 51.00081760023387, 
      "name": "Jagersberg", 
      "lonmin": 5.025934014166859, 
      "sanName": "jagersberg", 
      "numOfAddr": 17, 
      "lonmax": 5.026930748219994, 
      "latmin": 50.99928360865962
    }, 
    {
      "latmax": 50.999910397978134, 
      "name": "Jagersveld", 
      "lonmin": 5.023612109748789, 
      "sanName": "jagersveld", 
      "numOfAddr": 1, 
      "lonmax": 5.023612109748789, 
      "latmin": 50.999910397978134
    }, 
    {
      "latmax": 51.011506134181886, 
      "name": "Klappijstraat", 
      "lonmin": 5.030191225344344, 
      "sanName": "klappijstraat", 
      "numOfAddr": 87, 
      "lonmax": 5.053823863884845, 
      "latmin": 51.00574843363384
    }, 
    {
      "latmax": 51.002211622380244, 
      "name": "Kruisstraat", 
      "lonmin": 5.026434797914855, 
      "sanName": "kruisstraat", 
      "numOfAddr": 64, 
      "lonmax": 5.039773720182734, 
      "latmin": 50.99667581428261
    }, 
    {
      "latmax": 51.001725354577054, 
      "name": "Langenberg", 
      "lonmin": 5.024244688635733, 
      "sanName": "langenberg", 
      "numOfAddr": 52, 
      "lonmax": 5.030823082750385, 
      "latmin": 50.99867413429734
    }, 
    {
      "latmax": 50.9990259323509, 
      "name": "Lazarijstraat", 
      "lonmin": 5.048257076267316, 
      "sanName": "lazarijstraat", 
      "numOfAddr": 15, 
      "lonmax": 5.052239618407634, 
      "latmin": 50.994370527670256
    }, 
    {
      "latmax": 51.003489598508665, 
      "name": "Leefkern", 
      "lonmin": 5.008663818933619, 
      "sanName": "leefkern", 
      "numOfAddr": 27, 
      "lonmax": 5.010300676406347, 
      "latmin": 51.00188719132855
    }, 
    {
      "latmax": 51.00272555202341, 
      "name": "Liebrechtsveld", 
      "lonmin": 5.042511511628603, 
      "sanName": "liebrechtsveld", 
      "numOfAddr": 9, 
      "lonmax": 5.046369795681487, 
      "latmin": 51.00183511852618
    }, 
    {
      "latmax": 50.99800991207808, 
      "name": "Lintenberg", 
      "lonmin": 5.029828683727486, 
      "sanName": "lintenberg", 
      "numOfAddr": 38, 
      "lonmax": 5.032342598513318, 
      "latmin": 50.99626002196205
    }, 
    {
      "latmax": 51.00210600979137, 
      "name": "Merelstraat", 
      "lonmin": 5.047458559153995, 
      "sanName": "merelstraat", 
      "numOfAddr": 1, 
      "lonmax": 5.047458559153995, 
      "latmin": 51.00210600979137
    }, 
    {
      "latmax": 51.005608548520385, 
      "name": "Molenheuvel", 
      "lonmin": 5.012468668329151, 
      "sanName": "molenheuvel", 
      "numOfAddr": 12, 
      "lonmax": 5.013919684119201, 
      "latmin": 51.004721854753626
    }, 
    {
      "latmax": 51.00695015693821, 
      "name": "Molenweg", 
      "lonmin": 5.013290218328505, 
      "sanName": "molenweg", 
      "numOfAddr": 26, 
      "lonmax": 5.023874962541348, 
      "latmin": 51.00429287985104
    }, 
    {
      "latmax": 51.01358126667026, 
      "name": "Reppelsebaan", 
      "lonmin": 5.006791564103644, 
      "sanName": "reppelsebaan", 
      "numOfAddr": 42, 
      "lonmax": 5.0145421832829875, 
      "latmin": 51.00428700482414
    }, 
    {
      "latmax": 50.994750544939436, 
      "name": "Spoorwegstraat", 
      "lonmin": 5.032825360834123, 
      "sanName": "spoorwegstraat", 
      "numOfAddr": 20, 
      "lonmax": 5.0405746667722635, 
      "latmin": 50.99308334768639
    }, 
    {
      "latmax": 51.01651816644825, 
      "name": "Stalstraat", 
      "lonmin": 5.012768954172466, 
      "sanName": "stalstraat", 
      "numOfAddr": 20, 
      "lonmax": 5.02033613762661, 
      "latmin": 51.014424750462084
    }, 
    {
      "latmax": 51.01619858220686, 
      "name": "Turnhoutsebaan", 
      "lonmin": 5.0204334230476935, 
      "sanName": "turnhoutsebaan", 
      "numOfAddr": 109, 
      "lonmax": 5.043571227808239, 
      "latmin": 50.99361733566153
    }, 
    {
      "latmax": 51.00833625035869, 
      "name": "Vennestraat", 
      "lonmin": 5.043819265625954, 
      "sanName": "vennestraat", 
      "numOfAddr": 8, 
      "lonmax": 5.0522988209593285, 
      "latmin": 51.00609400908946
    }, 
    {
      "latmax": 50.998643869637164, 
      "name": "Vijverstraat", 
      "lonmin": 5.009345462073347, 
      "sanName": "vijverstraat", 
      "numOfAddr": 10, 
      "lonmax": 5.01476373235521, 
      "latmin": 50.996912894527085
    }, 
    {
      "latmax": 51.00412574771863, 
      "name": "Wevinnestraat", 
      "lonmin": 5.003698306278575, 
      "sanName": "wevinnestraat", 
      "numOfAddr": 31, 
      "lonmax": 5.012779037706164, 
      "latmin": 51.00223050157418
    }, 
    {
      "latmax": 51.01959583355816, 
      "name": "Witte Weyerstraat", 
      "lonmin": 5.029163127525863, 
      "sanName": "witteweyerstraat", 
      "numOfAddr": 8, 
      "lonmax": 5.034791203800516, 
      "latmin": 51.013725483205235
    }, 
    {
      "latmax": 51.00494563079361, 
      "name": "Zandstraat", 
      "lonmin": 5.024344734303335, 
      "sanName": "zandstraat", 
      "numOfAddr": 32, 
      "lonmax": 5.027175520997504, 
      "latmin": 51.001975931340574
    }
  ]
}