{
  "streets": [
    {
      "latmax": 50.879255929417496, 
      "name": "Attenrodestraat", 
      "lonmin": 4.926404923581053, 
      "sanName": "attenrodestraat", 
      "numOfAddr": 8, 
      "lonmax": 4.929791127520524, 
      "latmin": 50.87793183360223
    }, 
    {
      "latmax": 50.87639239371779, 
      "name": "Binnenveld", 
      "lonmin": 4.926337460881438, 
      "sanName": "binnenveld", 
      "numOfAddr": 2, 
      "lonmax": 4.926976302875494, 
      "latmin": 50.87624737427523
    }, 
    {
      "latmax": 50.86879513764231, 
      "name": "Butschovestraat", 
      "lonmin": 4.908021108007519, 
      "sanName": "butschovestraat", 
      "numOfAddr": 50, 
      "lonmax": 4.922899890497576, 
      "latmin": 50.859389852565286
    }, 
    {
      "latmax": 50.880002392106604, 
      "name": "Doelaagstraat", 
      "lonmin": 4.9111187832738565, 
      "sanName": "doelaagstraat", 
      "numOfAddr": 47, 
      "lonmax": 4.924673093460939, 
      "latmin": 50.87671806918858
    }, 
    {
      "latmax": 50.86053240994768, 
      "name": "Doemstraat", 
      "lonmin": 4.917952811961346, 
      "sanName": "doemstraat", 
      "numOfAddr": 15, 
      "lonmax": 4.9217531307409805, 
      "latmin": 50.85983301121503
    }, 
    {
      "latmax": 50.85909171029839, 
      "name": "Driespad", 
      "lonmin": 4.927514016894173, 
      "sanName": "driespad", 
      "numOfAddr": 5, 
      "lonmax": 4.928611457041027, 
      "latmin": 50.858749913203695
    }, 
    {
      "latmax": 50.86182860071104, 
      "name": "Halensestraat", 
      "lonmin": 4.932742616779554, 
      "sanName": "halensestraat", 
      "numOfAddr": 14, 
      "lonmax": 4.937988328133091, 
      "latmin": 50.85910918022889
    }, 
    {
      "latmax": 50.86557203854014, 
      "name": "Heinkensbergstraat", 
      "lonmin": 4.92955302349575, 
      "sanName": "heinkensbergstraat", 
      "numOfAddr": 4, 
      "lonmax": 4.932586454395885, 
      "latmin": 50.863822105850645
    }, 
    {
      "latmax": 50.87774122107173, 
      "name": "Heirbaan", 
      "lonmin": 4.910805699158474, 
      "sanName": "heirbaan", 
      "numOfAddr": 14, 
      "lonmax": 4.921747994451521, 
      "latmin": 50.86266598960547
    }, 
    {
      "latmax": 50.88268741750569, 
      "name": "Hoefstraat", 
      "lonmin": 4.912904976766875, 
      "sanName": "hoefstraat", 
      "numOfAddr": 6, 
      "lonmax": 4.922438902289988, 
      "latmin": 50.881214501467916
    }, 
    {
      "latmax": 50.86723882230391, 
      "name": "Hulsbos", 
      "lonmin": 4.920516468980551, 
      "sanName": "hulsbos", 
      "numOfAddr": 12, 
      "lonmax": 4.923778434530445, 
      "latmin": 50.86573692619742
    }, 
    {
      "latmax": 50.87958544517461, 
      "name": "Kwadeplasstraat", 
      "lonmin": 4.9107818970610335, 
      "sanName": "kwadeplasstraat", 
      "numOfAddr": 4, 
      "lonmax": 4.913330139843124, 
      "latmin": 50.87649959663902
    }, 
    {
      "latmax": 50.876836366930505, 
      "name": "Langstraat", 
      "lonmin": 4.911570235191613, 
      "sanName": "langstraat", 
      "numOfAddr": 39, 
      "lonmax": 4.924181448311272, 
      "latmin": 50.86778332251821
    }, 
    {
      "latmax": 50.87836454930248, 
      "name": "Meenselsevoetweg", 
      "lonmin": 4.923680208971734, 
      "sanName": "meenselsevoetweg", 
      "numOfAddr": 2, 
      "lonmax": 4.923986258105263, 
      "latmin": 50.87823403006339
    }, 
    {
      "latmax": 50.87501582903567, 
      "name": "Oosterbaerdstraat", 
      "lonmin": 4.9077260332427555, 
      "sanName": "oosterbaerdstraat", 
      "numOfAddr": 1, 
      "lonmax": 4.9077260332427555, 
      "latmin": 50.87501582903567
    }, 
    {
      "latmax": 50.878575299862526, 
      "name": "Oudebronstraat", 
      "lonmin": 4.917014317406086, 
      "sanName": "oudebronstraat", 
      "numOfAddr": 7, 
      "lonmax": 4.918869686890778, 
      "latmin": 50.87587135699232
    }, 
    {
      "latmax": 50.88357579798576, 
      "name": "Ovenweg", 
      "lonmin": 4.925497731000957, 
      "sanName": "ovenweg", 
      "numOfAddr": 1, 
      "lonmax": 4.925497731000957, 
      "latmin": 50.88357579798576
    }, 
    {
      "latmax": 50.872743414829415, 
      "name": "Peerdsbosweg", 
      "lonmin": 4.913492678474161, 
      "sanName": "peerdsbosweg", 
      "numOfAddr": 2, 
      "lonmax": 4.914641330343595, 
      "latmin": 50.87237901347939
    }, 
    {
      "latmax": 50.85918897604606, 
      "name": "Solveldweg", 
      "lonmin": 4.922526276220751, 
      "sanName": "solveldweg", 
      "numOfAddr": 26, 
      "lonmax": 4.927215871379152, 
      "latmin": 50.857407635247554
    }, 
    {
      "latmax": 50.86347255747792, 
      "name": "Steenbergestraat", 
      "lonmin": 4.92438140445415, 
      "sanName": "steenbergestraat", 
      "numOfAddr": 53, 
      "lonmax": 4.934904174037227, 
      "latmin": 50.85921019116933
    }, 
    {
      "latmax": 50.88255568977973, 
      "name": "Torenstraat", 
      "lonmin": 4.920926567682667, 
      "sanName": "torenstraat", 
      "numOfAddr": 116, 
      "lonmax": 4.9265570154375355, 
      "latmin": 50.85471737756765
    }, 
    {
      "latmax": 50.854804255878506, 
      "name": "Uilekotstraat", 
      "lonmin": 4.918991189481406, 
      "sanName": "uilekotstraat", 
      "numOfAddr": 4, 
      "lonmax": 4.920692167985546, 
      "latmin": 50.8547194586842
    }, 
    {
      "latmax": 50.87965718281146, 
      "name": "Uitweg", 
      "lonmin": 4.922464351415096, 
      "sanName": "uitweg", 
      "numOfAddr": 1, 
      "lonmax": 4.922464351415096, 
      "latmin": 50.87965718281146
    }
  ]
}