{
  "streets": [
    {
      "latmax": 50.926511334537544, 
      "name": "Alsbergweg", 
      "lonmin": 4.888540051421461, 
      "sanName": "alsbergweg", 
      "numOfAddr": 7, 
      "lonmax": 4.891561689750024, 
      "latmin": 50.92411719820459
    }, 
    {
      "latmax": 50.933126223718354, 
      "name": "Armand De Keyzerstraat", 
      "lonmin": 4.914118303381345, 
      "sanName": "armanddekeyzerstraat", 
      "numOfAddr": 7, 
      "lonmax": 4.914748704700358, 
      "latmin": 50.93253131477082
    }, 
    {
      "latmax": 50.955784972061565, 
      "name": "Begijnenbosweg", 
      "lonmin": 4.899594485724367, 
      "sanName": "begijnenbosweg", 
      "numOfAddr": 10, 
      "lonmax": 4.90113403338491, 
      "latmin": 50.953525274627154
    }, 
    {
      "latmax": 50.914115760592814, 
      "name": "Bensbergstraat", 
      "lonmin": 4.849702221310333, 
      "sanName": "bensbergstraat", 
      "numOfAddr": 13, 
      "lonmax": 4.859860174015136, 
      "latmin": 50.911673284602394
    }, 
    {
      "latmax": 50.941714163567305, 
      "name": "Bergstraat", 
      "lonmin": 4.899936954735346, 
      "sanName": "bergstraat", 
      "numOfAddr": 53, 
      "lonmax": 4.904340764168559, 
      "latmin": 50.939883574262524
    }, 
    {
      "latmax": 50.94840684968202, 
      "name": "Bergweideweg", 
      "lonmin": 4.866335467204282, 
      "sanName": "bergweideweg", 
      "numOfAddr": 11, 
      "lonmax": 4.868081541471514, 
      "latmin": 50.946258047626614
    }, 
    {
      "latmax": 50.95768965932845, 
      "name": "Berkendreef", 
      "lonmin": 4.917108283704856, 
      "sanName": "berkendreef", 
      "numOfAddr": 40, 
      "lonmax": 4.927882590549488, 
      "latmin": 50.949585703059384
    }, 
    {
      "latmax": 50.95625904509313, 
      "name": "Beurtstraat", 
      "lonmin": 4.930939341957469, 
      "sanName": "beurtstraat", 
      "numOfAddr": 76, 
      "lonmax": 4.942749931560576, 
      "latmin": 50.940512209921174
    }, 
    {
      "latmax": 50.93632643431995, 
      "name": "Blerebergstraat", 
      "lonmin": 4.908427275684439, 
      "sanName": "blerebergstraat", 
      "numOfAddr": 115, 
      "lonmax": 4.914624964937536, 
      "latmin": 50.923010974998554
    }, 
    {
      "latmax": 50.9339173662451, 
      "name": "Bleukenweg", 
      "lonmin": 4.88518783903165, 
      "sanName": "bleukenweg", 
      "numOfAddr": 24, 
      "lonmax": 4.901615258527435, 
      "latmin": 50.929794045296276
    }, 
    {
      "latmax": 50.95098176347493, 
      "name": "Boekhoutstraat", 
      "lonmin": 4.900206779657174, 
      "sanName": "boekhoutstraat", 
      "numOfAddr": 52, 
      "lonmax": 4.921009107295624, 
      "latmin": 50.94068919960924
    }, 
    {
      "latmax": 50.92722955340087, 
      "name": "Boonveldstraat", 
      "lonmin": 4.9255518778288705, 
      "sanName": "boonveldstraat", 
      "numOfAddr": 5, 
      "lonmax": 4.928752434891151, 
      "latmin": 50.92470506630361
    }, 
    {
      "latmax": 50.921354588933, 
      "name": "Bosveldweg", 
      "lonmin": 4.907671815978773, 
      "sanName": "bosveldweg", 
      "numOfAddr": 7, 
      "lonmax": 4.908658882129476, 
      "latmin": 50.920198422926234
    }, 
    {
      "latmax": 50.94428034566896, 
      "name": "Boterstraat", 
      "lonmin": 4.896694527680407, 
      "sanName": "boterstraat", 
      "numOfAddr": 17, 
      "lonmax": 4.9034309752050795, 
      "latmin": 50.94143781809015
    }, 
    {
      "latmax": 50.8991279338387, 
      "name": "Boterveldstraat", 
      "lonmin": 4.858017359947588, 
      "sanName": "boterveldstraat", 
      "numOfAddr": 2, 
      "lonmax": 4.858138349967774, 
      "latmin": 50.898922038179364
    }, 
    {
      "latmax": 50.906017982867716, 
      "name": "Bremberg", 
      "lonmin": 4.894964089927485, 
      "sanName": "bremberg", 
      "numOfAddr": 4, 
      "lonmax": 4.89690818991504, 
      "latmin": 50.90522161454824
    }, 
    {
      "latmax": 50.911110688515066, 
      "name": "Bremstraat", 
      "lonmin": 4.886609646380324, 
      "sanName": "bremstraat", 
      "numOfAddr": 2, 
      "lonmax": 4.887029491479113, 
      "latmin": 50.91101194975454
    }, 
    {
      "latmax": 50.94030038915619, 
      "name": "Broekstraat", 
      "lonmin": 4.921681376065062, 
      "sanName": "broekstraat", 
      "numOfAddr": 11, 
      "lonmax": 4.924982749412016, 
      "latmin": 50.93471838561165
    }, 
    {
      "latmax": 50.95051015025015, 
      "name": "Buiblokstraat", 
      "lonmin": 4.925020929425075, 
      "sanName": "buiblokstraat", 
      "numOfAddr": 2, 
      "lonmax": 4.925499428812714, 
      "latmin": 50.94993088828391
    }, 
    {
      "latmax": 50.92249366718932, 
      "name": "Dellestraat", 
      "lonmin": 4.886834646255634, 
      "sanName": "dellestraat", 
      "numOfAddr": 1, 
      "lonmax": 4.886834646255634, 
      "latmin": 50.92249366718932
    }, 
    {
      "latmax": 50.950989127915136, 
      "name": "Dennenweg", 
      "lonmin": 4.92816434758036, 
      "sanName": "dennenweg", 
      "numOfAddr": 14, 
      "lonmax": 4.93513250245253, 
      "latmin": 50.947159556234716
    }, 
    {
      "latmax": 50.93768888330415, 
      "name": "Diestsesteenweg", 
      "lonmin": 4.9148125578982595, 
      "sanName": "diestsesteenweg", 
      "numOfAddr": 70, 
      "lonmax": 4.948318469887866, 
      "latmin": 50.9225415241884
    }, 
    {
      "latmax": 50.95672285171221, 
      "name": "Donkstraat", 
      "lonmin": 4.901497537248863, 
      "sanName": "donkstraat", 
      "numOfAddr": 1, 
      "lonmax": 4.901497537248863, 
      "latmin": 50.95672285171221
    }, 
    {
      "latmax": 50.94563712789552, 
      "name": "Dorpsstraat", 
      "lonmin": 4.90427055079175, 
      "sanName": "dorpsstraat", 
      "numOfAddr": 103, 
      "lonmax": 4.920284467716423, 
      "latmin": 50.94101872207843
    }, 
    {
      "latmax": 50.89680373728982, 
      "name": "Driespad", 
      "lonmin": 4.866654888792714, 
      "sanName": "driespad", 
      "numOfAddr": 9, 
      "lonmax": 4.8705867291263285, 
      "latmin": 50.89476655904879
    }, 
    {
      "latmax": 50.92076537110721, 
      "name": "Driesstraat", 
      "lonmin": 4.917594883751976, 
      "sanName": "driesstraat", 
      "numOfAddr": 17, 
      "lonmax": 4.924517163364155, 
      "latmin": 50.91986537556047
    }, 
    {
      "latmax": 50.91039398708659, 
      "name": "Gempstraat", 
      "lonmin": 4.853518403760164, 
      "sanName": "gempstraat", 
      "numOfAddr": 41, 
      "lonmax": 4.863850290433401, 
      "latmin": 50.906751951858276
    }, 
    {
      "latmax": 50.90899740247148, 
      "name": "Glabbeeksesteenweg", 
      "lonmin": 4.883848416887371, 
      "sanName": "glabbeeksesteenweg", 
      "numOfAddr": 82, 
      "lonmax": 4.894079895697818, 
      "latmin": 50.8959063312269
    }, 
    {
      "latmax": 50.92690254772391, 
      "name": "Goethuysweg", 
      "lonmin": 4.8936171588487545, 
      "sanName": "goethuysweg", 
      "numOfAddr": 7, 
      "lonmax": 4.896767367597768, 
      "latmin": 50.92439364135634
    }, 
    {
      "latmax": 50.90694858032634, 
      "name": "Gouden Kruispunt", 
      "lonmin": 2.306689562140502, 
      "sanName": "goudenkruispunt", 
      "numOfAddr": 55, 
      "lonmax": 4.874516804410081, 
      "latmin": 49.293335165093566
    }, 
    {
      "latmax": 50.95997463692052, 
      "name": "Groenweg", 
      "lonmin": 4.922927438304058, 
      "sanName": "groenweg", 
      "numOfAddr": 6, 
      "lonmax": 4.932905058528325, 
      "latmin": 50.958789518346144
    }, 
    {
      "latmax": 50.95795891290702, 
      "name": "Haksbergstraat", 
      "lonmin": 4.90623565611539, 
      "sanName": "haksbergstraat", 
      "numOfAddr": 31, 
      "lonmax": 4.917577547788023, 
      "latmin": 50.950003502086524
    }, 
    {
      "latmax": 50.95666367914683, 
      "name": "Haldertstraat", 
      "lonmin": 4.858150828209523, 
      "sanName": "haldertstraat", 
      "numOfAddr": 256, 
      "lonmax": 4.897311690985803, 
      "latmin": 50.93239788867832
    }, 
    {
      "latmax": 50.91395028915134, 
      "name": "Halensebaan", 
      "lonmin": 4.881106337860958, 
      "sanName": "halensebaan", 
      "numOfAddr": 110, 
      "lonmax": 4.921394447494595, 
      "latmin": 50.90775234051286
    }, 
    {
      "latmax": 50.906959983152284, 
      "name": "Hazelaarsstraat", 
      "lonmin": 4.905250506200292, 
      "sanName": "hazelaarsstraat", 
      "numOfAddr": 3, 
      "lonmax": 4.9063660142570535, 
      "latmin": 50.90681939436114
    }, 
    {
      "latmax": 50.94951685619814, 
      "name": "Hazenpad", 
      "lonmin": 4.903808606705107, 
      "sanName": "hazenpad", 
      "numOfAddr": 18, 
      "lonmax": 4.908225427338485, 
      "latmin": 50.94651280621967
    }, 
    {
      "latmax": 50.93086196746836, 
      "name": "Heidebergstraat", 
      "lonmin": 4.945319994318702, 
      "sanName": "heidebergstraat", 
      "numOfAddr": 2, 
      "lonmax": 4.945467095060649, 
      "latmin": 50.93083787907976
    }, 
    {
      "latmax": 50.93658965286824, 
      "name": "Heikant", 
      "lonmin": 4.851609015167658, 
      "sanName": "heikant", 
      "numOfAddr": 47, 
      "lonmax": 4.8576571860789, 
      "latmin": 50.93259627943983
    }, 
    {
      "latmax": 50.92089169218047, 
      "name": "Heikenstraat", 
      "lonmin": 4.871033881101192, 
      "sanName": "heikenstraat", 
      "numOfAddr": 5, 
      "lonmax": 4.871637432922305, 
      "latmin": 50.91850190654211
    }, 
    {
      "latmax": 50.933185266190875, 
      "name": "Hellekens", 
      "lonmin": 4.917145886054684, 
      "sanName": "hellekens", 
      "numOfAddr": 10, 
      "lonmax": 4.918943700818458, 
      "latmin": 50.932149259832464
    }, 
    {
      "latmax": 50.94232414732964, 
      "name": "Heuvelstraat", 
      "lonmin": 4.909739476623196, 
      "sanName": "heuvelstraat", 
      "numOfAddr": 220, 
      "lonmax": 4.946935927499143, 
      "latmin": 50.93210138837201
    }, 
    {
      "latmax": 50.91004158446639, 
      "name": "Hoekstraat", 
      "lonmin": 4.887733338727078, 
      "sanName": "hoekstraat", 
      "numOfAddr": 5, 
      "lonmax": 4.88818480032304, 
      "latmin": 50.90948756431217
    }, 
    {
      "latmax": 50.938245015666965, 
      "name": "Horenweg", 
      "lonmin": 4.934234876712962, 
      "sanName": "horenweg", 
      "numOfAddr": 31, 
      "lonmax": 4.941018831348975, 
      "latmin": 50.93411398930685
    }, 
    {
      "latmax": 50.94639644567187, 
      "name": "Houwaartsebergweg", 
      "lonmin": 4.864195547869264, 
      "sanName": "houwaartsebergweg", 
      "numOfAddr": 25, 
      "lonmax": 4.87116825962217, 
      "latmin": 50.94036407263616
    }, 
    {
      "latmax": 50.92296874567961, 
      "name": "Houwaartstraat", 
      "lonmin": 4.865583113122864, 
      "sanName": "houwaartstraat", 
      "numOfAddr": 9, 
      "lonmax": 4.869099499460332, 
      "latmin": 50.92121202903162
    }, 
    {
      "latmax": 50.95630581649767, 
      "name": "Kaaskorf", 
      "lonmin": 4.876556931613484, 
      "sanName": "kaaskorf", 
      "numOfAddr": 134, 
      "lonmax": 4.885543190209346, 
      "latmin": 50.94980654221048
    }, 
    {
      "latmax": 50.89985981946615, 
      "name": "Kareelweg", 
      "lonmin": 4.854972898629334, 
      "sanName": "kareelweg", 
      "numOfAddr": 2, 
      "lonmax": 4.855705819793665, 
      "latmin": 50.89888401646222
    }, 
    {
      "latmax": 50.92378937834021, 
      "name": "Kastanjeweg", 
      "lonmin": 4.901952247630736, 
      "sanName": "kastanjeweg", 
      "numOfAddr": 3, 
      "lonmax": 4.904991978569309, 
      "latmin": 50.91860148984969
    }, 
    {
      "latmax": 50.922807445464144, 
      "name": "Kasteeldreef", 
      "lonmin": 4.8455349289578455, 
      "sanName": "kasteeldreef", 
      "numOfAddr": 5, 
      "lonmax": 4.853422625007098, 
      "latmin": 50.91294148495003
    }, 
    {
      "latmax": 50.96170939137847, 
      "name": "Kasteelweg", 
      "lonmin": 4.914379746296085, 
      "sanName": "kasteelweg", 
      "numOfAddr": 3, 
      "lonmax": 4.91630950148131, 
      "latmin": 50.961075987905474
    }, 
    {
      "latmax": 50.928346598205636, 
      "name": "Kautermansweg", 
      "lonmin": 4.922092536872189, 
      "sanName": "kautermansweg", 
      "numOfAddr": 7, 
      "lonmax": 4.924682703363548, 
      "latmin": 50.92758399100003
    }, 
    {
      "latmax": 50.93289167389869, 
      "name": "Keulestraat", 
      "lonmin": 4.897864510462045, 
      "sanName": "keulestraat", 
      "numOfAddr": 86, 
      "lonmax": 4.908870034885991, 
      "latmin": 50.9278551526504
    }, 
    {
      "latmax": 50.917642122628806, 
      "name": "Kiekenbosstraat", 
      "lonmin": 4.890091171705018, 
      "sanName": "kiekenbosstraat", 
      "numOfAddr": 12, 
      "lonmax": 4.894388408720969, 
      "latmin": 50.913137620286925
    }, 
    {
      "latmax": 50.90357236138491, 
      "name": "Kiezegemstraat", 
      "lonmin": 4.877635107425074, 
      "sanName": "kiezegemstraat", 
      "numOfAddr": 32, 
      "lonmax": 4.887311924659756, 
      "latmin": 50.900394530958124
    }, 
    {
      "latmax": 50.918502613985176, 
      "name": "Kleerbeekstraat", 
      "lonmin": 4.868181744795273, 
      "sanName": "kleerbeekstraat", 
      "numOfAddr": 27, 
      "lonmax": 4.876672358429234, 
      "latmin": 50.91690921929389
    }, 
    {
      "latmax": 50.89547124566239, 
      "name": "Kolverendries", 
      "lonmin": 4.882494567148812, 
      "sanName": "kolverendries", 
      "numOfAddr": 3, 
      "lonmax": 4.884817040911363, 
      "latmin": 50.89277350568391
    }, 
    {
      "latmax": 50.92463032603796, 
      "name": "Koningenblok", 
      "lonmin": 4.910458850345114, 
      "sanName": "koningenblok", 
      "numOfAddr": 30, 
      "lonmax": 4.913688278928549, 
      "latmin": 50.92249280919031
    }, 
    {
      "latmax": 50.919037499761366, 
      "name": "Kraasbeekstraat", 
      "lonmin": 4.9070791358321415, 
      "sanName": "kraasbeekstraat", 
      "numOfAddr": 47, 
      "lonmax": 4.908350568261151, 
      "latmin": 50.912988883302624
    }, 
    {
      "latmax": 50.932466345358854, 
      "name": "Kriebekestraat", 
      "lonmin": 4.856016064372464, 
      "sanName": "kriebekestraat", 
      "numOfAddr": 50, 
      "lonmax": 4.860392409973167, 
      "latmin": 50.92613899910756
    }, 
    {
      "latmax": 50.936407502499854, 
      "name": "Kruisstraat", 
      "lonmin": 4.908541627764292, 
      "sanName": "kruisstraat", 
      "numOfAddr": 37, 
      "lonmax": 4.915441838426629, 
      "latmin": 50.9324088004334
    }, 
    {
      "latmax": 50.890283237636794, 
      "name": "Kwadepoort", 
      "lonmin": 4.895361735235732, 
      "sanName": "kwadepoort", 
      "numOfAddr": 1, 
      "lonmax": 4.895361735235732, 
      "latmin": 50.890283237636794
    }, 
    {
      "latmax": 50.92273655423668, 
      "name": "Leuvensesteenweg", 
      "lonmin": 4.851573054538, 
      "sanName": "leuvensesteenweg", 
      "numOfAddr": 266, 
      "lonmax": 4.914303508142024, 
      "latmin": 50.90011093527602
    }, 
    {
      "latmax": 50.94789941215764, 
      "name": "Lindestraat", 
      "lonmin": 4.9117585083649065, 
      "sanName": "lindestraat", 
      "numOfAddr": 14, 
      "lonmax": 4.913693277940448, 
      "latmin": 50.94531523603843
    }, 
    {
      "latmax": 50.90329077463075, 
      "name": "Looikenstraat", 
      "lonmin": 4.873559191001635, 
      "sanName": "looikenstraat", 
      "numOfAddr": 23, 
      "lonmax": 4.876468854602611, 
      "latmin": 50.90129036364917
    }, 
    {
      "latmax": 50.8890645785854, 
      "name": "Lubbeekstraat", 
      "lonmin": 4.8780935221673785, 
      "sanName": "lubbeekstraat", 
      "numOfAddr": 9, 
      "lonmax": 4.878723779125234, 
      "latmin": 50.887019397199474
    }, 
    {
      "latmax": 50.93172237779244, 
      "name": "Luttelkolen", 
      "lonmin": 4.845953635158378, 
      "sanName": "luttelkolen", 
      "numOfAddr": 3, 
      "lonmax": 4.846960917057521, 
      "latmin": 50.93153632595241
    }, 
    {
      "latmax": 50.91440228621752, 
      "name": "Manhofweg", 
      "lonmin": 4.900213000413881, 
      "sanName": "manhofweg", 
      "numOfAddr": 2, 
      "lonmax": 4.90186012121938, 
      "latmin": 50.913064085866495
    }, 
    {
      "latmax": 50.89449010722812, 
      "name": "Meenselbaan", 
      "lonmin": 4.896182507497152, 
      "sanName": "meenselbaan", 
      "numOfAddr": 1, 
      "lonmax": 4.896182507497152, 
      "latmin": 50.89449010722812
    }, 
    {
      "latmax": 50.96011592889348, 
      "name": "Miskruisstraat", 
      "lonmin": 4.933241805589921, 
      "sanName": "miskruisstraat", 
      "numOfAddr": 20, 
      "lonmax": 4.935369286779748, 
      "latmin": 50.957508442692514
    }, 
    {
      "latmax": 50.9364188583649, 
      "name": "Molenstraat", 
      "lonmin": 4.8595909032626885, 
      "sanName": "molenstraat", 
      "numOfAddr": 10, 
      "lonmax": 4.861553935147112, 
      "latmin": 50.93478398486669
    }, 
    {
      "latmax": 50.92436852364606, 
      "name": "Motbroekstraat", 
      "lonmin": 4.865302196961642, 
      "sanName": "motbroekstraat", 
      "numOfAddr": 84, 
      "lonmax": 4.884612519861989, 
      "latmin": 50.92034106641521
    }, 
    {
      "latmax": 50.94063196867655, 
      "name": "Neringestraat", 
      "lonmin": 4.864898755395106, 
      "sanName": "neringestraat", 
      "numOfAddr": 16, 
      "lonmax": 4.874325260537119, 
      "latmin": 50.93590316720596
    }, 
    {
      "latmax": 50.93059731541849, 
      "name": "Optielt", 
      "lonmin": 4.8916374841933, 
      "sanName": "optielt", 
      "numOfAddr": 62, 
      "lonmax": 4.90907013533381, 
      "latmin": 50.92677988863519
    }, 
    {
      "latmax": 50.94778123457331, 
      "name": "Ossebergstraat", 
      "lonmin": 4.940291855965139, 
      "sanName": "ossebergstraat", 
      "numOfAddr": 11, 
      "lonmax": 4.944971440609185, 
      "latmin": 50.94380476297602
    }, 
    {
      "latmax": 50.91729855731252, 
      "name": "Oude Aarschotsebaan", 
      "lonmin": 4.859525199520826, 
      "sanName": "oudeaarschotsebaan", 
      "numOfAddr": 29, 
      "lonmax": 4.867022845746405, 
      "latmin": 50.90664243462991
    }, 
    {
      "latmax": 50.91702257740023, 
      "name": "Oude Diestsebaan", 
      "lonmin": 4.871590810812701, 
      "sanName": "oudediestsebaan", 
      "numOfAddr": 6, 
      "lonmax": 4.874696183401979, 
      "latmin": 50.916139404036215
    }, 
    {
      "latmax": 50.925969056257905, 
      "name": "Oude Leuvensebaan", 
      "lonmin": 4.877296912397408, 
      "sanName": "oudeleuvensebaan", 
      "numOfAddr": 29, 
      "lonmax": 4.911311333547377, 
      "latmin": 50.91754994465262
    }, 
    {
      "latmax": 50.93115993060357, 
      "name": "Oudepastoriestraat", 
      "lonmin": 4.90965789083653, 
      "sanName": "oudepastoriestraat", 
      "numOfAddr": 23, 
      "lonmax": 4.913381279078885, 
      "latmin": 50.93033394858157
    }, 
    {
      "latmax": 50.943546297895324, 
      "name": "Oude Route", 
      "lonmin": 4.910699864721967, 
      "sanName": "ouderoute", 
      "numOfAddr": 6, 
      "lonmax": 4.915734146649442, 
      "latmin": 50.93824907093811
    }, 
    {
      "latmax": 50.905675595542014, 
      "name": "Oude Tiensebaan", 
      "lonmin": 4.867213784526784, 
      "sanName": "oudetiensebaan", 
      "numOfAddr": 95, 
      "lonmax": 4.87620995100536, 
      "latmin": 50.89719327996084
    }, 
    {
      "latmax": 50.89796677143377, 
      "name": "Patrijkstraat", 
      "lonmin": 4.876177558782161, 
      "sanName": "patrijkstraat", 
      "numOfAddr": 3, 
      "lonmax": 4.878514607847129, 
      "latmin": 50.897126722728274
    }, 
    {
      "latmax": 50.89169955273331, 
      "name": "Peerdsweidestraat", 
      "lonmin": 4.878955179450996, 
      "sanName": "peerdsweidestraat", 
      "numOfAddr": 1, 
      "lonmax": 4.878955179450996, 
      "latmin": 50.89169955273331
    }, 
    {
      "latmax": 50.90777150739935, 
      "name": "Perklaan", 
      "lonmin": 4.880315024563325, 
      "sanName": "perklaan", 
      "numOfAddr": 45, 
      "lonmax": 4.8844007068223245, 
      "latmin": 50.9061700478057
    }, 
    {
      "latmax": 50.934564953242614, 
      "name": "Postweg", 
      "lonmin": 4.907595084271499, 
      "sanName": "postweg", 
      "numOfAddr": 3, 
      "lonmax": 4.9081782120670585, 
      "latmin": 50.93447689310419
    }, 
    {
      "latmax": 50.9197056692469, 
      "name": "Puttestraat", 
      "lonmin": 4.905965180170951, 
      "sanName": "puttestraat", 
      "numOfAddr": 20, 
      "lonmax": 4.916803269896269, 
      "latmin": 50.917886869401634
    }, 
    {
      "latmax": 50.94201887840198, 
      "name": "Ralisweg", 
      "lonmin": 4.909260193683186, 
      "sanName": "ralisweg", 
      "numOfAddr": 8, 
      "lonmax": 4.912279395477966, 
      "latmin": 50.936293089976495
    }, 
    {
      "latmax": 50.90467122465072, 
      "name": "Reigersweide", 
      "lonmin": 4.8642686692506585, 
      "sanName": "reigersweide", 
      "numOfAddr": 21, 
      "lonmax": 4.868031779010666, 
      "latmin": 50.897798697506225
    }, 
    {
      "latmax": 50.945591590892064, 
      "name": "Reststraat", 
      "lonmin": 4.919999150090605, 
      "sanName": "reststraat", 
      "numOfAddr": 93, 
      "lonmax": 4.9313275940785335, 
      "latmin": 50.93991741158163
    }, 
    {
      "latmax": 50.93824722810613, 
      "name": "Rijsbergstraat", 
      "lonmin": 4.942645409728514, 
      "sanName": "rijsbergstraat", 
      "numOfAddr": 15, 
      "lonmax": 4.9438192743567, 
      "latmin": 50.93647182363591
    }, 
    {
      "latmax": 50.9562523909316, 
      "name": "Rillaarseweg", 
      "lonmin": 4.897270432600144, 
      "sanName": "rillaarseweg", 
      "numOfAddr": 152, 
      "lonmax": 4.909302146955387, 
      "latmin": 50.93657370984035
    }, 
    {
      "latmax": 50.92242216964414, 
      "name": "Roeselberg", 
      "lonmin": 4.856022376180884, 
      "sanName": "roeselberg", 
      "numOfAddr": 38, 
      "lonmax": 4.864994118952838, 
      "latmin": 50.92040026191048
    }, 
    {
      "latmax": 50.94733496385319, 
      "name": "Sint-Annastraat", 
      "lonmin": 4.88854309841666, 
      "sanName": "sintannastraat", 
      "numOfAddr": 53, 
      "lonmax": 4.907160386832451, 
      "latmin": 50.93747642626575
    }, 
    {
      "latmax": 50.93952718659695, 
      "name": "Sint-Barbarastraat", 
      "lonmin": 4.902081662151037, 
      "sanName": "sintbarbarastraat", 
      "numOfAddr": 14, 
      "lonmax": 4.902786657333528, 
      "latmin": 50.93796476091215
    }, 
    {
      "latmax": 50.90648884952395, 
      "name": "Sint-Jorisveld", 
      "lonmin": 4.8732164139287555, 
      "sanName": "sintjorisveld", 
      "numOfAddr": 101, 
      "lonmax": 4.87688872610359, 
      "latmin": 50.903062101958646
    }, 
    {
      "latmax": 50.94420290519252, 
      "name": "Sluiweg", 
      "lonmin": 4.8865620546212405, 
      "sanName": "sluiweg", 
      "numOfAddr": 2, 
      "lonmax": 4.8914397815289234, 
      "latmin": 50.943382929301904
    }, 
    {
      "latmax": 50.95216922015773, 
      "name": "Solleweg", 
      "lonmin": 4.884741623466893, 
      "sanName": "solleweg", 
      "numOfAddr": 5, 
      "lonmax": 4.888911933098219, 
      "latmin": 50.94928388057901
    }, 
    {
      "latmax": 50.94020903765485, 
      "name": "Solveldstraat", 
      "lonmin": 4.905043474298219, 
      "sanName": "solveldstraat", 
      "numOfAddr": 11, 
      "lonmax": 4.907977117976069, 
      "latmin": 50.93984151537205
    }, 
    {
      "latmax": 50.92243843948572, 
      "name": "Statiestraat", 
      "lonmin": 4.915678922723688, 
      "sanName": "statiestraat", 
      "numOfAddr": 52, 
      "lonmax": 4.9202439656848185, 
      "latmin": 50.90893062263824
    }, 
    {
      "latmax": 50.90859322862145, 
      "name": "Steenheuvelstraat", 
      "lonmin": 4.88725801911898, 
      "sanName": "steenheuvelstraat", 
      "numOfAddr": 10, 
      "lonmax": 4.8885823980143055, 
      "latmin": 50.9073050032755
    }, 
    {
      "latmax": 50.943611535662775, 
      "name": "Stekstraat", 
      "lonmin": 4.9045768657558035, 
      "sanName": "stekstraat", 
      "numOfAddr": 25, 
      "lonmax": 4.908458795115932, 
      "latmin": 50.942832826006956
    }, 
    {
      "latmax": 50.93449630196544, 
      "name": "Stenenhuisstraat", 
      "lonmin": 4.927715318274638, 
      "sanName": "stenenhuisstraat", 
      "numOfAddr": 15, 
      "lonmax": 4.929968490909474, 
      "latmin": 50.93306975603814
    }, 
    {
      "latmax": 50.934179766085975, 
      "name": "Stevensstraat", 
      "lonmin": 4.926472574452718, 
      "sanName": "stevensstraat", 
      "numOfAddr": 15, 
      "lonmax": 4.928668399297742, 
      "latmin": 50.92915044202885
    }, 
    {
      "latmax": 50.92136896900436, 
      "name": "Stokskesstraat", 
      "lonmin": 4.855955661131153, 
      "sanName": "stokskesstraat", 
      "numOfAddr": 34, 
      "lonmax": 4.862136580032158, 
      "latmin": 50.91673329866241
    }, 
    {
      "latmax": 50.93225184765535, 
      "name": "Streekweg", 
      "lonmin": 4.85200988038288, 
      "sanName": "streekweg", 
      "numOfAddr": 5, 
      "lonmax": 4.857163193682609, 
      "latmin": 50.93039644584036
    }, 
    {
      "latmax": 50.91435163309986, 
      "name": "Tieltsestraat", 
      "lonmin": 4.900222238067565, 
      "sanName": "tieltsestraat", 
      "numOfAddr": 7, 
      "lonmax": 4.906169013621967, 
      "latmin": 50.90897634423073
    }, 
    {
      "latmax": 50.95490475575176, 
      "name": "Tienbundersweg", 
      "lonmin": 4.887704682567551, 
      "sanName": "tienbundersweg", 
      "numOfAddr": 13, 
      "lonmax": 4.891568740961167, 
      "latmin": 50.950807477933715
    }, 
    {
      "latmax": 50.907595460200326, 
      "name": "Tiensesteenweg", 
      "lonmin": 4.8764420442462395, 
      "sanName": "tiensesteenweg", 
      "numOfAddr": 78, 
      "lonmax": 4.8797873525752715, 
      "latmin": 50.88630511942915
    }, 
    {
      "latmax": 50.94181319971213, 
      "name": "Tombergstraat", 
      "lonmin": 4.945403488989587, 
      "sanName": "tombergstraat", 
      "numOfAddr": 25, 
      "lonmax": 4.947907804484579, 
      "latmin": 50.9376443657933
    }, 
    {
      "latmax": 50.90380912661425, 
      "name": "Tweevijverstraat", 
      "lonmin": 4.858041228552515, 
      "sanName": "tweevijverstraat", 
      "numOfAddr": 13, 
      "lonmax": 4.858848724198521, 
      "latmin": 50.90144911438636
    }, 
    {
      "latmax": 50.9338382122048, 
      "name": "Vinnestraat", 
      "lonmin": 4.851189869205676, 
      "sanName": "vinnestraat", 
      "numOfAddr": 1, 
      "lonmax": 4.851189869205676, 
      "latmin": 50.9338382122048
    }, 
    {
      "latmax": 50.91337857959536, 
      "name": "Vlaaistraat", 
      "lonmin": 4.887394561905579, 
      "sanName": "vlaaistraat", 
      "numOfAddr": 3, 
      "lonmax": 4.8883812044973265, 
      "latmin": 50.91226876645529
    }, 
    {
      "latmax": 50.932704378601926, 
      "name": "Vlooibergstraat", 
      "lonmin": 4.920078235931019, 
      "sanName": "vlooibergstraat", 
      "numOfAddr": 15, 
      "lonmax": 4.927834052802012, 
      "latmin": 50.92745361885507
    }, 
    {
      "latmax": 50.94013703838044, 
      "name": "Voortstraat", 
      "lonmin": 4.9311706570837135, 
      "sanName": "voortstraat", 
      "numOfAddr": 27, 
      "lonmax": 4.933246975018879, 
      "latmin": 50.936848389758175
    }, 
    {
      "latmax": 50.93744116436458, 
      "name": "Walenbosstraat", 
      "lonmin": 4.892966174420292, 
      "sanName": "walenbosstraat", 
      "numOfAddr": 14, 
      "lonmax": 4.900421256672048, 
      "latmin": 50.9367453976268
    }, 
    {
      "latmax": 50.93732018827321, 
      "name": "Waterhofstraat", 
      "lonmin": 4.902831666591224, 
      "sanName": "waterhofstraat", 
      "numOfAddr": 2, 
      "lonmax": 4.9035764831027535, 
      "latmin": 50.9350041547653
    }, 
    {
      "latmax": 50.953335712189705, 
      "name": "Wijngaardstraat", 
      "lonmin": 4.853319760135125, 
      "sanName": "wijngaardstraat", 
      "numOfAddr": 60, 
      "lonmax": 4.8857243358565166, 
      "latmin": 50.94170348775241
    }, 
    {
      "latmax": 50.935244834455375, 
      "name": "Windmolenweg", 
      "lonmin": 4.938952490853952, 
      "sanName": "windmolenweg", 
      "numOfAddr": 1, 
      "lonmax": 4.938952490853952, 
      "latmin": 50.935244834455375
    }, 
    {
      "latmax": 50.92127926404074, 
      "name": "Wingerstraat", 
      "lonmin": 4.875336083975318, 
      "sanName": "wingerstraat", 
      "numOfAddr": 77, 
      "lonmax": 4.879026581146496, 
      "latmin": 50.90853931548445
    }, 
    {
      "latmax": 50.9031531620707, 
      "name": "Wingeveld", 
      "lonmin": 4.870796606649094, 
      "sanName": "wingeveld", 
      "numOfAddr": 74, 
      "lonmax": 4.874445396077013, 
      "latmin": 50.9014343905347
    }, 
    {
      "latmax": 50.955716068294585, 
      "name": "Zandstraat", 
      "lonmin": 4.9211508544744555, 
      "sanName": "zandstraat", 
      "numOfAddr": 27, 
      "lonmax": 4.936496472677943, 
      "latmin": 50.94556003731052
    }, 
    {
      "latmax": 50.939444578150685, 
      "name": "Zonnedrieslaan", 
      "lonmin": 4.903521424923552, 
      "sanName": "zonnedrieslaan", 
      "numOfAddr": 23, 
      "lonmax": 4.904134941193757, 
      "latmin": 50.93856555876846
    }
  ]
}