{
  "streets": [
    {
      "latmax": 50.91193624690785, 
      "name": "Dellestraat", 
      "lonmin": 4.92336345584044, 
      "sanName": "dellestraat", 
      "numOfAddr": 5, 
      "lonmax": 4.924975576469537, 
      "latmin": 50.91101219448296
    }, 
    {
      "latmax": 50.926934748993325, 
      "name": "Driesstraat", 
      "lonmin": 4.919681412456555, 
      "sanName": "driesstraat", 
      "numOfAddr": 67, 
      "lonmax": 4.949320854333147, 
      "latmin": 50.919607385914354
    }, 
    {
      "latmax": 50.92615982985554, 
      "name": "Groenstraat", 
      "lonmin": 4.935086884893457, 
      "sanName": "groenstraat", 
      "numOfAddr": 3, 
      "lonmax": 4.935251100146708, 
      "latmin": 50.925612741139666
    }, 
    {
      "latmax": 50.922304858948735, 
      "name": "Halensebaan", 
      "lonmin": 4.919797848503865, 
      "sanName": "halensebaan", 
      "numOfAddr": 117, 
      "lonmax": 4.970317199895086, 
      "latmin": 50.913139092399895
    }, 
    {
      "latmax": 50.92184884565432, 
      "name": "Heiblokstraat", 
      "lonmin": 4.93114576491262, 
      "sanName": "heiblokstraat", 
      "numOfAddr": 14, 
      "lonmax": 4.932889290422883, 
      "latmin": 50.91725976764563
    }, 
    {
      "latmax": 50.9108265764689, 
      "name": "Heuvelstraat", 
      "lonmin": 4.937601570397258, 
      "sanName": "heuvelstraat", 
      "numOfAddr": 23, 
      "lonmax": 4.94280519710208, 
      "latmin": 50.90579404873162
    }, 
    {
      "latmax": 50.92409898150567, 
      "name": "Hoekbosstraat", 
      "lonmin": 4.9290366261035965, 
      "sanName": "hoekbosstraat", 
      "numOfAddr": 11, 
      "lonmax": 4.930670777978015, 
      "latmin": 50.92220956903683
    }, 
    {
      "latmax": 50.90195667959479, 
      "name": "Kerkhovenstraat", 
      "lonmin": 4.954191649749487, 
      "sanName": "kerkhovenstraat", 
      "numOfAddr": 6, 
      "lonmax": 4.956213979605499, 
      "latmin": 50.900712645605
    }, 
    {
      "latmax": 50.919251825629004, 
      "name": "Kerkstraat", 
      "lonmin": 4.9416526415193704, 
      "sanName": "kerkstraat", 
      "numOfAddr": 1, 
      "lonmax": 4.9416526415193704, 
      "latmin": 50.919251825629004
    }, 
    {
      "latmax": 50.92108084166163, 
      "name": "Kiezegemstraat", 
      "lonmin": 4.9608579658890015, 
      "sanName": "kiezegemstraat", 
      "numOfAddr": 6, 
      "lonmax": 4.966609355361754, 
      "latmin": 50.9167872346679
    }, 
    {
      "latmax": 50.90609627464092, 
      "name": "Klauwstraat", 
      "lonmin": 4.948975434266845, 
      "sanName": "klauwstraat", 
      "numOfAddr": 13, 
      "lonmax": 4.954229334919948, 
      "latmin": 50.899850945794284
    }, 
    {
      "latmax": 50.92048377314266, 
      "name": "Land van Belofte", 
      "lonmin": 4.973289694421373, 
      "sanName": "landvanbelofte", 
      "numOfAddr": 2, 
      "lonmax": 4.9739765030588154, 
      "latmin": 50.92013296349884
    }, 
    {
      "latmax": 50.92358245519946, 
      "name": "Leeuwkenstraat", 
      "lonmin": 4.96071311930047, 
      "sanName": "leeuwkenstraat", 
      "numOfAddr": 28, 
      "lonmax": 4.966216767881163, 
      "latmin": 50.92146717477963
    }, 
    {
      "latmax": 50.903567166681256, 
      "name": "Meenselstraat", 
      "lonmin": 4.934506862234692, 
      "sanName": "meenselstraat", 
      "numOfAddr": 29, 
      "lonmax": 4.940409030695281, 
      "latmin": 50.900677115576265
    }, 
    {
      "latmax": 50.92324156258627, 
      "name": "Oude Tiensebaan", 
      "lonmin": 4.953790465518154, 
      "sanName": "oudetiensebaan", 
      "numOfAddr": 6, 
      "lonmax": 4.954936652012375, 
      "latmin": 50.920906817490305
    }, 
    {
      "latmax": 50.915282912628236, 
      "name": "Plasveldstraat", 
      "lonmin": 4.947234275250961, 
      "sanName": "plasveldstraat", 
      "numOfAddr": 11, 
      "lonmax": 4.9494723898982915, 
      "latmin": 50.91434542017114
    }, 
    {
      "latmax": 50.92415839474639, 
      "name": "Processiestraat", 
      "lonmin": 4.966367772217003, 
      "sanName": "processiestraat", 
      "numOfAddr": 20, 
      "lonmax": 4.969094740915227, 
      "latmin": 50.92225004938442
    }, 
    {
      "latmax": 50.920524705036, 
      "name": "Tiensebaan", 
      "lonmin": 4.940375620579123, 
      "sanName": "tiensebaan", 
      "numOfAddr": 101, 
      "lonmax": 4.954535484503884, 
      "latmin": 50.89553564977021
    }, 
    {
      "latmax": 50.924540475434775, 
      "name": "Vandevorstweg", 
      "lonmin": 4.968100908363175, 
      "sanName": "vandevorstweg", 
      "numOfAddr": 6, 
      "lonmax": 4.970814664873249, 
      "latmin": 50.924171044483934
    }, 
    {
      "latmax": 50.91664817539236, 
      "name": "Watermanstraat", 
      "lonmin": 4.919673704315425, 
      "sanName": "watermanstraat", 
      "numOfAddr": 13, 
      "lonmax": 4.919927916130514, 
      "latmin": 50.91437750640142
    }
  ]
}