{
  "streets": [
    {
      "latmax": 50.89079219087724, 
      "name": "Baaistraat", 
      "lonmin": 5.036797537811034, 
      "sanName": "baaistraat", 
      "numOfAddr": 40, 
      "lonmax": 5.046469636979197, 
      "latmin": 50.877849749863174
    }, 
    {
      "latmax": 50.89421655153565, 
      "name": "Bauwelstraat", 
      "lonmin": 5.035880789198587, 
      "sanName": "bauwelstraat", 
      "numOfAddr": 5, 
      "lonmax": 5.036600473171864, 
      "latmin": 50.892250745137105
    }, 
    {
      "latmax": 50.91489539465269, 
      "name": "Borgveld", 
      "lonmin": 5.046308003239755, 
      "sanName": "borgveld", 
      "numOfAddr": 4, 
      "lonmax": 5.052658470783418, 
      "latmin": 50.912524253234714
    }, 
    {
      "latmax": 50.91978301046436, 
      "name": "Diestsestraat", 
      "lonmin": 5.059991280266154, 
      "sanName": "diestsestraat", 
      "numOfAddr": 94, 
      "lonmax": 5.07605907890877, 
      "latmin": 50.90909668742716
    }, 
    {
      "latmax": 50.89187181933872, 
      "name": "Donkelstraat", 
      "lonmin": 5.0222523626697315, 
      "sanName": "donkelstraat", 
      "numOfAddr": 11, 
      "lonmax": 5.03436316070783, 
      "latmin": 50.886507801871566
    }, 
    {
      "latmax": 50.910586935246265, 
      "name": "Dorpsplein", 
      "lonmin": 5.056464431835758, 
      "sanName": "dorpsplein", 
      "numOfAddr": 40, 
      "lonmax": 5.0623040043056795, 
      "latmin": 50.90846133736633
    }, 
    {
      "latmax": 50.87774609608904, 
      "name": "Dorpsstraat", 
      "lonmin": 5.030657362462905, 
      "sanName": "dorpsstraat", 
      "numOfAddr": 121, 
      "lonmax": 5.045499226780986, 
      "latmin": 50.85878004859216
    }, 
    {
      "latmax": 50.91129448574964, 
      "name": "Gelemanstraat", 
      "lonmin": 5.079347044722431, 
      "sanName": "gelemanstraat", 
      "numOfAddr": 12, 
      "lonmax": 5.087942428704019, 
      "latmin": 50.90625775208592
    }, 
    {
      "latmax": 50.91179292868492, 
      "name": "Groenstraat", 
      "lonmin": 5.0455770487292915, 
      "sanName": "groenstraat", 
      "numOfAddr": 15, 
      "lonmax": 5.049319292265237, 
      "latmin": 50.905673357657925
    }, 
    {
      "latmax": 50.86805604513127, 
      "name": "Groothuisstraat", 
      "lonmin": 5.0422584358960725, 
      "sanName": "groothuisstraat", 
      "numOfAddr": 7, 
      "lonmax": 5.044751450799104, 
      "latmin": 50.866980100069085
    }, 
    {
      "latmax": 50.89983578579205, 
      "name": "Heerstraat", 
      "lonmin": 5.0485368314838395, 
      "sanName": "heerstraat", 
      "numOfAddr": 35, 
      "lonmax": 5.056689875940084, 
      "latmin": 50.884441477135944
    }, 
    {
      "latmax": 50.90382562981929, 
      "name": "Heidebosstraat", 
      "lonmin": 5.087821218590931, 
      "sanName": "heidebosstraat", 
      "numOfAddr": 9, 
      "lonmax": 5.089884623731304, 
      "latmin": 50.902489830454236
    }, 
    {
      "latmax": 50.91878119101973, 
      "name": "Heidestraat", 
      "lonmin": 5.075880700325434, 
      "sanName": "heidestraat", 
      "numOfAddr": 58, 
      "lonmax": 5.090629145572895, 
      "latmin": 50.9054297764285
    }, 
    {
      "latmax": 50.85830088867997, 
      "name": "Helstraat", 
      "lonmin": 5.006220424961812, 
      "sanName": "helstraat", 
      "numOfAddr": 2, 
      "lonmax": 5.010145190092846, 
      "latmin": 50.854758830467674
    }, 
    {
      "latmax": 50.908920082214365, 
      "name": "Hoekstraat", 
      "lonmin": 5.055885093664725, 
      "sanName": "hoekstraat", 
      "numOfAddr": 23, 
      "lonmax": 5.059292113846212, 
      "latmin": 50.90712508644044
    }, 
    {
      "latmax": 50.8705886158578, 
      "name": "Kapelstraat", 
      "lonmin": 5.035311230842519, 
      "sanName": "kapelstraat", 
      "numOfAddr": 6, 
      "lonmax": 5.040379442766972, 
      "latmin": 50.85777838732554
    }, 
    {
      "latmax": 50.90872804041955, 
      "name": "Kleinveld", 
      "lonmin": 5.068782986444974, 
      "sanName": "kleinveld", 
      "numOfAddr": 29, 
      "lonmax": 5.070573299421748, 
      "latmin": 50.90732012492404
    }, 
    {
      "latmax": 50.884513903021066, 
      "name": "Kluisdelweg", 
      "lonmin": 5.059001711571499, 
      "sanName": "kluisdelweg", 
      "numOfAddr": 6, 
      "lonmax": 5.062773161889276, 
      "latmin": 50.882059982316946
    }, 
    {
      "latmax": 50.89467073073082, 
      "name": "Koningsstraat", 
      "lonmin": 5.035933691758822, 
      "sanName": "koningsstraat", 
      "numOfAddr": 38, 
      "lonmax": 5.0495137150654426, 
      "latmin": 50.8837857961032
    }, 
    {
      "latmax": 50.917542743034346, 
      "name": "Krawatenstraat_01", 
      "lonmin": 5.030096942144456, 
      "sanName": "krawatenstraat01", 
      "numOfAddr": 164, 
      "lonmax": 5.056362070303084, 
      "latmin": 50.9099977208672
    }, 
    {
      "latmax": 50.915916767640596, 
      "name": "Krawatenstraat_02", 
      "lonmin": 5.032566352507684, 
      "sanName": "krawatenstraat02", 
      "numOfAddr": 1, 
      "lonmax": 5.032566352507684, 
      "latmin": 50.915916767640596
    }, 
    {
      "latmax": 50.87263110697413, 
      "name": "Langstraat", 
      "lonmin": 5.04504143547425, 
      "sanName": "langstraat", 
      "numOfAddr": 1, 
      "lonmax": 5.04504143547425, 
      "latmin": 50.87263110697413
    }, 
    {
      "latmax": 50.919898447813594, 
      "name": "Lapstraat", 
      "lonmin": 5.032305187988963, 
      "sanName": "lapstraat", 
      "numOfAddr": 20, 
      "lonmax": 5.059835459108234, 
      "latmin": 50.91698966059981
    }, 
    {
      "latmax": 50.865484794085546, 
      "name": "Leidriesstraat", 
      "lonmin": 5.031165281104098, 
      "sanName": "leidriesstraat", 
      "numOfAddr": 6, 
      "lonmax": 5.037604836785488, 
      "latmin": 50.862148745761125
    }, 
    {
      "latmax": 50.93106371607646, 
      "name": "Liefkensrode", 
      "lonmin": 5.028277102706467, 
      "sanName": "liefkensrode", 
      "numOfAddr": 18, 
      "lonmax": 5.049954156275285, 
      "latmin": 50.92024435128851
    }, 
    {
      "latmax": 50.86639983336528, 
      "name": "Lindestraat", 
      "lonmin": 5.007803370487053, 
      "sanName": "lindestraat", 
      "numOfAddr": 1, 
      "lonmax": 5.007803370487053, 
      "latmin": 50.86639983336528
    }, 
    {
      "latmax": 50.886029743400655, 
      "name": "Merelnest", 
      "lonmin": 5.057842774097423, 
      "sanName": "merelnest", 
      "numOfAddr": 10, 
      "lonmax": 5.0646241429655685, 
      "latmin": 50.88455081921961
    }, 
    {
      "latmax": 50.90973644156591, 
      "name": "Molenbergstraat", 
      "lonmin": 5.062548806779239, 
      "sanName": "molenbergstraat", 
      "numOfAddr": 32, 
      "lonmax": 5.067702316871002, 
      "latmin": 50.90850903312917
    }, 
    {
      "latmax": 50.908887517231065, 
      "name": "Molenstraat", 
      "lonmin": 5.0661349840412875, 
      "sanName": "molenstraat", 
      "numOfAddr": 1, 
      "lonmax": 5.0661349840412875, 
      "latmin": 50.908887517231065
    }, 
    {
      "latmax": 50.912369001289846, 
      "name": "Mounstraat", 
      "lonmin": 5.06710602535939, 
      "sanName": "mounstraat", 
      "numOfAddr": 32, 
      "lonmax": 5.068570915683058, 
      "latmin": 50.90732290919011
    }, 
    {
      "latmax": 50.89016359102758, 
      "name": "Nachtegaalstraat", 
      "lonmin": 5.053944338579946, 
      "sanName": "nachtegaalstraat", 
      "numOfAddr": 7, 
      "lonmax": 5.059164089653527, 
      "latmin": 50.88935250111771
    }, 
    {
      "latmax": 50.85558104029022, 
      "name": "Neerlintersesteenweg", 
      "lonmin": 5.004930068405736, 
      "sanName": "neerlintersesteenweg", 
      "numOfAddr": 2, 
      "lonmax": 5.011461497431334, 
      "latmin": 50.85245559300022
    }, 
    {
      "latmax": 50.90768342322907, 
      "name": "Oude Schansstraat", 
      "lonmin": 5.0640915251630805, 
      "sanName": "oudeschansstraat", 
      "numOfAddr": 16, 
      "lonmax": 5.072860209229985, 
      "latmin": 50.90619024537112
    }, 
    {
      "latmax": 50.87645816647003, 
      "name": "Oudestraat", 
      "lonmin": 5.040663483096278, 
      "sanName": "oudestraat", 
      "numOfAddr": 9, 
      "lonmax": 5.04426081830468, 
      "latmin": 50.867611374299614
    }, 
    {
      "latmax": 50.89451135494657, 
      "name": "Paenhuysweg", 
      "lonmin": 5.062208823398698, 
      "sanName": "paenhuysweg", 
      "numOfAddr": 4, 
      "lonmax": 5.064700458114845, 
      "latmin": 50.89343291705669
    }, 
    {
      "latmax": 50.88315503653723, 
      "name": "Plugestraat", 
      "lonmin": 5.040833341970953, 
      "sanName": "plugestraat", 
      "numOfAddr": 14, 
      "lonmax": 5.0439551299738525, 
      "latmin": 50.87918006258707
    }, 
    {
      "latmax": 50.84779818790928, 
      "name": "Putstraat", 
      "lonmin": 4.998757593077286, 
      "sanName": "putstraat", 
      "numOfAddr": 1, 
      "lonmax": 4.998757593077286, 
      "latmin": 50.84779818790928
    }, 
    {
      "latmax": 50.88319287355494, 
      "name": "Rectorijstraat", 
      "lonmin": 5.030417719061106, 
      "sanName": "rectorijstraat", 
      "numOfAddr": 24, 
      "lonmax": 5.03843026103687, 
      "latmin": 50.875322527409786
    }, 
    {
      "latmax": 50.91730311348075, 
      "name": "Rigelstraat", 
      "lonmin": 5.072831514888479, 
      "sanName": "rigelstraat", 
      "numOfAddr": 21, 
      "lonmax": 5.078848280484018, 
      "latmin": 50.914069827242834
    }, 
    {
      "latmax": 50.893327886407, 
      "name": "Sanestraat", 
      "lonmin": 5.059660509272767, 
      "sanName": "sanestraat", 
      "numOfAddr": 14, 
      "lonmax": 5.066490866502344, 
      "latmin": 50.88667416397583
    }, 
    {
      "latmax": 50.908496503378416, 
      "name": "Schansstraat", 
      "lonmin": 5.063415824420094, 
      "sanName": "schansstraat", 
      "numOfAddr": 120, 
      "lonmax": 5.088339636913622, 
      "latmin": 50.90174311694205
    }, 
    {
      "latmax": 50.908519236594586, 
      "name": "Schoolstraat", 
      "lonmin": 5.060645145281023, 
      "sanName": "schoolstraat", 
      "numOfAddr": 9, 
      "lonmax": 5.062414883507457, 
      "latmin": 50.90730817332498
    }, 
    {
      "latmax": 50.84784541470426, 
      "name": "Stokstraat", 
      "lonmin": 4.996725895451827, 
      "sanName": "stokstraat", 
      "numOfAddr": 1, 
      "lonmax": 4.996725895451827, 
      "latmin": 50.84784541470426
    }, 
    {
      "latmax": 50.889124521215, 
      "name": "Strostraat", 
      "lonmin": 5.022384748287871, 
      "sanName": "strostraat", 
      "numOfAddr": 11, 
      "lonmax": 5.0272563923225295, 
      "latmin": 50.880816367283565
    }, 
    {
      "latmax": 50.91561604548371, 
      "name": "Struikstraat", 
      "lonmin": 5.08008448145625, 
      "sanName": "struikstraat", 
      "numOfAddr": 10, 
      "lonmax": 5.083101235919112, 
      "latmin": 50.9143914434759
    }, 
    {
      "latmax": 50.90875319217825, 
      "name": "Tiensestraat", 
      "lonmin": 5.037968834499221, 
      "sanName": "tiensestraat", 
      "numOfAddr": 62, 
      "lonmax": 5.0601995123321135, 
      "latmin": 50.89253040290787
    }, 
    {
      "latmax": 50.87620562318833, 
      "name": "Tomstraat", 
      "lonmin": 5.040619152230955, 
      "sanName": "tomstraat", 
      "numOfAddr": 1, 
      "lonmax": 5.040619152230955, 
      "latmin": 50.87620562318833
    }, 
    {
      "latmax": 50.85003141603146, 
      "name": "Uilstraat", 
      "lonmin": 4.991976506009292, 
      "sanName": "uilstraat", 
      "numOfAddr": 3, 
      "lonmax": 4.994821261176001, 
      "latmin": 50.84749253599275
    }, 
    {
      "latmax": 50.887523536216605, 
      "name": "Vissestraat", 
      "lonmin": 5.033417398473134, 
      "sanName": "vissestraat", 
      "numOfAddr": 2, 
      "lonmax": 5.033784250209329, 
      "latmin": 50.88726032810772
    }, 
    {
      "latmax": 50.8822542614287, 
      "name": "Welvaartstraat", 
      "lonmin": 5.0355426007718505, 
      "sanName": "welvaartstraat", 
      "numOfAddr": 3, 
      "lonmax": 5.041306581966608, 
      "latmin": 50.8762159753422
    }, 
    {
      "latmax": 50.86313945645876, 
      "name": "Winkelstraat", 
      "lonmin": 5.043841881280443, 
      "sanName": "winkelstraat", 
      "numOfAddr": 12, 
      "lonmax": 5.057341022713053, 
      "latmin": 50.86094443398571
    }, 
    {
      "latmax": 50.868115726948986, 
      "name": "Winkelveldstraat", 
      "lonmin": 5.046437220218865, 
      "sanName": "winkelveldstraat", 
      "numOfAddr": 5, 
      "lonmax": 5.051348868626093, 
      "latmin": 50.86409898532091
    }, 
    {
      "latmax": 50.903476241000675, 
      "name": "Zandrodestraat", 
      "lonmin": 5.060942065190574, 
      "sanName": "zandrodestraat", 
      "numOfAddr": 45, 
      "lonmax": 5.070378224525413, 
      "latmin": 50.89230946453316
    }
  ]
}