{
  "streets": [
    {
      "latmax": 50.87696692937679, 
      "name": "Bosstraat", 
      "lonmin": 5.013983598175896, 
      "sanName": "bosstraat", 
      "numOfAddr": 5, 
      "lonmax": 5.0159699715063795, 
      "latmin": 50.87602491179954
    }, 
    {
      "latmax": 50.85707422849082, 
      "name": "Braamstraat", 
      "lonmin": 4.992011770531894, 
      "sanName": "braamstraat", 
      "numOfAddr": 39, 
      "lonmax": 4.9985767599335285, 
      "latmin": 50.84873876635145
    }, 
    {
      "latmax": 50.86292249270457, 
      "name": "Bredestraat", 
      "lonmin": 4.999334243901143, 
      "sanName": "bredestraat", 
      "numOfAddr": 21, 
      "lonmax": 5.025960304734481, 
      "latmin": 50.84658082851883
    }, 
    {
      "latmax": 50.8715708934911, 
      "name": "Dorpsstraat", 
      "lonmin": 5.030669693988119, 
      "sanName": "dorpsstraat", 
      "numOfAddr": 14, 
      "lonmax": 5.031695060857406, 
      "latmin": 50.86855885790779
    }, 
    {
      "latmax": 50.86707490599308, 
      "name": "Driesstraat", 
      "lonmin": 5.005966539894444, 
      "sanName": "driesstraat", 
      "numOfAddr": 14, 
      "lonmax": 5.008801973314323, 
      "latmin": 50.866367042810054
    }, 
    {
      "latmax": 50.880474698203315, 
      "name": "Gelbergenstraat", 
      "lonmin": 5.014118182679541, 
      "sanName": "gelbergenstraat", 
      "numOfAddr": 31, 
      "lonmax": 5.0306852607618175, 
      "latmin": 50.87164712940239
    }, 
    {
      "latmax": 50.86644469329351, 
      "name": "Grootveldstraat", 
      "lonmin": 4.9845318373170455, 
      "sanName": "grootveldstraat", 
      "numOfAddr": 31, 
      "lonmax": 4.988348070331591, 
      "latmin": 50.86374513350871
    }, 
    {
      "latmax": 50.87666705888586, 
      "name": "Heidebosweg", 
      "lonmin": 5.016436861791049, 
      "sanName": "heidebosweg", 
      "numOfAddr": 8, 
      "lonmax": 5.026285482542181, 
      "latmin": 50.86793420005046
    }, 
    {
      "latmax": 50.859142016981366, 
      "name": "Helstraat", 
      "lonmin": 4.996920073675927, 
      "sanName": "helstraat", 
      "numOfAddr": 44, 
      "lonmax": 5.010120902679924, 
      "latmin": 50.84936788004568
    }, 
    {
      "latmax": 50.86135399055502, 
      "name": "Herrebeekstraat", 
      "lonmin": 4.996929032692404, 
      "sanName": "herrebeekstraat", 
      "numOfAddr": 45, 
      "lonmax": 5.006045943118524, 
      "latmin": 50.85861881449013
    }, 
    {
      "latmax": 50.883696821118555, 
      "name": "Hoeledensebaan", 
      "lonmin": 4.9796686719227745, 
      "sanName": "hoeledensebaan", 
      "numOfAddr": 102, 
      "lonmax": 5.014812143705042, 
      "latmin": 50.863039447412405
    }, 
    {
      "latmax": 50.86907257790794, 
      "name": "Kerkplein", 
      "lonmin": 4.985069843563064, 
      "sanName": "kerkplein", 
      "numOfAddr": 11, 
      "lonmax": 4.986409461357954, 
      "latmin": 50.867788042053746
    }, 
    {
      "latmax": 50.866761781795205, 
      "name": "Lindestraat", 
      "lonmin": 4.994269767440562, 
      "sanName": "lindestraat", 
      "numOfAddr": 74, 
      "lonmax": 5.008746404400634, 
      "latmin": 50.86245228366336
    }, 
    {
      "latmax": 50.86784934861075, 
      "name": "Neerlintersesteenweg", 
      "lonmin": 4.987071489843644, 
      "sanName": "neerlintersesteenweg", 
      "numOfAddr": 87, 
      "lonmax": 5.011224537155217, 
      "latmin": 50.8522126962647
    }, 
    {
      "latmax": 50.87591577082795, 
      "name": "Nieuwstraat", 
      "lonmin": 4.989588703954974, 
      "sanName": "nieuwstraat", 
      "numOfAddr": 1, 
      "lonmax": 4.989588703954974, 
      "latmin": 50.87591577082795
    }, 
    {
      "latmax": 50.857432446908064, 
      "name": "Paddepoel", 
      "lonmin": 4.993998751865741, 
      "sanName": "paddepoel", 
      "numOfAddr": 4, 
      "lonmax": 4.994687805893662, 
      "latmin": 50.85561561405422
    }, 
    {
      "latmax": 50.86522302115142, 
      "name": "Pottelbergstraat", 
      "lonmin": 5.008767667071186, 
      "sanName": "pottelbergstraat", 
      "numOfAddr": 22, 
      "lonmax": 5.014528434189109, 
      "latmin": 50.8579311473888
    }, 
    {
      "latmax": 50.849144968648275, 
      "name": "Putstraat", 
      "lonmin": 4.9973281165342005, 
      "sanName": "putstraat", 
      "numOfAddr": 28, 
      "lonmax": 5.000998349396563, 
      "latmin": 50.847267817362
    }, 
    {
      "latmax": 50.86039029047582, 
      "name": "Ruekebosstraat", 
      "lonmin": 4.987443897854908, 
      "sanName": "ruekebosstraat", 
      "numOfAddr": 21, 
      "lonmax": 4.995917005599399, 
      "latmin": 50.85526689588503
    }, 
    {
      "latmax": 50.848837763224076, 
      "name": "Stokstraat", 
      "lonmin": 4.995896224121828, 
      "sanName": "stokstraat", 
      "numOfAddr": 5, 
      "lonmax": 4.997085233428319, 
      "latmin": 50.84738103929862
    }, 
    {
      "latmax": 50.850081348091116, 
      "name": "Uilstraat", 
      "lonmin": 4.98953002849532, 
      "sanName": "uilstraat", 
      "numOfAddr": 55, 
      "lonmax": 4.996599458691433, 
      "latmin": 50.845788955843716
    }, 
    {
      "latmax": 50.8760903345277, 
      "name": "Vaanstraat", 
      "lonmin": 5.006050080912544, 
      "sanName": "vaanstraat", 
      "numOfAddr": 39, 
      "lonmax": 5.012191779053939, 
      "latmin": 50.867138650664536
    }, 
    {
      "latmax": 50.864847506937515, 
      "name": "Zandbergstraat", 
      "lonmin": 4.983035719119378, 
      "sanName": "zandbergstraat", 
      "numOfAddr": 9, 
      "lonmax": 4.98414591842125, 
      "latmin": 50.86385574863195
    }, 
    {
      "latmax": 50.86984721954335, 
      "name": "Zandstraat", 
      "lonmin": 5.008907433171549, 
      "sanName": "zandstraat", 
      "numOfAddr": 27, 
      "lonmax": 5.018221362657884, 
      "latmin": 50.86682486510413
    }, 
    {
      "latmax": 50.86814801751189, 
      "name": "Zuurbemdesteenweg", 
      "lonmin": 4.981657036838886, 
      "sanName": "zuurbemdesteenweg", 
      "numOfAddr": 19, 
      "lonmax": 4.984354950597619, 
      "latmin": 50.86664599879828
    }
  ]
}