{
  "streets": [
    {
      "latmax": 50.917142501494, 
      "name": "Blijstraat", 
      "lonmin": 5.011539094746901, 
      "sanName": "blijstraat", 
      "numOfAddr": 92, 
      "lonmax": 5.02920124141556, 
      "latmin": 50.91394851073983
    }, 
    {
      "latmax": 50.910598443901485, 
      "name": "Borgelke", 
      "lonmin": 5.010332966887292, 
      "sanName": "borgelke", 
      "numOfAddr": 10, 
      "lonmax": 5.01215591548153, 
      "latmin": 50.90998012024063
    }, 
    {
      "latmax": 50.91748750572639, 
      "name": "Boterbergstraat", 
      "lonmin": 4.990751610123563, 
      "sanName": "boterbergstraat", 
      "numOfAddr": 68, 
      "lonmax": 5.003030094490435, 
      "latmin": 50.91599890877465
    }, 
    {
      "latmax": 50.91668817210429, 
      "name": "Dorp", 
      "lonmin": 5.003833556277296, 
      "sanName": "dorp", 
      "numOfAddr": 17, 
      "lonmax": 5.005201619247242, 
      "latmin": 50.91471198804589
    }, 
    {
      "latmax": 50.9163233650141, 
      "name": "Eindestraat", 
      "lonmin": 4.978099811631182, 
      "sanName": "eindestraat", 
      "numOfAddr": 13, 
      "lonmax": 4.980523534612947, 
      "latmin": 50.91545445441532
    }, 
    {
      "latmax": 50.92764580434939, 
      "name": "Gravenbos", 
      "lonmin": 4.998915439085721, 
      "sanName": "gravenbos", 
      "numOfAddr": 4, 
      "lonmax": 5.003142339704733, 
      "latmin": 50.924167494455666
    }, 
    {
      "latmax": 50.914789780446604, 
      "name": "Grote Vreunte", 
      "lonmin": 5.001476297602902, 
      "sanName": "grotevreunte", 
      "numOfAddr": 65, 
      "lonmax": 5.011252900103171, 
      "latmin": 50.910752981646475
    }, 
    {
      "latmax": 50.92588516080718, 
      "name": "Halensebaan", 
      "lonmin": 4.980782000223003, 
      "sanName": "halensebaan", 
      "numOfAddr": 113, 
      "lonmax": 5.020050272060292, 
      "latmin": 50.915152375107176
    }, 
    {
      "latmax": 50.9137909134265, 
      "name": "Hemelrijkstraat", 
      "lonmin": 5.010924754372875, 
      "sanName": "hemelrijkstraat", 
      "numOfAddr": 47, 
      "lonmax": 5.017799663533747, 
      "latmin": 50.907046461212815
    }, 
    {
      "latmax": 50.90713759811704, 
      "name": "Ingeveld", 
      "lonmin": 5.0034562662788815, 
      "sanName": "ingeveld", 
      "numOfAddr": 9, 
      "lonmax": 5.004730447824578, 
      "latmin": 50.90659566578839
    }, 
    {
      "latmax": 50.92270141390822, 
      "name": "Klein Kempenseweg", 
      "lonmin": 4.989680361225461, 
      "sanName": "kleinkempenseweg", 
      "numOfAddr": 14, 
      "lonmax": 4.990737339270367, 
      "latmin": 50.92067732406501
    }, 
    {
      "latmax": 50.91949699733048, 
      "name": "Klipgaardestraat", 
      "lonmin": 4.982616700077319, 
      "sanName": "klipgaardestraat", 
      "numOfAddr": 51, 
      "lonmax": 5.001004611116387, 
      "latmin": 50.91162747983328
    }, 
    {
      "latmax": 50.91217035844036, 
      "name": "Krawatenstraat_01", 
      "lonmin": 5.045009463179641, 
      "sanName": "krawatenstraat01", 
      "numOfAddr": 1, 
      "lonmax": 5.045009463179641, 
      "latmin": 50.91217035844036
    }, 
    {
      "latmax": 50.916968764050395, 
      "name": "Krawatenstraat_02", 
      "lonmin": 5.030392031470763, 
      "sanName": "krawatenstraat02", 
      "numOfAddr": 6, 
      "lonmax": 5.032436518496073, 
      "latmin": 50.91606762995492
    }, 
    {
      "latmax": 50.921232177086715, 
      "name": "Liefkensrode", 
      "lonmin": 5.040812701190822, 
      "sanName": "liefkensrode", 
      "numOfAddr": 1, 
      "lonmax": 5.040812701190822, 
      "latmin": 50.921232177086715
    }, 
    {
      "latmax": 50.92130680429763, 
      "name": "Molenstraat", 
      "lonmin": 5.0078379405064695, 
      "sanName": "molenstraat", 
      "numOfAddr": 38, 
      "lonmax": 5.010954573904055, 
      "latmin": 50.914686520373294
    }, 
    {
      "latmax": 50.924277656073635, 
      "name": "Oude Diestsestraat", 
      "lonmin": 5.0046768744330565, 
      "sanName": "oudediestsestraat", 
      "numOfAddr": 41, 
      "lonmax": 5.009480047713176, 
      "latmin": 50.91735773978662
    }, 
    {
      "latmax": 50.913368345466665, 
      "name": "Oude Tiensestraat", 
      "lonmin": 4.994027935947271, 
      "sanName": "oudetiensestraat", 
      "numOfAddr": 42, 
      "lonmax": 5.002581007957072, 
      "latmin": 50.90364173623042
    }, 
    {
      "latmax": 50.91955589945619, 
      "name": "Overstraat", 
      "lonmin": 5.0051486945295895, 
      "sanName": "overstraat", 
      "numOfAddr": 34, 
      "lonmax": 5.022846411274801, 
      "latmin": 50.91589323484668
    }, 
    {
      "latmax": 50.918309682012264, 
      "name": "Parelstraat", 
      "lonmin": 4.998930775494301, 
      "sanName": "parelstraat", 
      "numOfAddr": 20, 
      "lonmax": 5.001039576781534, 
      "latmin": 50.917086746780534
    }, 
    {
      "latmax": 50.91010631280465, 
      "name": "Plasstraat", 
      "lonmin": 5.012473301757042, 
      "sanName": "plasstraat", 
      "numOfAddr": 4, 
      "lonmax": 5.012746802431921, 
      "latmin": 50.908835929110055
    }, 
    {
      "latmax": 50.91142689347881, 
      "name": "Rattenborgstraat", 
      "lonmin": 5.012971186974049, 
      "sanName": "rattenborgstraat", 
      "numOfAddr": 12, 
      "lonmax": 5.017730329159023, 
      "latmin": 50.910494817144176
    }, 
    {
      "latmax": 50.906653621586734, 
      "name": "Scherpendries", 
      "lonmin": 5.00082470144422, 
      "sanName": "scherpendries", 
      "numOfAddr": 24, 
      "lonmax": 5.005262599476838, 
      "latmin": 50.90549962010009
    }, 
    {
      "latmax": 50.919023698481844, 
      "name": "Schipbroekstraat", 
      "lonmin": 5.025215743334332, 
      "sanName": "schipbroekstraat", 
      "numOfAddr": 5, 
      "lonmax": 5.029620992536641, 
      "latmin": 50.917484924065164
    }, 
    {
      "latmax": 50.919033670387996, 
      "name": "St. Annaveld", 
      "lonmin": 5.006523097728325, 
      "sanName": "stannaveld", 
      "numOfAddr": 13, 
      "lonmax": 5.007271907570466, 
      "latmin": 50.91668476487365
    }, 
    {
      "latmax": 50.91787878750542, 
      "name": "Steenbergstraat", 
      "lonmin": 4.997581357487243, 
      "sanName": "steenbergstraat", 
      "numOfAddr": 11, 
      "lonmax": 4.99847361361325, 
      "latmin": 50.91702514875081
    }, 
    {
      "latmax": 50.91872786464165, 
      "name": "Tiensesteenweg", 
      "lonmin": 4.973054860342437, 
      "sanName": "tiensesteenweg", 
      "numOfAddr": 27, 
      "lonmax": 4.982563384953855, 
      "latmin": 50.89996054271543
    }, 
    {
      "latmax": 50.92049117822175, 
      "name": "Tolkamerstraat", 
      "lonmin": 4.99128163648892, 
      "sanName": "tolkamerstraat", 
      "numOfAddr": 24, 
      "lonmax": 4.993822217986305, 
      "latmin": 50.917242039913646
    }, 
    {
      "latmax": 50.901896433944756, 
      "name": "Wittebos", 
      "lonmin": 5.0042727052297105, 
      "sanName": "wittebos", 
      "numOfAddr": 1, 
      "lonmax": 5.0042727052297105, 
      "latmin": 50.901896433944756
    }
  ]
}