{
  "streets": [
    {
      "latmax": 50.915871926725124, 
      "name": "Alkenstraat", 
      "lonmin": 5.2498671523120795, 
      "sanName": "alkenstraat", 
      "numOfAddr": 113, 
      "lonmax": 5.2639628103836955, 
      "latmin": 50.9055845604909
    }, 
    {
      "latmax": 50.91448858060164, 
      "name": "Broekstraat", 
      "lonmin": 5.253394203079482, 
      "sanName": "broekstraat", 
      "numOfAddr": 62, 
      "lonmax": 5.266311521545084, 
      "latmin": 50.908146673668
    }, 
    {
      "latmax": 50.91547103546058, 
      "name": "Burchtstraat", 
      "lonmin": 5.248424376604947, 
      "sanName": "burchtstraat", 
      "numOfAddr": 28, 
      "lonmax": 5.2517024470750755, 
      "latmin": 50.91317943500872
    }, 
    {
      "latmax": 50.921640090681706, 
      "name": "Cijnsbroekstraat", 
      "lonmin": 5.232781545808612, 
      "sanName": "cijnsbroekstraat", 
      "numOfAddr": 5, 
      "lonmax": 5.233724992724576, 
      "latmin": 50.9202704788835
    }, 
    {
      "latmax": 50.92367645339547, 
      "name": "Dalkruidstraat", 
      "lonmin": 5.255509492185759, 
      "sanName": "dalkruidstraat", 
      "numOfAddr": 4, 
      "lonmax": 5.255971943789484, 
      "latmin": 50.92346061619226
    }, 
    {
      "latmax": 50.92077810143098, 
      "name": "de Libottonstraat", 
      "lonmin": 5.253093083473797, 
      "sanName": "delibottonstraat", 
      "numOfAddr": 53, 
      "lonmax": 5.258809651218373, 
      "latmin": 50.91912680380278
    }, 
    {
      "latmax": 50.9030159984882, 
      "name": "Egelstraat", 
      "lonmin": 5.23355547174103, 
      "sanName": "egelstraat", 
      "numOfAddr": 44, 
      "lonmax": 5.237481149587169, 
      "latmin": 50.89396369810982
    }, 
    {
      "latmax": 50.92870248361703, 
      "name": "Fikkeplas", 
      "lonmin": 5.237140465955869, 
      "sanName": "fikkeplas", 
      "numOfAddr": 7, 
      "lonmax": 5.241096037304998, 
      "latmin": 50.924547902489095
    }, 
    {
      "latmax": 50.92320506890974, 
      "name": "Flinkstraat", 
      "lonmin": 5.250695550720312, 
      "sanName": "flinkstraat", 
      "numOfAddr": 98, 
      "lonmax": 5.255093468324973, 
      "latmin": 50.92008357499587
    }, 
    {
      "latmax": 50.91934615845345, 
      "name": "Hasseltse dreef", 
      "lonmin": 5.248537091861095, 
      "sanName": "hasseltsedreef", 
      "numOfAddr": 52, 
      "lonmax": 5.26513279161973, 
      "latmin": 50.916697791921564
    }, 
    {
      "latmax": 50.92485026898293, 
      "name": "Herkkantstraat", 
      "lonmin": 5.229899392184767, 
      "sanName": "herkkantstraat", 
      "numOfAddr": 43, 
      "lonmax": 5.247985141245765, 
      "latmin": 50.91950418302573
    }, 
    {
      "latmax": 50.91375510746302, 
      "name": "Hertoginnenhofstraat", 
      "lonmin": 5.248382481994052, 
      "sanName": "hertoginnenhofstraat", 
      "numOfAddr": 17, 
      "lonmax": 5.250483215490726, 
      "latmin": 50.91244937392679
    }, 
    {
      "latmax": 50.92085178448613, 
      "name": "Hofbeemdenstraat", 
      "lonmin": 5.250141737862206, 
      "sanName": "hofbeemdenstraat", 
      "numOfAddr": 9, 
      "lonmax": 5.252847997582629, 
      "latmin": 50.9190461153432
    }, 
    {
      "latmax": 50.91582845962884, 
      "name": "Jannestraat", 
      "lonmin": 5.232378802143759, 
      "sanName": "jannestraat", 
      "numOfAddr": 83, 
      "lonmax": 5.243521774328192, 
      "latmin": 50.90284565318146
    }, 
    {
      "latmax": 50.92479989490455, 
      "name": "Kannaertsstraat", 
      "lonmin": 5.262847407497508, 
      "sanName": "kannaertsstraat", 
      "numOfAddr": 41, 
      "lonmax": 5.271330780033358, 
      "latmin": 50.922090400051054
    }, 
    {
      "latmax": 50.947018683113434, 
      "name": "Kermtstraat", 
      "lonmin": 5.244043499264351, 
      "sanName": "kermtstraat", 
      "numOfAddr": 56, 
      "lonmax": 5.257020244744465, 
      "latmin": 50.92540688274667
    }, 
    {
      "latmax": 50.92218634777595, 
      "name": "Kolmenstraat", 
      "lonmin": 5.226358179283399, 
      "sanName": "kolmenstraat", 
      "numOfAddr": 87, 
      "lonmax": 5.24680578172669, 
      "latmin": 50.91533236004936
    }, 
    {
      "latmax": 50.910326051600165, 
      "name": "Kozenstraat", 
      "lonmin": 5.243889593731784, 
      "sanName": "kozenstraat", 
      "numOfAddr": 72, 
      "lonmax": 5.249800794091563, 
      "latmin": 50.89478305259247
    }, 
    {
      "latmax": 50.912704781472115, 
      "name": "Lindestraat", 
      "lonmin": 5.251166922586624, 
      "sanName": "lindestraat", 
      "numOfAddr": 67, 
      "lonmax": 5.256319352014251, 
      "latmin": 50.903553974515475
    }, 
    {
      "latmax": 50.90037430855125, 
      "name": "Nitsemstraat", 
      "lonmin": 5.24041397384334, 
      "sanName": "nitsemstraat", 
      "numOfAddr": 7, 
      "lonmax": 5.2434932712625, 
      "latmin": 50.89692556456733
    }, 
    {
      "latmax": 50.915111653066425, 
      "name": "Oppenstraat", 
      "lonmin": 2.306689562140502, 
      "sanName": "oppenstraat", 
      "numOfAddr": 108, 
      "lonmax": 5.247987890168914, 
      "latmin": 49.293335165093566
    }, 
    {
      "latmax": 50.916848855919184, 
      "name": "Oude Molenstraat", 
      "lonmin": 5.237227586243803, 
      "sanName": "oudemolenstraat", 
      "numOfAddr": 6, 
      "lonmax": 5.239465876122066, 
      "latmin": 50.91413542665588
    }, 
    {
      "latmax": 50.91312870189715, 
      "name": "Pater Raskinstraat", 
      "lonmin": 5.247039355831529, 
      "sanName": "paterraskinstraat", 
      "numOfAddr": 22, 
      "lonmax": 5.251144619805886, 
      "latmin": 50.91147895262283
    }, 
    {
      "latmax": 50.92717530518529, 
      "name": "Regenakkerstraat", 
      "lonmin": 5.231964562574853, 
      "sanName": "regenakkerstraat", 
      "numOfAddr": 7, 
      "lonmax": 5.23392364885663, 
      "latmin": 50.92606052658106
    }, 
    {
      "latmax": 50.914037240716254, 
      "name": "Schouwburghofstraat", 
      "lonmin": 5.247302869435586, 
      "sanName": "schouwburghofstraat", 
      "numOfAddr": 17, 
      "lonmax": 5.2495332229001805, 
      "latmin": 50.9126800995113
    }, 
    {
      "latmax": 50.91736776860412, 
      "name": "Sint-Maartenplein", 
      "lonmin": 5.246609575295921, 
      "sanName": "sintmaartenplein", 
      "numOfAddr": 50, 
      "lonmax": 5.250410474723825, 
      "latmin": 50.91522570706185
    }, 
    {
      "latmax": 50.92405760839249, 
      "name": "Sleutelbloemstraat", 
      "lonmin": 5.254629624475197, 
      "sanName": "sleutelbloemstraat", 
      "numOfAddr": 8, 
      "lonmax": 5.255512006364739, 
      "latmin": 50.92355633871184
    }, 
    {
      "latmax": 50.922348922904305, 
      "name": "Sterrebos", 
      "lonmin": 5.257658853470472, 
      "sanName": "sterrebos", 
      "numOfAddr": 88, 
      "lonmax": 5.26587059875978, 
      "latmin": 50.91853893159711
    }, 
    {
      "latmax": 50.92781194868627, 
      "name": "Stevoortse kiezel", 
      "lonmin": 5.244798416243726, 
      "sanName": "stevoortsekiezel", 
      "numOfAddr": 171, 
      "lonmax": 5.2744239173190355, 
      "latmin": 50.916381520618266
    }, 
    {
      "latmax": 50.9242846595824, 
      "name": "Valeriaanstraat", 
      "lonmin": 5.25358428529579, 
      "sanName": "valeriaanstraat", 
      "numOfAddr": 62, 
      "lonmax": 5.25748452168774, 
      "latmin": 50.922615976710986
    }
  ]
}