{
  "streets": [
    {
      "latmax": 51.04637630847846, 
      "name": "Adelardstraat", 
      "lonmin": 5.234634613636397, 
      "sanName": "adelardstraat", 
      "numOfAddr": 37, 
      "lonmax": 5.237803736176443, 
      "latmin": 51.04552912719168
    }, 
    {
      "latmax": 51.05062625048731, 
      "name": "August Cuppensstraat", 
      "lonmin": 5.220205286420048, 
      "sanName": "augustcuppensstraat", 
      "numOfAddr": 14, 
      "lonmax": 5.2231816998147425, 
      "latmin": 51.050061085377905
    }, 
    {
      "latmax": 51.04552171394046, 
      "name": "Beekstraat", 
      "lonmin": 5.205773994828645, 
      "sanName": "beekstraat", 
      "numOfAddr": 8, 
      "lonmax": 5.210511265211043, 
      "latmin": 51.04392451022117
    }, 
    {
      "latmax": 51.046982960025225, 
      "name": "Bergske", 
      "lonmin": 5.2152915969941605, 
      "sanName": "bergske", 
      "numOfAddr": 15, 
      "lonmax": 5.216005151296834, 
      "latmin": 51.04565169274744
    }, 
    {
      "latmax": 51.06905592010222, 
      "name": "Beverlosesteenweg", 
      "lonmin": 5.187858261496842, 
      "sanName": "beverlosesteenweg", 
      "numOfAddr": 17, 
      "lonmax": 5.208651539593788, 
      "latmin": 51.047955885154664
    }, 
    {
      "latmax": 51.04859437766416, 
      "name": "Biekorfstraat", 
      "lonmin": 5.2287444626709885, 
      "sanName": "biekorfstraat", 
      "numOfAddr": 2, 
      "lonmax": 5.228931788605742, 
      "latmin": 51.04845097377099
    }, 
    {
      "latmax": 51.049663469026896, 
      "name": "Blijkstraat", 
      "lonmin": 5.221369454197047, 
      "sanName": "blijkstraat", 
      "numOfAddr": 16, 
      "lonmax": 5.222597662640692, 
      "latmin": 51.0487694061678
    }, 
    {
      "latmax": 51.0391788381205, 
      "name": "Boerenhofstraat", 
      "lonmin": 5.2279126865898204, 
      "sanName": "boerenhofstraat", 
      "numOfAddr": 4, 
      "lonmax": 5.229033325517479, 
      "latmin": 51.03859744870094
    }, 
    {
      "latmax": 51.051571448699626, 
      "name": "Bogaarsveldstraat", 
      "lonmin": 5.220286963583877, 
      "sanName": "bogaarsveldstraat", 
      "numOfAddr": 1, 
      "lonmax": 5.220286963583877, 
      "latmin": 51.051571448699626
    }, 
    {
      "latmax": 51.04905526944927, 
      "name": "Botermijnstraat", 
      "lonmin": 5.222971319036223, 
      "sanName": "botermijnstraat", 
      "numOfAddr": 11, 
      "lonmax": 5.223487670604916, 
      "latmin": 51.04843540376921
    }, 
    {
      "latmax": 51.06526708327124, 
      "name": "Bremstraat", 
      "lonmin": 5.20820693293769, 
      "sanName": "bremstraat", 
      "numOfAddr": 57, 
      "lonmax": 5.213683340289426, 
      "latmin": 51.06294525978284
    }, 
    {
      "latmax": 51.044606281887894, 
      "name": "Broekhovenstraat", 
      "lonmin": 5.220406334148516, 
      "sanName": "broekhovenstraat", 
      "numOfAddr": 33, 
      "lonmax": 5.227273769700677, 
      "latmin": 51.04371459711815
    }, 
    {
      "latmax": 51.041713737057506, 
      "name": "Broekwijerweg", 
      "lonmin": 5.2378648098799365, 
      "sanName": "broekwijerweg", 
      "numOfAddr": 21, 
      "lonmax": 5.2404757401541335, 
      "latmin": 51.04090493364724
    }, 
    {
      "latmax": 51.04790044748779, 
      "name": "Brouwersstraat", 
      "lonmin": 5.221185314766204, 
      "sanName": "brouwersstraat", 
      "numOfAddr": 13, 
      "lonmax": 5.223219255640253, 
      "latmin": 51.04669513066938
    }, 
    {
      "latmax": 51.048255324511445, 
      "name": "Brugstraat", 
      "lonmin": 5.217647650333888, 
      "sanName": "brugstraat", 
      "numOfAddr": 20, 
      "lonmax": 5.220042035771824, 
      "latmin": 51.04740480501029
    }, 
    {
      "latmax": 51.05236898703778, 
      "name": "Brulmolenstraat", 
      "lonmin": 5.225874886009138, 
      "sanName": "brulmolenstraat", 
      "numOfAddr": 8, 
      "lonmax": 5.226749204141645, 
      "latmin": 51.05190190099162
    }, 
    {
      "latmax": 51.05009713734418, 
      "name": "Burgemeester Geyskensstraat", 
      "lonmin": 5.219470572414382, 
      "sanName": "burgemeestergeyskensstraat", 
      "numOfAddr": 26, 
      "lonmax": 5.221130117437889, 
      "latmin": 51.048378208158624
    }, 
    {
      "latmax": 51.05965499491915, 
      "name": "Coenaert", 
      "lonmin": 5.2153778632793015, 
      "sanName": "coenaert", 
      "numOfAddr": 4, 
      "lonmax": 5.217132687757889, 
      "latmin": 51.059037178907985
    }, 
    {
      "latmax": 51.04918810569539, 
      "name": "Collegestraat", 
      "lonmin": 5.22366511028784, 
      "sanName": "collegestraat", 
      "numOfAddr": 9, 
      "lonmax": 5.224637458745864, 
      "latmin": 51.0486225127105
    }, 
    {
      "latmax": 51.04703694736811, 
      "name": "Commelo", 
      "lonmin": 5.2105403125775345, 
      "sanName": "commelo", 
      "numOfAddr": 28, 
      "lonmax": 5.2153354387660835, 
      "latmin": 51.0459466691929
    }, 
    {
      "latmax": 51.04546991234423, 
      "name": "Corbiestraat", 
      "lonmin": 5.220171444716704, 
      "sanName": "corbiestraat", 
      "numOfAddr": 6, 
      "lonmax": 5.220816666955211, 
      "latmin": 51.0444678773201
    }, 
    {
      "latmax": 51.0476044487639, 
      "name": "Deken Habrakenlaan", 
      "lonmin": 5.232260792829734, 
      "sanName": "dekenhabrakenlaan", 
      "numOfAddr": 32, 
      "lonmax": 5.233566104946303, 
      "latmin": 51.04634331697215
    }, 
    {
      "latmax": 51.060319237362656, 
      "name": "De Ram", 
      "lonmin": 5.211897471093625, 
      "sanName": "deram", 
      "numOfAddr": 15, 
      "lonmax": 5.213949245169025, 
      "latmin": 51.058862465737135
    }, 
    {
      "latmax": 51.0457448693322, 
      "name": "Doelvoetstraat", 
      "lonmin": 5.22567157581271, 
      "sanName": "doelvoetstraat", 
      "numOfAddr": 8, 
      "lonmax": 5.226511624403691, 
      "latmin": 51.0451611501585
    }, 
    {
      "latmax": 51.06116903917771, 
      "name": "Eikenstraat", 
      "lonmin": 5.212731004549861, 
      "sanName": "eikenstraat", 
      "numOfAddr": 28, 
      "lonmax": 5.218667053599298, 
      "latmin": 51.05846122676711
    }, 
    {
      "latmax": 51.04459434397956, 
      "name": "Everselstraat", 
      "lonmin": 5.227154974060988, 
      "sanName": "everselstraat", 
      "numOfAddr": 67, 
      "lonmax": 5.233106992594506, 
      "latmin": 51.03362137163475
    }, 
    {
      "latmax": 51.05231867128003, 
      "name": "Geiteling", 
      "lonmin": 5.223773089939818, 
      "sanName": "geiteling", 
      "numOfAddr": 54, 
      "lonmax": 5.233148834007863, 
      "latmin": 51.050516244796796
    }, 
    {
      "latmax": 51.05025898062925, 
      "name": "Graaf van Loonstraat", 
      "lonmin": 5.224999590750896, 
      "sanName": "graafvanloonstraat", 
      "numOfAddr": 21, 
      "lonmax": 5.2267635167314115, 
      "latmin": 51.04856972291403
    }, 
    {
      "latmax": 51.037578095632526, 
      "name": "Hagelsteenstraat", 
      "lonmin": 5.235915608407208, 
      "sanName": "hagelsteenstraat", 
      "numOfAddr": 3, 
      "lonmax": 5.236999308912688, 
      "latmin": 51.0360724969573
    }, 
    {
      "latmax": 51.04837460867811, 
      "name": "Harmoniestraat", 
      "lonmin": 5.2268443855551325, 
      "sanName": "harmoniestraat", 
      "numOfAddr": 11, 
      "lonmax": 5.228662095912114, 
      "latmin": 51.04677531310193
    }, 
    {
      "latmax": 51.04771044613061, 
      "name": "Hasseltsesteenweg", 
      "lonmin": 5.225260774327593, 
      "sanName": "hasseltsesteenweg", 
      "numOfAddr": 152, 
      "lonmax": 5.244388490344672, 
      "latmin": 51.036410579305596
    }, 
    {
      "latmax": 51.052450420799715, 
      "name": "Hazendonkstraat", 
      "lonmin": 5.2245254402987005, 
      "sanName": "hazendonkstraat", 
      "numOfAddr": 10, 
      "lonmax": 5.225652345840172, 
      "latmin": 51.051570042575996
    }, 
    {
      "latmax": 51.04679402981715, 
      "name": "Heemstraat", 
      "lonmin": 5.219699975932648, 
      "sanName": "heemstraat", 
      "numOfAddr": 9, 
      "lonmax": 5.22270862116842, 
      "latmin": 51.04532805108567
    }, 
    {
      "latmax": 51.040554145691175, 
      "name": "Heidebloemstraat", 
      "lonmin": 5.230523914746671, 
      "sanName": "heidebloemstraat", 
      "numOfAddr": 37, 
      "lonmax": 5.2373289018030595, 
      "latmin": 51.039654161973054
    }, 
    {
      "latmax": 51.04540813343477, 
      "name": "Hekstraat", 
      "lonmin": 5.206094176858133, 
      "sanName": "hekstraat", 
      "numOfAddr": 68, 
      "lonmax": 5.211832103103483, 
      "latmin": 51.037028401890474
    }, 
    {
      "latmax": 51.0407771857749, 
      "name": "Heusdenseweg", 
      "lonmin": 5.238345446714267, 
      "sanName": "heusdenseweg", 
      "numOfAddr": 61, 
      "lonmax": 5.250194375160434, 
      "latmin": 51.03863628741839
    }, 
    {
      "latmax": 51.064369699631264, 
      "name": "Hoevestraat", 
      "lonmin": 5.209687122811916, 
      "sanName": "hoevestraat", 
      "numOfAddr": 56, 
      "lonmax": 5.214952087905747, 
      "latmin": 51.061175041748534
    }, 
    {
      "latmax": 51.04877769034468, 
      "name": "Hoogstraat", 
      "lonmin": 5.222133339305477, 
      "sanName": "hoogstraat", 
      "numOfAddr": 22, 
      "lonmax": 5.223572727191687, 
      "latmin": 51.047864446332426
    }, 
    {
      "latmax": 51.03863639943833, 
      "name": "Jaardingstraat", 
      "lonmin": 5.236421969480609, 
      "sanName": "jaardingstraat", 
      "numOfAddr": 16, 
      "lonmax": 5.238390054718268, 
      "latmin": 51.037544087960704
    }, 
    {
      "latmax": 51.04824909237028, 
      "name": "Jagersstraat", 
      "lonmin": 5.233452243137503, 
      "sanName": "jagersstraat", 
      "numOfAddr": 14, 
      "lonmax": 5.234922444870587, 
      "latmin": 51.04746297801975
    }, 
    {
      "latmax": 51.05048212678955, 
      "name": "Kaaistraat", 
      "lonmin": 5.216509493098845, 
      "sanName": "kaaistraat", 
      "numOfAddr": 24, 
      "lonmax": 5.221152945259809, 
      "latmin": 51.041429731081564
    }, 
    {
      "latmax": 51.051362671451685, 
      "name": "Kasteletsingel", 
      "lonmin": 5.21772452224669, 
      "sanName": "kasteletsingel", 
      "numOfAddr": 20, 
      "lonmax": 5.218945671829896, 
      "latmin": 51.046462331670995
    }, 
    {
      "latmax": 51.040825262775435, 
      "name": "Kiezelvoortweg", 
      "lonmin": 5.247451175677132, 
      "sanName": "kiezelvoortweg", 
      "numOfAddr": 6, 
      "lonmax": 5.248851955291755, 
      "latmin": 51.03967574416022
    }, 
    {
      "latmax": 51.04849397534831, 
      "name": "Klaproosstraat", 
      "lonmin": 5.235780987131226, 
      "sanName": "klaproosstraat", 
      "numOfAddr": 14, 
      "lonmax": 5.23850534067551, 
      "latmin": 51.04732057167229
    }, 
    {
      "latmax": 51.03960699689489, 
      "name": "Kleine Bekkersstraat", 
      "lonmin": 5.234971620269441, 
      "sanName": "kleinebekkersstraat", 
      "numOfAddr": 3, 
      "lonmax": 5.235198440083691, 
      "latmin": 51.039308773973445
    }, 
    {
      "latmax": 51.0511634941295, 
      "name": "Koerselsesteenweg", 
      "lonmin": 5.225885060611417, 
      "sanName": "koerselsesteenweg", 
      "numOfAddr": 88, 
      "lonmax": 5.23828149363692, 
      "latmin": 51.0477363833169
    }, 
    {
      "latmax": 51.04793833525306, 
      "name": "Kolmen", 
      "lonmin": 5.228534563201499, 
      "sanName": "kolmen", 
      "numOfAddr": 26, 
      "lonmax": 5.232293668964194, 
      "latmin": 51.0461649058545
    }, 
    {
      "latmax": 51.0596077665246, 
      "name": "Koolmijnlaan", 
      "lonmin": 5.221503885378755, 
      "sanName": "koolmijnlaan", 
      "numOfAddr": 92, 
      "lonmax": 5.224232121557806, 
      "latmin": 51.049216469835834
    }, 
    {
      "latmax": 51.04833123029759, 
      "name": "Korenbloemstraat", 
      "lonmin": 5.230566516767543, 
      "sanName": "korenbloemstraat", 
      "numOfAddr": 7, 
      "lonmax": 5.231260539436374, 
      "latmin": 51.04750479712444
    }, 
    {
      "latmax": 51.05922278624265, 
      "name": "Kortebergstraat", 
      "lonmin": 5.213005392536215, 
      "sanName": "kortebergstraat", 
      "numOfAddr": 19, 
      "lonmax": 5.215514938604067, 
      "latmin": 51.057635422182834
    }, 
    {
      "latmax": 51.040576284753115, 
      "name": "Kraaibosstraat", 
      "lonmin": 5.234009219624981, 
      "sanName": "kraaibosstraat", 
      "numOfAddr": 3, 
      "lonmax": 5.234660137609788, 
      "latmin": 51.040498090737415
    }, 
    {
      "latmax": 51.041936760061176, 
      "name": "Kraaienboswijk", 
      "lonmin": 5.230002761491126, 
      "sanName": "kraaienboswijk", 
      "numOfAddr": 67, 
      "lonmax": 5.233422385439378, 
      "latmin": 51.04060739117587
    }, 
    {
      "latmax": 51.06529808063133, 
      "name": "Kruisbaan", 
      "lonmin": 5.205048333626324, 
      "sanName": "kruisbaan", 
      "numOfAddr": 33, 
      "lonmax": 5.212459147618542, 
      "latmin": 51.05715834887764
    }, 
    {
      "latmax": 51.0477005101753, 
      "name": "Kruiwagenstraat", 
      "lonmin": 5.219203052077213, 
      "sanName": "kruiwagenstraat", 
      "numOfAddr": 8, 
      "lonmax": 5.2201467753664845, 
      "latmin": 51.04724452926084
    }, 
    {
      "latmax": 51.04553668789901, 
      "name": "Langvoortstraat", 
      "lonmin": 5.227770817167885, 
      "sanName": "langvoortstraat", 
      "numOfAddr": 15, 
      "lonmax": 5.229460294812378, 
      "latmin": 51.04494172193335
    }, 
    {
      "latmax": 51.03836600432407, 
      "name": "Lochtemanweg", 
      "lonmin": 5.223035529311915, 
      "sanName": "lochtemanweg", 
      "numOfAddr": 28, 
      "lonmax": 5.231343199244601, 
      "latmin": 51.03145224547842
    }, 
    {
      "latmax": 51.047579617570705, 
      "name": "Lodewijk Heyligenstraat", 
      "lonmin": 5.233625072932329, 
      "sanName": "lodewijkheyligenstraat", 
      "numOfAddr": 30, 
      "lonmax": 5.235465428872867, 
      "latmin": 51.04641651607182
    }, 
    {
      "latmax": 51.06871585615084, 
      "name": "Lorkenstraat", 
      "lonmin": 5.209041070513943, 
      "sanName": "lorkenstraat", 
      "numOfAddr": 5, 
      "lonmax": 5.209516389576486, 
      "latmin": 51.06785510926843
    }, 
    {
      "latmax": 51.043765477503634, 
      "name": "Lummenseweg", 
      "lonmin": 5.212531679109764, 
      "sanName": "lummenseweg", 
      "numOfAddr": 82, 
      "lonmax": 5.216343671096738, 
      "latmin": 51.035046950362265
    }, 
    {
      "latmax": 51.03949691096499, 
      "name": "Maasheide", 
      "lonmin": 5.230480167203521, 
      "sanName": "maasheide", 
      "numOfAddr": 43, 
      "lonmax": 5.238925430630351, 
      "latmin": 51.03849598587152
    }, 
    {
      "latmax": 51.04842081792841, 
      "name": "Markt", 
      "lonmin": 5.223465551355621, 
      "sanName": "markt", 
      "numOfAddr": 18, 
      "lonmax": 5.225797410011017, 
      "latmin": 51.04761154181315
    }, 
    {
      "latmax": 51.06243750936603, 
      "name": "Mijnschoolstraat", 
      "lonmin": 5.211034997865299, 
      "sanName": "mijnschoolstraat", 
      "numOfAddr": 41, 
      "lonmax": 5.216811124834341, 
      "latmin": 51.05960220494969
    }, 
    {
      "latmax": 51.0542946921041, 
      "name": "Molenveld", 
      "lonmin": 5.224090398231879, 
      "sanName": "molenveld", 
      "numOfAddr": 28, 
      "lonmax": 5.2273854184419895, 
      "latmin": 51.0521949953418
    }, 
    {
      "latmax": 51.04971263301824, 
      "name": "Motstraat", 
      "lonmin": 5.228496473782459, 
      "sanName": "motstraat", 
      "numOfAddr": 95, 
      "lonmax": 5.239658626818077, 
      "latmin": 51.044380600470916
    }, 
    {
      "latmax": 51.04126414690001, 
      "name": "Muizenheidestraat", 
      "lonmin": 5.236896887831116, 
      "sanName": "muizenheidestraat", 
      "numOfAddr": 37, 
      "lonmax": 5.240938422282315, 
      "latmin": 51.04004982301906
    }, 
    {
      "latmax": 51.05728020106029, 
      "name": "Nijverheidspark", 
      "lonmin": 5.2146853352299365, 
      "sanName": "nijverheidspark", 
      "numOfAddr": 18, 
      "lonmax": 5.221078500589671, 
      "latmin": 51.053204487253005
    }, 
    {
      "latmax": 51.05608788904056, 
      "name": "Nijverheidsstraat", 
      "lonmin": 5.212229670937694, 
      "sanName": "nijverheidsstraat", 
      "numOfAddr": 25, 
      "lonmax": 5.219603801260572, 
      "latmin": 51.05009774496081
    }, 
    {
      "latmax": 51.04874106415161, 
      "name": "Onze-Lieve-Vrouwstraat", 
      "lonmin": 5.220180841434167, 
      "sanName": "onzelievevrouwstraat", 
      "numOfAddr": 40, 
      "lonmax": 5.222403841355341, 
      "latmin": 51.0479051132996
    }, 
    {
      "latmax": 51.04472750303524, 
      "name": "Oude Baan", 
      "lonmin": 5.20361022354243, 
      "sanName": "oudebaan", 
      "numOfAddr": 58, 
      "lonmax": 5.215188539832381, 
      "latmin": 51.04154686503773
    }, 
    {
      "latmax": 51.04413804527692, 
      "name": "Oude Lummenseweg", 
      "lonmin": 5.2164326472109, 
      "sanName": "oudelummenseweg", 
      "numOfAddr": 19, 
      "lonmax": 5.217409349191036, 
      "latmin": 51.04130219565609
    }, 
    {
      "latmax": 51.0478779737522, 
      "name": "Paalsesteenweg", 
      "lonmin": 5.200248898975072, 
      "sanName": "paalsesteenweg", 
      "numOfAddr": 47, 
      "lonmax": 5.223787081340757, 
      "latmin": 51.04397869049533
    }, 
    {
      "latmax": 51.049716566394764, 
      "name": "Petrarcastraat", 
      "lonmin": 5.231750398445776, 
      "sanName": "petrarcastraat", 
      "numOfAddr": 14, 
      "lonmax": 5.233085999123944, 
      "latmin": 51.048074204282685
    }, 
    {
      "latmax": 51.0532439962143, 
      "name": "Piepeleerstraat", 
      "lonmin": 5.233266758385081, 
      "sanName": "piepeleerstraat", 
      "numOfAddr": 12, 
      "lonmax": 5.236196846776849, 
      "latmin": 51.05117830485558
    }, 
    {
      "latmax": 51.049594220151704, 
      "name": "Pieter Bruegelstraat", 
      "lonmin": 5.226505160676902, 
      "sanName": "pieterbruegelstraat", 
      "numOfAddr": 37, 
      "lonmax": 5.234290049505629, 
      "latmin": 51.046600525367275
    }, 
    {
      "latmax": 51.0469253215025, 
      "name": "Rode Kruisstraat", 
      "lonmin": 5.230503956953983, 
      "sanName": "rodekruisstraat", 
      "numOfAddr": 33, 
      "lonmax": 5.231865964388688, 
      "latmin": 51.04552451749513
    }, 
    {
      "latmax": 51.04728852221171, 
      "name": "Rozenlaan", 
      "lonmin": 5.223850840395438, 
      "sanName": "rozenlaan", 
      "numOfAddr": 38, 
      "lonmax": 5.226085327131586, 
      "latmin": 51.04409418698422
    }, 
    {
      "latmax": 51.04611232049951, 
      "name": "Salviastraat", 
      "lonmin": 5.222874027610421, 
      "sanName": "salviastraat", 
      "numOfAddr": 12, 
      "lonmax": 5.224566404332486, 
      "latmin": 51.04549671552094
    }, 
    {
      "latmax": 51.046776084434015, 
      "name": "Scheigoorstraat", 
      "lonmin": 5.225071581002975, 
      "sanName": "scheigoorstraat", 
      "numOfAddr": 6, 
      "lonmax": 5.225671624775777, 
      "latmin": 51.04629395481455
    }, 
    {
      "latmax": 51.04048689801099, 
      "name": "Schrijnwerkersstraat", 
      "lonmin": 5.17367923444423, 
      "sanName": "schrijnwerkersstraat", 
      "numOfAddr": 1, 
      "lonmax": 5.17367923444423, 
      "latmin": 51.04048689801099
    }, 
    {
      "latmax": 51.05127002535708, 
      "name": "Schuttersstraat", 
      "lonmin": 5.232195614826884, 
      "sanName": "schuttersstraat", 
      "numOfAddr": 14, 
      "lonmax": 5.233761494239603, 
      "latmin": 51.05044046632515
    }, 
    {
      "latmax": 51.04636237687691, 
      "name": "Sint-Annastraat", 
      "lonmin": 5.213509561497229, 
      "sanName": "sintannastraat", 
      "numOfAddr": 15, 
      "lonmax": 5.214966803630021, 
      "latmin": 51.04536095880765
    }, 
    {
      "latmax": 51.05120112514145, 
      "name": "Sint-Catharinastraat", 
      "lonmin": 5.226331344682691, 
      "sanName": "sintcatharinastraat", 
      "numOfAddr": 27, 
      "lonmax": 5.2325170848375055, 
      "latmin": 51.0493956926911
    }, 
    {
      "latmax": 51.04666251621435, 
      "name": "Sint-Jozefstraat", 
      "lonmin": 5.2293004409954404, 
      "sanName": "sintjozefstraat", 
      "numOfAddr": 9, 
      "lonmax": 5.230365151845799, 
      "latmin": 51.04538250976264
    }, 
    {
      "latmax": 51.0429680318075, 
      "name": "Sint-Petrusstraat", 
      "lonmin": 5.235838407937594, 
      "sanName": "sintpetrusstraat", 
      "numOfAddr": 31, 
      "lonmax": 5.239666855846574, 
      "latmin": 51.04094649442023
    }, 
    {
      "latmax": 51.04318835601539, 
      "name": "Slaagstraat", 
      "lonmin": 5.212192410319513, 
      "sanName": "slaagstraat", 
      "numOfAddr": 10, 
      "lonmax": 5.214311278220241, 
      "latmin": 51.04250669919438
    }, 
    {
      "latmax": 51.0477229706644, 
      "name": "Stadswal", 
      "lonmin": 5.219909413578916, 
      "sanName": "stadswal", 
      "numOfAddr": 7, 
      "lonmax": 5.220584029268864, 
      "latmin": 51.0473387578987
    }, 
    {
      "latmax": 51.04993595063743, 
      "name": "Steenstraat", 
      "lonmin": 5.2229957577917405, 
      "sanName": "steenstraat", 
      "numOfAddr": 12, 
      "lonmax": 5.223560676858541, 
      "latmin": 51.04911694691
    }, 
    {
      "latmax": 51.04877153758375, 
      "name": "Terbekstraat", 
      "lonmin": 5.211023227895931, 
      "sanName": "terbekstraat", 
      "numOfAddr": 6, 
      "lonmax": 5.215209634413146, 
      "latmin": 51.047408700595064
    }, 
    {
      "latmax": 51.0432091009996, 
      "name": "Terhulzen", 
      "lonmin": 5.216277268256061, 
      "sanName": "terhulzen", 
      "numOfAddr": 20, 
      "lonmax": 5.221010720279202, 
      "latmin": 51.03449323493094
    }, 
    {
      "latmax": 51.04358244336715, 
      "name": "Ternaaiseweg", 
      "lonmin": 5.211592241585432, 
      "sanName": "ternaaiseweg", 
      "numOfAddr": 10, 
      "lonmax": 5.215208549692374, 
      "latmin": 51.04318083465672
    }, 
    {
      "latmax": 51.046407918220034, 
      "name": "Torenveldstraat", 
      "lonmin": 5.221782675142447, 
      "sanName": "torenveldstraat", 
      "numOfAddr": 20, 
      "lonmax": 5.223204780364551, 
      "latmin": 51.04469550246108
    }, 
    {
      "latmax": 51.04385543620806, 
      "name": "Vaartstraat", 
      "lonmin": 5.2161876895330375, 
      "sanName": "vaartstraat", 
      "numOfAddr": 3, 
      "lonmax": 5.216416466090504, 
      "latmin": 51.04349093934541
    }, 
    {
      "latmax": 51.039487823739435, 
      "name": "Varenstraat", 
      "lonmin": 5.23993339908538, 
      "sanName": "varenstraat", 
      "numOfAddr": 5, 
      "lonmax": 5.241309382878037, 
      "latmin": 51.03908812775316
    }, 
    {
      "latmax": 51.052919828192906, 
      "name": "Verbindingsstraat", 
      "lonmin": 5.229389680583631, 
      "sanName": "verbindingsstraat", 
      "numOfAddr": 29, 
      "lonmax": 5.231696085745205, 
      "latmin": 51.05051796081757
    }, 
    {
      "latmax": 51.04367265963788, 
      "name": "Vestingstraat", 
      "lonmin": 5.223384971041793, 
      "sanName": "vestingstraat", 
      "numOfAddr": 5, 
      "lonmax": 5.224993379472191, 
      "latmin": 51.04271109124756
    }, 
    {
      "latmax": 51.05119092606858, 
      "name": "Violetstraat", 
      "lonmin": 5.2252198214350445, 
      "sanName": "violetstraat", 
      "numOfAddr": 19, 
      "lonmax": 5.227681353870603, 
      "latmin": 51.050336657173695
    }, 
    {
      "latmax": 51.06332760769615, 
      "name": "Vlierbesstraat", 
      "lonmin": 5.2085970631968355, 
      "sanName": "vlierbesstraat", 
      "numOfAddr": 17, 
      "lonmax": 5.210172844398527, 
      "latmin": 51.06244504701079
    }, 
    {
      "latmax": 51.053249609375555, 
      "name": "Voetbalstraat", 
      "lonmin": 5.2240445598116105, 
      "sanName": "voetbalstraat", 
      "numOfAddr": 12, 
      "lonmax": 5.2263303841715105, 
      "latmin": 51.05246580907543
    }, 
    {
      "latmax": 51.06003674550131, 
      "name": "Voortstraat", 
      "lonmin": 5.212553861892739, 
      "sanName": "voortstraat", 
      "numOfAddr": 50, 
      "lonmax": 5.221511774744462, 
      "latmin": 51.05630292045401
    }, 
    {
      "latmax": 51.05140186402287, 
      "name": "Ward Schoutedenstraat", 
      "lonmin": 5.227457142255751, 
      "sanName": "wardschoutedenstraat", 
      "numOfAddr": 8, 
      "lonmax": 5.228595503823743, 
      "latmin": 51.050188589762136
    }, 
    {
      "latmax": 51.05244141082751, 
      "name": "Zandstraat", 
      "lonmin": 5.233168625607606, 
      "sanName": "zandstraat", 
      "numOfAddr": 12, 
      "lonmax": 5.234879122753456, 
      "latmin": 51.051643478116056
    }, 
    {
      "latmax": 51.04654683484495, 
      "name": "Zonnebloemstraat", 
      "lonmin": 5.22976670018387, 
      "sanName": "zonnebloemstraat", 
      "numOfAddr": 10, 
      "lonmax": 5.230832114514344, 
      "latmin": 51.046171010374614
    }, 
    {
      "latmax": 51.068107054491584, 
      "name": "Zwart-Waterstraat", 
      "lonmin": 5.207858102325182, 
      "sanName": "zwartwaterstraat", 
      "numOfAddr": 26, 
      "lonmax": 5.21144871725013, 
      "latmin": 51.065137828532265
    }
  ]
}