{
  "streets": [
    {
      "latmax": 50.86057944554361, 
      "name": "2e Carabinierslaan", 
      "lonmin": 5.625327045744275, 
      "sanName": "2ecarabinierslaan", 
      "numOfAddr": 93, 
      "lonmax": 5.64320309519058, 
      "latmin": 50.858107761956724
    }, 
    {
      "latmax": 50.88959007748657, 
      "name": "Aan De Engelse Hof", 
      "lonmin": 5.655833604732726, 
      "sanName": "aandeengelsehof", 
      "numOfAddr": 3, 
      "lonmax": 5.656980389395531, 
      "latmin": 50.88862705955259
    }, 
    {
      "latmax": 50.84311974851549, 
      "name": "Aan het Heeser Water", 
      "lonmin": 5.620618499527133, 
      "sanName": "aanhetheeserwater", 
      "numOfAddr": 2, 
      "lonmax": 5.622342224857942, 
      "latmin": 50.842242150096624
    }, 
    {
      "latmax": 50.90916947726873, 
      "name": "Acasialaan", 
      "lonmin": 5.6738873085643755, 
      "sanName": "acasialaan", 
      "numOfAddr": 29, 
      "lonmax": 5.675200737996578, 
      "latmin": 50.90688443503493
    }, 
    {
      "latmax": 50.8895397926245, 
      "name": "A. Einsteinstraat", 
      "lonmin": 5.6694939421594235, 
      "sanName": "aeinsteinstraat", 
      "numOfAddr": 9, 
      "lonmax": 5.67020915568015, 
      "latmin": 50.88888994040515
    }, 
    {
      "latmax": 50.88889285905683, 
      "name": "A.G. Bellstraat", 
      "lonmin": 5.667121367726483, 
      "sanName": "agbellstraat", 
      "numOfAddr": 39, 
      "lonmax": 5.669445199237786, 
      "latmin": 50.88587467334252
    }, 
    {
      "latmax": 50.89223130661592, 
      "name": "Albrecht Rodenbachstraat", 
      "lonmin": 5.642604313133283, 
      "sanName": "albrechtrodenbachstraat", 
      "numOfAddr": 6, 
      "lonmax": 5.6437516186085235, 
      "latmin": 50.89178940085128
    }, 
    {
      "latmax": 50.89349816516949, 
      "name": "Alfons Jeurissenstraat", 
      "lonmin": 5.642617592532857, 
      "sanName": "alfonsjeurissenstraat", 
      "numOfAddr": 13, 
      "lonmax": 5.643736521326962, 
      "latmin": 50.89254675730726
    }, 
    {
      "latmax": 50.90649575928654, 
      "name": "Andre Dumontplaats", 
      "lonmin": 5.670763510165535, 
      "sanName": "andredumontplaats", 
      "numOfAddr": 2, 
      "lonmax": 5.672096153292589, 
      "latmin": 50.906450313339846
    }, 
    {
      "latmax": 50.88715132082805, 
      "name": "A. Nobelstraat", 
      "lonmin": 5.66811017369765, 
      "sanName": "anobelstraat", 
      "numOfAddr": 27, 
      "lonmax": 5.67148188838943, 
      "latmin": 50.88625393712576
    }, 
    {
      "latmax": 50.89125812416619, 
      "name": "Arkstraat", 
      "lonmin": 5.640028782811888, 
      "sanName": "arkstraat", 
      "numOfAddr": 72, 
      "lonmax": 5.649016316027841, 
      "latmin": 50.88827185259858
    }, 
    {
      "latmax": 50.89226871383051, 
      "name": "August Cuppensstraat", 
      "lonmin": 5.6447060226224774, 
      "sanName": "augustcuppensstraat", 
      "numOfAddr": 11, 
      "lonmax": 5.645793550725743, 
      "latmin": 50.89158455963082
    }, 
    {
      "latmax": 50.90921131087223, 
      "name": "Azaleastraat", 
      "lonmin": 5.675197990042683, 
      "sanName": "azaleastraat", 
      "numOfAddr": 30, 
      "lonmax": 5.6765531823156055, 
      "latmin": 50.90566362767391
    }, 
    {
      "latmax": 50.86431123451143, 
      "name": "Bampstraat", 
      "lonmin": 5.634525413678605, 
      "sanName": "bampstraat", 
      "numOfAddr": 9, 
      "lonmax": 5.635524485797372, 
      "latmin": 50.86394459313799
    }, 
    {
      "latmax": 50.877299337683915, 
      "name": "Batterijstraat", 
      "lonmin": 5.627014312170028, 
      "sanName": "batterijstraat", 
      "numOfAddr": 1, 
      "lonmax": 5.627014312170028, 
      "latmin": 50.877299337683915
    }, 
    {
      "latmax": 50.88514018198229, 
      "name": "Bauduinplein", 
      "lonmin": 5.6739716327778735, 
      "sanName": "bauduinplein", 
      "numOfAddr": 10, 
      "lonmax": 5.674593047238676, 
      "latmin": 50.88400710439294
    }, 
    {
      "latmax": 50.892499998599845, 
      "name": "Bedrijfsweg", 
      "lonmin": 5.667015559894218, 
      "sanName": "bedrijfsweg", 
      "numOfAddr": 19, 
      "lonmax": 5.672615983447893, 
      "latmin": 50.888444095563806
    }, 
    {
      "latmax": 50.87599912465627, 
      "name": "Beekveldweg", 
      "lonmin": 5.623898972325493, 
      "sanName": "beekveldweg", 
      "numOfAddr": 2, 
      "lonmax": 5.625717858589639, 
      "latmin": 50.87516499515138
    }, 
    {
      "latmax": 50.86584963558786, 
      "name": "Berenhofstraat", 
      "lonmin": 5.625385348497231, 
      "sanName": "berenhofstraat", 
      "numOfAddr": 55, 
      "lonmax": 5.632651373805285, 
      "latmin": 50.863411119073476
    }, 
    {
      "latmax": 50.8884837892746, 
      "name": "Bergstraat", 
      "lonmin": 5.607251970920558, 
      "sanName": "bergstraat", 
      "numOfAddr": 48, 
      "lonmax": 5.614640564306234, 
      "latmin": 50.885663218050865
    }, 
    {
      "latmax": 50.89011105863821, 
      "name": "Berkenlaan", 
      "lonmin": 5.612736628222235, 
      "sanName": "berkenlaan", 
      "numOfAddr": 40, 
      "lonmax": 5.616495863233334, 
      "latmin": 50.885628698154484
    }, 
    {
      "latmax": 50.888137113543024, 
      "name": "Bernerstraat", 
      "lonmin": 5.661797444254797, 
      "sanName": "bernerstraat", 
      "numOfAddr": 2, 
      "lonmax": 5.662636107283086, 
      "latmin": 50.887633104544655
    }, 
    {
      "latmax": 50.92176779775258, 
      "name": "Bessemerstraat", 
      "lonmin": 5.607563215864058, 
      "sanName": "bessemerstraat", 
      "numOfAddr": 289, 
      "lonmax": 5.651009398513248, 
      "latmin": 50.89008301982128
    }, 
    {
      "latmax": 50.9029430634948, 
      "name": "Beukendreef", 
      "lonmin": 5.673107301212049, 
      "sanName": "beukendreef", 
      "numOfAddr": 6, 
      "lonmax": 5.676189637725119, 
      "latmin": 50.90223990223212
    }, 
    {
      "latmax": 50.90434431805144, 
      "name": "Beverpad", 
      "lonmin": 5.680492236571706, 
      "sanName": "beverpad", 
      "numOfAddr": 14, 
      "lonmax": 5.682339041169037, 
      "latmin": 50.902371331302035
    }, 
    {
      "latmax": 50.8881566465098, 
      "name": "Biesweg", 
      "lonmin": 5.606437775363144, 
      "sanName": "biesweg", 
      "numOfAddr": 36, 
      "lonmax": 5.607773681730575, 
      "latmin": 50.88362648177765
    }, 
    {
      "latmax": 50.86098471803932, 
      "name": "Bilzerbaan", 
      "lonmin": 5.608150190726602, 
      "sanName": "bilzerbaan", 
      "numOfAddr": 113, 
      "lonmax": 5.624776510386812, 
      "latmin": 50.85991778461832
    }, 
    {
      "latmax": 50.90123703678582, 
      "name": "Blindevijversweg", 
      "lonmin": 5.650733513602379, 
      "sanName": "blindevijversweg", 
      "numOfAddr": 13, 
      "lonmax": 5.652442299982603, 
      "latmin": 50.9001467126993
    }, 
    {
      "latmax": 50.89156030809113, 
      "name": "Bodestraat", 
      "lonmin": 5.651020755988117, 
      "sanName": "bodestraat", 
      "numOfAddr": 9, 
      "lonmax": 5.652623063788329, 
      "latmin": 50.890450220457666
    }, 
    {
      "latmax": 50.89753441194981, 
      "name": "Boeketstraat", 
      "lonmin": 5.650715944452789, 
      "sanName": "boeketstraat", 
      "numOfAddr": 20, 
      "lonmax": 5.653652676124119, 
      "latmin": 50.896027266653384
    }, 
    {
      "latmax": 50.88230554631461, 
      "name": "Boonakkerstraat", 
      "lonmin": 5.610321522112592, 
      "sanName": "boonakkerstraat", 
      "numOfAddr": 9, 
      "lonmax": 5.618200121447292, 
      "latmin": 50.87972706303442
    }, 
    {
      "latmax": 50.899058598551456, 
      "name": "Bosstraat", 
      "lonmin": 5.6217382537329375, 
      "sanName": "bosstraat", 
      "numOfAddr": 67, 
      "lonmax": 5.6357313029460245, 
      "latmin": 50.89362138394335
    }, 
    {
      "latmax": 50.89789034260097, 
      "name": "Bremstraat", 
      "lonmin": 5.622094650118346, 
      "sanName": "bremstraat", 
      "numOfAddr": 56, 
      "lonmax": 5.629370693824262, 
      "latmin": 50.8902602653561
    }, 
    {
      "latmax": 50.87902658809802, 
      "name": "Briegdenstraat", 
      "lonmin": 5.629475651308795, 
      "sanName": "briegdenstraat", 
      "numOfAddr": 38, 
      "lonmax": 5.635537322309332, 
      "latmin": 50.87520657774162
    }, 
    {
      "latmax": 50.892519668712396, 
      "name": "Broekstraat", 
      "lonmin": 5.650793474019044, 
      "sanName": "broekstraat", 
      "numOfAddr": 46, 
      "lonmax": 5.656069260697467, 
      "latmin": 50.89070039925538
    }, 
    {
      "latmax": 50.882677368436866, 
      "name": "Brugstraat", 
      "lonmin": 5.6736758468888215, 
      "sanName": "brugstraat", 
      "numOfAddr": 47, 
      "lonmax": 5.677863163302065, 
      "latmin": 50.880844684968736
    }, 
    {
      "latmax": 50.905297510809824, 
      "name": "Bunzingpad", 
      "lonmin": 5.680364460804294, 
      "sanName": "bunzingpad", 
      "numOfAddr": 13, 
      "lonmax": 5.681886216352306, 
      "latmin": 50.903913954613905
    }, 
    {
      "latmax": 50.896595869526784, 
      "name": "Burgemeester Martinstraat", 
      "lonmin": 5.65854433368423, 
      "sanName": "burgemeestermartinstraat", 
      "numOfAddr": 13, 
      "lonmax": 5.659876245237543, 
      "latmin": 50.89587113680927
    }, 
    {
      "latmax": 50.895166601252434, 
      "name": "Casimir Rockplein", 
      "lonmin": 5.64819429522936, 
      "sanName": "casimirrockplein", 
      "numOfAddr": 11, 
      "lonmax": 5.649454779401124, 
      "latmin": 50.894067748835916
    }, 
    {
      "latmax": 50.88614403843836, 
      "name": "Chr. Plantijnplein", 
      "lonmin": 5.66899472844675, 
      "sanName": "chrplantijnplein", 
      "numOfAddr": 6, 
      "lonmax": 5.669831223586414, 
      "latmin": 50.88565405631974
    }, 
    {
      "latmax": 50.8859347719103, 
      "name": "Chr. Plantijnstraat", 
      "lonmin": 5.668622177784557, 
      "sanName": "chrplantijnstraat", 
      "numOfAddr": 23, 
      "lonmax": 5.672028021121271, 
      "latmin": 50.885005706967256
    }, 
    {
      "latmax": 50.88203621821576, 
      "name": "Commandant Giddelostraat", 
      "lonmin": 5.632628995540819, 
      "sanName": "commandantgiddelostraat", 
      "numOfAddr": 11, 
      "lonmax": 5.63449861655062, 
      "latmin": 50.88120649369312
    }, 
    {
      "latmax": 50.89432490782956, 
      "name": "Cyriel Verschaevestraat", 
      "lonmin": 5.643540353860354, 
      "sanName": "cyrielverschaevestraat", 
      "numOfAddr": 38, 
      "lonmax": 5.646724303777041, 
      "latmin": 50.89172154828855
    }, 
    {
      "latmax": 50.90302176236495, 
      "name": "Dassenpad", 
      "lonmin": 5.679011920467156, 
      "sanName": "dassenpad", 
      "numOfAddr": 4, 
      "lonmax": 5.680194494580727, 
      "latmin": 50.90252098730683
    }, 
    {
      "latmax": 50.893342191938984, 
      "name": "David Teniersstraat", 
      "lonmin": 5.638235138998582, 
      "sanName": "davidteniersstraat", 
      "numOfAddr": 13, 
      "lonmax": 5.64046895673866, 
      "latmin": 50.89232526040492
    }, 
    {
      "latmax": 50.89473628456716, 
      "name": "de Bosquetstraat", 
      "lonmin": 5.6361349407342765, 
      "sanName": "debosquetstraat", 
      "numOfAddr": 18, 
      "lonmax": 5.63745135907279, 
      "latmin": 50.89405178487726
    }, 
    {
      "latmax": 50.88767389467587, 
      "name": "De Dries", 
      "lonmin": 5.6026084480684935, 
      "sanName": "dedries", 
      "numOfAddr": 57, 
      "lonmax": 5.605942697672493, 
      "latmin": 50.88561899372689
    }, 
    {
      "latmax": 50.908262358033944, 
      "name": "Delstraat", 
      "lonmin": 5.680668617241886, 
      "sanName": "delstraat", 
      "numOfAddr": 20, 
      "lonmax": 5.683069551128962, 
      "latmin": 50.906061917297414
    }, 
    {
      "latmax": 50.89613806592157, 
      "name": "de Merodelaan", 
      "lonmin": 5.65594415975074, 
      "sanName": "demerodelaan", 
      "numOfAddr": 78, 
      "lonmax": 5.661277949826979, 
      "latmin": 50.8917927490766
    }, 
    {
      "latmax": 50.86357999030983, 
      "name": "den Haspegouwer", 
      "lonmin": 5.62992403320723, 
      "sanName": "denhaspegouwer", 
      "numOfAddr": 6, 
      "lonmax": 5.630622599865749, 
      "latmin": 50.86318532437179
    }, 
    {
      "latmax": 50.90061796297185, 
      "name": "Dennenstraat", 
      "lonmin": 5.629755944759846, 
      "sanName": "dennenstraat", 
      "numOfAddr": 15, 
      "lonmax": 5.632423231533984, 
      "latmin": 50.899268925344536
    }, 
    {
      "latmax": 50.89788872500257, 
      "name": "De Stichel", 
      "lonmin": 5.654131147659992, 
      "sanName": "destichel", 
      "numOfAddr": 9, 
      "lonmax": 5.655439181319852, 
      "latmin": 50.896977067460426
    }, 
    {
      "latmax": 50.84279670408839, 
      "name": "Diepestraat", 
      "lonmin": 5.62967165154806, 
      "sanName": "diepestraat", 
      "numOfAddr": 4, 
      "lonmax": 5.630837107326844, 
      "latmin": 50.84122730450591
    }, 
    {
      "latmax": 50.86381099577812, 
      "name": "Dieterenbank", 
      "lonmin": 5.626496973658957, 
      "sanName": "dieterenbank", 
      "numOfAddr": 41, 
      "lonmax": 5.6295686024419975, 
      "latmin": 50.862555001985314
    }, 
    {
      "latmax": 50.90699794558572, 
      "name": "Dikke Hagestraat", 
      "lonmin": 5.685294721906904, 
      "sanName": "dikkehagestraat", 
      "numOfAddr": 4, 
      "lonmax": 5.685974822217682, 
      "latmin": 50.906563320734435
    }, 
    {
      "latmax": 50.91250833125113, 
      "name": "Dobbelsteynstraat", 
      "lonmin": 5.670887560320832, 
      "sanName": "dobbelsteynstraat", 
      "numOfAddr": 28, 
      "lonmax": 5.674294505093676, 
      "latmin": 50.910808728791345
    }, 
    {
      "latmax": 50.91008339651576, 
      "name": "Domein Zangersheide", 
      "lonmin": 5.66676835453908, 
      "sanName": "domeinzangersheide", 
      "numOfAddr": 1, 
      "lonmax": 5.66676835453908, 
      "latmin": 50.91008339651576
    }, 
    {
      "latmax": 50.88462705607482, 
      "name": "Dorpsstraat", 
      "lonmin": 5.593104597186541, 
      "sanName": "dorpsstraat", 
      "numOfAddr": 144, 
      "lonmax": 5.619372367774975, 
      "latmin": 50.88142006638164
    }, 
    {
      "latmax": 50.88830956350976, 
      "name": "Driebunders", 
      "lonmin": 5.598936660629422, 
      "sanName": "driebunders", 
      "numOfAddr": 7, 
      "lonmax": 5.600170386650074, 
      "latmin": 50.88776526464667
    }, 
    {
      "latmax": 50.89233519228277, 
      "name": "Drie Eikenstraat", 
      "lonmin": 5.659585780121186, 
      "sanName": "drieeikenstraat", 
      "numOfAddr": 24, 
      "lonmax": 5.6631388746645195, 
      "latmin": 50.89156594504539
    }, 
    {
      "latmax": 50.89612727314297, 
      "name": "Dr. Le Jeunestraat", 
      "lonmin": 5.654216231828186, 
      "sanName": "drlejeunestraat", 
      "numOfAddr": 16, 
      "lonmax": 5.65629375757183, 
      "latmin": 50.89455782189472
    }, 
    {
      "latmax": 50.898458588407536, 
      "name": "Druivenstraat", 
      "lonmin": 5.655547697431878, 
      "sanName": "druivenstraat", 
      "numOfAddr": 22, 
      "lonmax": 5.6585055309481245, 
      "latmin": 50.89734362446593
    }, 
    {
      "latmax": 50.88304966579099, 
      "name": "Dukatonweg", 
      "lonmin": 5.667425022229932, 
      "sanName": "dukatonweg", 
      "numOfAddr": 8, 
      "lonmax": 5.669466483405105, 
      "latmin": 50.882679705866195
    }, 
    {
      "latmax": 50.864071860832475, 
      "name": "Edelenbampt", 
      "lonmin": 5.630848149681616, 
      "sanName": "edelenbampt", 
      "numOfAddr": 4, 
      "lonmax": 5.631694606845282, 
      "latmin": 50.86379730936123
    }, 
    {
      "latmax": 50.89353792299637, 
      "name": "Edgard de Caritatstraat", 
      "lonmin": 5.662169598519474, 
      "sanName": "edgarddecaritatstraat", 
      "numOfAddr": 13, 
      "lonmax": 5.663175550807087, 
      "latmin": 50.89296098700687
    }, 
    {
      "latmax": 50.88564711313119, 
      "name": "Edgard Willemsstraat", 
      "lonmin": 5.606232805815098, 
      "sanName": "edgardwillemsstraat", 
      "numOfAddr": 1, 
      "lonmax": 5.606232805815098, 
      "latmin": 50.88564711313119
    }, 
    {
      "latmax": 50.89764143067406, 
      "name": "Eikelenweg", 
      "lonmin": 5.624360699596013, 
      "sanName": "eikelenweg", 
      "numOfAddr": 105, 
      "lonmax": 5.638747469685786, 
      "latmin": 50.89144203693071
    }, 
    {
      "latmax": 50.89918705752461, 
      "name": "Elzenstraat", 
      "lonmin": 5.631327623494332, 
      "sanName": "elzenstraat", 
      "numOfAddr": 11, 
      "lonmax": 5.632971304241023, 
      "latmin": 50.89849775569766
    }, 
    {
      "latmax": 50.900258985760004, 
      "name": "Epesiastraat", 
      "lonmin": 5.627519643329508, 
      "sanName": "epesiastraat", 
      "numOfAddr": 21, 
      "lonmax": 5.6334021712790845, 
      "latmin": 50.89805964953264
    }, 
    {
      "latmax": 50.89127164309659, 
      "name": "Ernest Claesstraat", 
      "lonmin": 5.644530971038323, 
      "sanName": "ernestclaesstraat", 
      "numOfAddr": 9, 
      "lonmax": 5.646054847937747, 
      "latmin": 50.8905801517577
    }, 
    {
      "latmax": 50.88822384950276, 
      "name": "Europaplein", 
      "lonmin": 5.64990005982726, 
      "sanName": "europaplein", 
      "numOfAddr": 27, 
      "lonmax": 5.652915691777851, 
      "latmin": 50.886554808573415
    }, 
    {
      "latmax": 50.885348032134026, 
      "name": "Europark", 
      "lonmin": 5.657962723244429, 
      "sanName": "europark", 
      "numOfAddr": 39, 
      "lonmax": 5.66733389513394, 
      "latmin": 50.87674678916006
    }, 
    {
      "latmax": 50.8944120205129, 
      "name": "Felix Timmermansstraat", 
      "lonmin": 5.642885131354309, 
      "sanName": "felixtimmermansstraat", 
      "numOfAddr": 5, 
      "lonmax": 5.643401968509617, 
      "latmin": 50.89387230727952
    }, 
    {
      "latmax": 50.90341047677519, 
      "name": "Fluwijnpad", 
      "lonmin": 5.681257990896834, 
      "sanName": "fluwijnpad", 
      "numOfAddr": 12, 
      "lonmax": 5.682841746597242, 
      "latmin": 50.9024781230679
    }, 
    {
      "latmax": 50.89602681560961, 
      "name": "Frater Damacenusstraat", 
      "lonmin": 5.652500513370535, 
      "sanName": "fraterdamacenusstraat", 
      "numOfAddr": 19, 
      "lonmax": 5.655328859889473, 
      "latmin": 50.89456091232765
    }, 
    {
      "latmax": 50.88767988113574, 
      "name": "Frayenhofstraat", 
      "lonmin": 5.624039060984095, 
      "sanName": "frayenhofstraat", 
      "numOfAddr": 17, 
      "lonmax": 5.625520427271656, 
      "latmin": 50.88692606343616
    }, 
    {
      "latmax": 50.87006367259893, 
      "name": "Ganzenlaan", 
      "lonmin": 5.626828978135761, 
      "sanName": "ganzenlaan", 
      "numOfAddr": 12, 
      "lonmax": 5.627830658207542, 
      "latmin": 50.86934419695638
    }, 
    {
      "latmax": 50.893731516246774, 
      "name": "Ganzepoel", 
      "lonmin": 5.664231671430132, 
      "sanName": "ganzepoel", 
      "numOfAddr": 14, 
      "lonmax": 5.667073932656987, 
      "latmin": 50.892365070566186
    }, 
    {
      "latmax": 50.8885202016336, 
      "name": "Gasthuisstraat", 
      "lonmin": 5.652103877471633, 
      "sanName": "gasthuisstraat", 
      "numOfAddr": 23, 
      "lonmax": 5.6553772090734356, 
      "latmin": 50.88724532117461
    }, 
    {
      "latmax": 50.89203179999912, 
      "name": "Geeneindstraat", 
      "lonmin": 5.663579316250146, 
      "sanName": "geeneindstraat", 
      "numOfAddr": 4, 
      "lonmax": 5.664125149060595, 
      "latmin": 50.89175266622503
    }, 
    {
      "latmax": 50.86926093738424, 
      "name": "Geerenweg", 
      "lonmin": 5.62516561895574, 
      "sanName": "geerenweg", 
      "numOfAddr": 7, 
      "lonmax": 5.626309323514932, 
      "latmin": 50.86843781508739
    }, 
    {
      "latmax": 50.89701649461506, 
      "name": "Gellikerheide", 
      "lonmin": 5.590865886882962, 
      "sanName": "gellikerheide", 
      "numOfAddr": 7, 
      "lonmax": 5.599927055649326, 
      "latmin": 50.889272562447054
    }, 
    {
      "latmax": 50.883586845590685, 
      "name": "Gellikerweg", 
      "lonmin": 5.589387441794555, 
      "sanName": "gellikerweg", 
      "numOfAddr": 41, 
      "lonmax": 5.595294104492703, 
      "latmin": 50.88243153280898
    }, 
    {
      "latmax": 50.88943208527175, 
      "name": "Gemeenteplein", 
      "lonmin": 5.652346575516911, 
      "sanName": "gemeenteplein", 
      "numOfAddr": 6, 
      "lonmax": 5.652804487170792, 
      "latmin": 50.88902869484287
    }, 
    {
      "latmax": 50.911140508545564, 
      "name": "Geulerweg", 
      "lonmin": 5.688042124315556, 
      "sanName": "geulerweg", 
      "numOfAddr": 4, 
      "lonmax": 5.696331247012168, 
      "latmin": 50.90936308949609
    }, 
    {
      "latmax": 50.888187262959285, 
      "name": "G. Mercatorstraat", 
      "lonmin": 5.669164922539553, 
      "sanName": "gmercatorstraat", 
      "numOfAddr": 24, 
      "lonmax": 5.671166296621734, 
      "latmin": 50.887033658326935
    }, 
    {
      "latmax": 50.883319629319885, 
      "name": "Grensstraat", 
      "lonmin": 5.668229101946585, 
      "sanName": "grensstraat", 
      "numOfAddr": 5, 
      "lonmax": 5.6685695595125205, 
      "latmin": 50.88236220329794
    }, 
    {
      "latmax": 50.895743919061154, 
      "name": "Grenswachtplaats", 
      "lonmin": 5.657716464659736, 
      "sanName": "grenswachtplaats", 
      "numOfAddr": 5, 
      "lonmax": 5.65866693760511, 
      "latmin": 50.8954861837797
    }, 
    {
      "latmax": 50.8955178510717, 
      "name": "Guffensstraat", 
      "lonmin": 5.655613414305652, 
      "sanName": "guffensstraat", 
      "numOfAddr": 21, 
      "lonmax": 5.65783991806687, 
      "latmin": 50.89350993850836
    }, 
    {
      "latmax": 50.89444617835707, 
      "name": "Guido Gezellestraat", 
      "lonmin": 5.641514318754199, 
      "sanName": "guidogezellestraat", 
      "numOfAddr": 7, 
      "lonmax": 5.642507677675355, 
      "latmin": 50.89383962726952
    }, 
    {
      "latmax": 50.893783124874425, 
      "name": "Gulden Sporenplein", 
      "lonmin": 5.641875217117232, 
      "sanName": "guldensporenplein", 
      "numOfAddr": 5, 
      "lonmax": 5.642925034449975, 
      "latmin": 50.89328716810695
    }, 
    {
      "latmax": 50.88972266768235, 
      "name": "Haegendoornstraat", 
      "lonmin": 5.670615176124176, 
      "sanName": "haegendoornstraat", 
      "numOfAddr": 11, 
      "lonmax": 5.672792970909278, 
      "latmin": 50.88826140991594
    }, 
    {
      "latmax": 50.89277604610122, 
      "name": "Hans Memlingstraat", 
      "lonmin": 5.63930871800036, 
      "sanName": "hansmemlingstraat", 
      "numOfAddr": 19, 
      "lonmax": 5.641475024032682, 
      "latmin": 50.891003261156676
    }, 
    {
      "latmax": 50.87099843750191, 
      "name": "Havikkenlaan", 
      "lonmin": 5.627102062110763, 
      "sanName": "havikkenlaan", 
      "numOfAddr": 8, 
      "lonmax": 5.6282028343661095, 
      "latmin": 50.870542219011554
    }, 
    {
      "latmax": 50.900564164303546, 
      "name": "Heidemolenstraat", 
      "lonmin": 5.648772207152815, 
      "sanName": "heidemolenstraat", 
      "numOfAddr": 5, 
      "lonmax": 5.650509853270183, 
      "latmin": 50.89994308878468
    }, 
    {
      "latmax": 50.91219155958264, 
      "name": "Heirbaan", 
      "lonmin": 5.683248092247279, 
      "sanName": "heirbaan", 
      "numOfAddr": 71, 
      "lonmax": 5.685645513918666, 
      "latmin": 50.90327981565726
    }, 
    {
      "latmax": 50.92985687075512, 
      "name": "Heiwyckstraat", 
      "lonmin": 5.605089647881155, 
      "sanName": "heiwyckstraat", 
      "numOfAddr": 28, 
      "lonmax": 5.6074085278426145, 
      "latmin": 50.921916695554174
    }, 
    {
      "latmax": 50.89376143745115, 
      "name": "Hellingstraat", 
      "lonmin": 5.640267866377732, 
      "sanName": "hellingstraat", 
      "numOfAddr": 42, 
      "lonmax": 5.644009780806301, 
      "latmin": 50.89006320832041
    }, 
    {
      "latmax": 50.906962497884116, 
      "name": "Heltenkamp", 
      "lonmin": 5.686169207062574, 
      "sanName": "heltenkamp", 
      "numOfAddr": 6, 
      "lonmax": 5.686570059427439, 
      "latmin": 50.90669472634741
    }, 
    {
      "latmax": 50.892303568104055, 
      "name": "Hendrik Consciencestraat", 
      "lonmin": 5.643968183501117, 
      "sanName": "hendrikconsciencestraat", 
      "numOfAddr": 14, 
      "lonmax": 5.645276187692349, 
      "latmin": 50.89108287839034
    }, 
    {
      "latmax": 50.89445916825697, 
      "name": "Hendrik van Veldekenstraat", 
      "lonmin": 5.6352225753409195, 
      "sanName": "hendrikvanveldekenstraat", 
      "numOfAddr": 6, 
      "lonmax": 5.635887400494911, 
      "latmin": 50.89415505363332
    }, 
    {
      "latmax": 50.90149963751539, 
      "name": "Henri Dunantstraat", 
      "lonmin": 5.643546997566181, 
      "sanName": "henridunantstraat", 
      "numOfAddr": 117, 
      "lonmax": 5.65463932843312, 
      "latmin": 50.89554866919279
    }, 
    {
      "latmax": 50.912924664523004, 
      "name": "Herbricht", 
      "lonmin": 5.715544721620326, 
      "sanName": "herbricht", 
      "numOfAddr": 6, 
      "lonmax": 5.718829461500935, 
      "latmin": 50.91056903781449
    }, 
    {
      "latmax": 50.90471039024808, 
      "name": "Hermelijnpad", 
      "lonmin": 5.681451515851406, 
      "sanName": "hermelijnpad", 
      "numOfAddr": 8, 
      "lonmax": 5.68354686470205, 
      "latmin": 50.904139193276535
    }, 
    {
      "latmax": 50.859291553748186, 
      "name": "Heserhof", 
      "lonmin": 5.6261926542205645, 
      "sanName": "heserhof", 
      "numOfAddr": 5, 
      "lonmax": 5.627604247664647, 
      "latmin": 50.85898568214398
    }, 
    {
      "latmax": 50.86155921627343, 
      "name": "Heserstraat", 
      "lonmin": 5.62529192342981, 
      "sanName": "heserstraat", 
      "numOfAddr": 39, 
      "lonmax": 5.630505939662965, 
      "latmin": 50.85722715368507
    }, 
    {
      "latmax": 50.89276598205721, 
      "name": "Heuvelplein", 
      "lonmin": 5.650734094174138, 
      "sanName": "heuvelplein", 
      "numOfAddr": 3, 
      "lonmax": 5.650879325799579, 
      "latmin": 50.892235780350624
    }, 
    {
      "latmax": 50.89495047953773, 
      "name": "Heuvelstraat", 
      "lonmin": 5.648388471920348, 
      "sanName": "heuvelstraat", 
      "numOfAddr": 72, 
      "lonmax": 5.6519868122147185, 
      "latmin": 50.89160609380803
    }, 
    {
      "latmax": 50.906994324205954, 
      "name": "Hexheuvelstraat", 
      "lonmin": 5.681631778598256, 
      "sanName": "hexheuvelstraat", 
      "numOfAddr": 22, 
      "lonmax": 5.683313308224527, 
      "latmin": 50.906122951758334
    }, 
    {
      "latmax": 50.90073673233996, 
      "name": "Hocht", 
      "lonmin": 5.680533948636433, 
      "sanName": "hocht", 
      "numOfAddr": 5, 
      "lonmax": 5.687566441769895, 
      "latmin": 50.89738585866275
    }, 
    {
      "latmax": 50.90199025585891, 
      "name": "Hochter Sluishuis", 
      "lonmin": 5.682526645164327, 
      "sanName": "hochtersluishuis", 
      "numOfAddr": 1, 
      "lonmax": 5.682526645164327, 
      "latmin": 50.90199025585891
    }, 
    {
      "latmax": 50.89090801784642, 
      "name": "Hoeffaert", 
      "lonmin": 5.585099307913997, 
      "sanName": "hoeffaert", 
      "numOfAddr": 1, 
      "lonmax": 5.585099307913997, 
      "latmin": 50.89090801784642
    }, 
    {
      "latmax": 50.89539637323202, 
      "name": "Hoenderbroekstraat", 
      "lonmin": 5.633644473644172, 
      "sanName": "hoenderbroekstraat", 
      "numOfAddr": 98, 
      "lonmax": 5.643248443977179, 
      "latmin": 50.89176394840731
    }, 
    {
      "latmax": 50.86734549015327, 
      "name": "Holtstraat", 
      "lonmin": 5.626136001093729, 
      "sanName": "holtstraat", 
      "numOfAddr": 34, 
      "lonmax": 5.630141808495871, 
      "latmin": 50.86430970807108
    }, 
    {
      "latmax": 50.88694282942628, 
      "name": "Hoofreen", 
      "lonmin": 5.604402855400186, 
      "sanName": "hoofreen", 
      "numOfAddr": 38, 
      "lonmax": 5.605839431079364, 
      "latmin": 50.88415284954395
    }, 
    {
      "latmax": 50.8947498291083, 
      "name": "Houterstraat", 
      "lonmin": 5.599709352561906, 
      "sanName": "houterstraat", 
      "numOfAddr": 98, 
      "lonmax": 5.602394133568863, 
      "latmin": 50.883500445483364
    }, 
    {
      "latmax": 50.89154258763036, 
      "name": "Hubert Vranckenplein", 
      "lonmin": 5.645989136235887, 
      "sanName": "hubertvranckenplein", 
      "numOfAddr": 10, 
      "lonmax": 5.64707168282869, 
      "latmin": 50.89097529321019
    }, 
    {
      "latmax": 50.893984668158396, 
      "name": "Hugo Verrieststraat", 
      "lonmin": 5.64454645378381, 
      "sanName": "hugoverrieststraat", 
      "numOfAddr": 6, 
      "lonmax": 5.645557547171698, 
      "latmin": 50.89365254263744
    }, 
    {
      "latmax": 50.89025952712432, 
      "name": "In De Bruel", 
      "lonmin": 5.64963365794626, 
      "sanName": "indebruel", 
      "numOfAddr": 5, 
      "lonmax": 5.6502569617161305, 
      "latmin": 50.88998211367441
    }, 
    {
      "latmax": 50.855158507630556, 
      "name": "In de Marien", 
      "lonmin": 5.620094897575006, 
      "sanName": "indemarien", 
      "numOfAddr": 1, 
      "lonmax": 5.620094897575006, 
      "latmin": 50.855158507630556
    }, 
    {
      "latmax": 50.89498218940408, 
      "name": "Industrieweg", 
      "lonmin": 5.647083178384759, 
      "sanName": "industrieweg", 
      "numOfAddr": 32, 
      "lonmax": 5.674050543437836, 
      "latmin": 50.87502725385746
    }, 
    {
      "latmax": 50.88992471264103, 
      "name": "Jacob Jordaensstraat", 
      "lonmin": 5.641511691049288, 
      "sanName": "jacobjordaensstraat", 
      "numOfAddr": 4, 
      "lonmax": 5.641912912707209, 
      "latmin": 50.889205389655025
    }, 
    {
      "latmax": 50.88911303218851, 
      "name": "Jan Rosierlaan", 
      "lonmin": 5.65147498253092, 
      "sanName": "janrosierlaan", 
      "numOfAddr": 46, 
      "lonmax": 5.656388701106581, 
      "latmin": 50.88792879858581
    }, 
    {
      "latmax": 50.89196290531889, 
      "name": "Jan Van Eyckstraat", 
      "lonmin": 5.636258164559784, 
      "sanName": "janvaneyckstraat", 
      "numOfAddr": 25, 
      "lonmax": 5.640170164339504, 
      "latmin": 50.88993581357421
    }, 
    {
      "latmax": 50.90818582765305, 
      "name": "Jasmijnstraat", 
      "lonmin": 5.676582770692502, 
      "sanName": "jasmijnstraat", 
      "numOfAddr": 5, 
      "lonmax": 5.677340665121715, 
      "latmin": 50.90774203790481
    }, 
    {
      "latmax": 50.83802484480055, 
      "name": "Jonckerenhof", 
      "lonmin": 5.628254385944603, 
      "sanName": "jonckerenhof", 
      "numOfAddr": 18, 
      "lonmax": 5.6306895990879084, 
      "latmin": 50.83675551012963
    }, 
    {
      "latmax": 50.88925213162179, 
      "name": "Kanaaldijk", 
      "lonmin": 5.674969963040064, 
      "sanName": "kanaaldijk", 
      "numOfAddr": 32, 
      "lonmax": 5.680120940558855, 
      "latmin": 50.88107706299938
    }, 
    {
      "latmax": 50.87710794064978, 
      "name": "Kanaalweg", 
      "lonmin": 5.614452778205951, 
      "sanName": "kanaalweg", 
      "numOfAddr": 2, 
      "lonmax": 5.615817096482726, 
      "latmin": 50.87701284259514
    }, 
    {
      "latmax": 50.89395547285589, 
      "name": "Kanunnik Coenenstraat", 
      "lonmin": 5.635285324476304, 
      "sanName": "kanunnikcoenenstraat", 
      "numOfAddr": 20, 
      "lonmax": 5.636110130703091, 
      "latmin": 50.893405476046425
    }, 
    {
      "latmax": 50.91291601127707, 
      "name": "Kapelhofstraat", 
      "lonmin": 5.6800743471699775, 
      "sanName": "kapelhofstraat", 
      "numOfAddr": 3, 
      "lonmax": 5.680414311692051, 
      "latmin": 50.91249630091937
    }, 
    {
      "latmax": 50.909450485587136, 
      "name": "Kasteelstraat", 
      "lonmin": 5.686311980751314, 
      "sanName": "kasteelstraat", 
      "numOfAddr": 50, 
      "lonmax": 5.691084040187653, 
      "latmin": 50.905095571118984
    }, 
    {
      "latmax": 50.90901720059795, 
      "name": "Keelhoffstraat", 
      "lonmin": 5.681143519205235, 
      "sanName": "keelhoffstraat", 
      "numOfAddr": 29, 
      "lonmax": 5.68652785291487, 
      "latmin": 50.908233269394024
    }, 
    {
      "latmax": 50.885215081740775, 
      "name": "Kerkhofstraat", 
      "lonmin": 5.67658329879584, 
      "sanName": "kerkhofstraat", 
      "numOfAddr": 14, 
      "lonmax": 5.678341943521329, 
      "latmin": 50.88222403814693
    }, 
    {
      "latmax": 50.890390690899, 
      "name": "Kerkplein", 
      "lonmin": 5.650326528248656, 
      "sanName": "kerkplein", 
      "numOfAddr": 17, 
      "lonmax": 5.651977888188795, 
      "latmin": 50.889174453661006
    }, 
    {
      "latmax": 50.88555137672088, 
      "name": "Kerkstraat", 
      "lonmin": 5.604719918888497, 
      "sanName": "kerkstraat", 
      "numOfAddr": 84, 
      "lonmax": 5.614325439833706, 
      "latmin": 50.88277597123324
    }, 
    {
      "latmax": 50.8641458465916, 
      "name": "Kerkveld", 
      "lonmin": 5.63029720865453, 
      "sanName": "kerkveld", 
      "numOfAddr": 33, 
      "lonmax": 5.633691150337301, 
      "latmin": 50.861964656828505
    }, 
    {
      "latmax": 50.888109574374894, 
      "name": "Kersenweidestraat", 
      "lonmin": 5.676408286403842, 
      "sanName": "kersenweidestraat", 
      "numOfAddr": 14, 
      "lonmax": 5.677550754541886, 
      "latmin": 50.887428776627864
    }, 
    {
      "latmax": 50.84338510201395, 
      "name": "Kesseltweg", 
      "lonmin": 5.630372304762953, 
      "sanName": "kesseltweg", 
      "numOfAddr": 32, 
      "lonmax": 5.635417204014346, 
      "latmin": 50.84070268094136
    }, 
    {
      "latmax": 50.86630392476865, 
      "name": "Kessensteeg", 
      "lonmin": 5.625780851239744, 
      "sanName": "kessensteeg", 
      "numOfAddr": 6, 
      "lonmax": 5.627176613012324, 
      "latmin": 50.8659318187018
    }, 
    {
      "latmax": 50.89294614097449, 
      "name": "Keukelbeekstraat", 
      "lonmin": 5.67665307535038, 
      "sanName": "keukelbeekstraat", 
      "numOfAddr": 3, 
      "lonmax": 5.67683900134077, 
      "latmin": 50.89268045826953
    }, 
    {
      "latmax": 50.88803341286104, 
      "name": "Kewithdreef", 
      "lonmin": 5.61703037764971, 
      "sanName": "kewithdreef", 
      "numOfAddr": 16, 
      "lonmax": 5.623112817562141, 
      "latmin": 50.884171072097146
    }, 
    {
      "latmax": 50.89120880607781, 
      "name": "Kewithstraat", 
      "lonmin": 5.620472136371816, 
      "sanName": "kewithstraat", 
      "numOfAddr": 11, 
      "lonmax": 5.622785344997032, 
      "latmin": 50.88898624060897
    }, 
    {
      "latmax": 50.898596618546016, 
      "name": "Kiewitheide", 
      "lonmin": 5.622744744795774, 
      "sanName": "kiewitheide", 
      "numOfAddr": 17, 
      "lonmax": 5.625945988738799, 
      "latmin": 50.89619040369535
    }, 
    {
      "latmax": 50.879464328795585, 
      "name": "Kiezelweg", 
      "lonmin": 5.623047827741864, 
      "sanName": "kiezelweg", 
      "numOfAddr": 236, 
      "lonmax": 5.629858192610849, 
      "latmin": 50.83645387213507
    }, 
    {
      "latmax": 50.88705261280862, 
      "name": "Kleine-Hofstraat", 
      "lonmin": 5.6244881002069, 
      "sanName": "kleinehofstraat", 
      "numOfAddr": 17, 
      "lonmax": 5.627525160503131, 
      "latmin": 50.88652284930109
    }, 
    {
      "latmax": 50.862893073928525, 
      "name": "Kleine Omstraat", 
      "lonmin": 5.625600921142483, 
      "sanName": "kleineomstraat", 
      "numOfAddr": 8, 
      "lonmax": 5.626267333965806, 
      "latmin": 50.861952826251404
    }, 
    {
      "latmax": 50.896128310957685, 
      "name": "Kleine Wingerd", 
      "lonmin": 5.655852258469806, 
      "sanName": "kleinewingerd", 
      "numOfAddr": 7, 
      "lonmax": 5.657520524675606, 
      "latmin": 50.895474042488175
    }, 
    {
      "latmax": 50.88736942141235, 
      "name": "Kloosterstraat", 
      "lonmin": 5.607773412399315, 
      "sanName": "kloosterstraat", 
      "numOfAddr": 25, 
      "lonmax": 5.610770284335228, 
      "latmin": 50.88652323742281
    }, 
    {
      "latmax": 50.883815938904036, 
      "name": "Kluisstraat", 
      "lonmin": 5.675039874356605, 
      "sanName": "kluisstraat", 
      "numOfAddr": 5, 
      "lonmax": 5.67546782783314, 
      "latmin": 50.882848744163056
    }, 
    {
      "latmax": 50.87527908831837, 
      "name": "Kompveldstraat", 
      "lonmin": 5.612698169478481, 
      "sanName": "kompveldstraat", 
      "numOfAddr": 21, 
      "lonmax": 5.62376780151006, 
      "latmin": 50.869956255993706
    }, 
    {
      "latmax": 50.89767798903173, 
      "name": "Koning Albertlaan", 
      "lonmin": 5.652170681058801, 
      "sanName": "koningalbertlaan", 
      "numOfAddr": 129, 
      "lonmax": 5.671746065531679, 
      "latmin": 50.889615141258794
    }, 
    {
      "latmax": 50.891900346592614, 
      "name": "Kortestraat", 
      "lonmin": 5.650691443370724, 
      "sanName": "kortestraat", 
      "numOfAddr": 7, 
      "lonmax": 5.651192543150653, 
      "latmin": 50.89151408462409
    }, 
    {
      "latmax": 50.888351901837424, 
      "name": "Kounterstraat", 
      "lonmin": 5.6225474492838785, 
      "sanName": "kounterstraat", 
      "numOfAddr": 11, 
      "lonmax": 5.626567569311352, 
      "latmin": 50.882161249638656
    }, 
    {
      "latmax": 50.89172588454792, 
      "name": "Krieckaertlaan", 
      "lonmin": 5.597927397759697, 
      "sanName": "krieckaertlaan", 
      "numOfAddr": 1, 
      "lonmax": 5.597927397759697, 
      "latmin": 50.89172588454792
    }, 
    {
      "latmax": 50.88641787096685, 
      "name": "Kromme Weg", 
      "lonmin": 5.666179200762785, 
      "sanName": "krommeweg", 
      "numOfAddr": 20, 
      "lonmax": 5.668602987008954, 
      "latmin": 50.88426866723928
    }, 
    {
      "latmax": 50.86174613114921, 
      "name": "Kruisstraat", 
      "lonmin": 5.6284652505792945, 
      "sanName": "kruisstraat", 
      "numOfAddr": 12, 
      "lonmax": 5.629501787260628, 
      "latmin": 50.8608124158559
    }, 
    {
      "latmax": 50.87147041693388, 
      "name": "Kwartellaan", 
      "lonmin": 5.629484732847514, 
      "sanName": "kwartellaan", 
      "numOfAddr": 8, 
      "lonmax": 5.630769157968866, 
      "latmin": 50.87089487063188
    }, 
    {
      "latmax": 50.911273049714524, 
      "name": "Ladderstraat", 
      "lonmin": 5.681882841995703, 
      "sanName": "ladderstraat", 
      "numOfAddr": 62, 
      "lonmax": 5.6882846116619765, 
      "latmin": 50.90913780455296
    }, 
    {
      "latmax": 50.86567857404394, 
      "name": "Leonard Moorsstraat", 
      "lonmin": 5.621066779467268, 
      "sanName": "leonardmoorsstraat", 
      "numOfAddr": 26, 
      "lonmax": 5.624587068633075, 
      "latmin": 50.86384149165449
    }, 
    {
      "latmax": 50.90545774310751, 
      "name": "Lepelvormweg", 
      "lonmin": 5.634321690067516, 
      "sanName": "lepelvormweg", 
      "numOfAddr": 20, 
      "lonmax": 5.63738474699124, 
      "latmin": 50.9012551165587
    }, 
    {
      "latmax": 50.90757988851993, 
      "name": "Lijsterstraat", 
      "lonmin": 5.672093848777039, 
      "sanName": "lijsterstraat", 
      "numOfAddr": 18, 
      "lonmax": 5.6754583847676825, 
      "latmin": 50.90322826362824
    }, 
    {
      "latmax": 50.87007041347825, 
      "name": "Lindestraat", 
      "lonmin": 5.625523222100917, 
      "sanName": "lindestraat", 
      "numOfAddr": 118, 
      "lonmax": 5.63701256147571, 
      "latmin": 50.85997423700896
    }, 
    {
      "latmax": 50.86955667260676, 
      "name": "Loonse Bank", 
      "lonmin": 5.630366689884275, 
      "sanName": "loonsebank", 
      "numOfAddr": 9, 
      "lonmax": 5.630980914922182, 
      "latmin": 50.868588469281484
    }, 
    {
      "latmax": 50.888754995096775, 
      "name": "L. Pasteurstraat", 
      "lonmin": 5.669535642610327, 
      "sanName": "lpasteurstraat", 
      "numOfAddr": 39, 
      "lonmax": 5.6725559591393715, 
      "latmin": 50.885634054953634
    }, 
    {
      "latmax": 50.890045895792895, 
      "name": "Maasdijk", 
      "lonmin": 5.677856113596743, 
      "sanName": "maasdijk", 
      "numOfAddr": 39, 
      "lonmax": 5.6832491644851295, 
      "latmin": 50.88054055771343
    }, 
    {
      "latmax": 50.89469310351098, 
      "name": "Maaseikersteenweg", 
      "lonmin": 5.670993488369724, 
      "sanName": "maaseikersteenweg", 
      "numOfAddr": 141, 
      "lonmax": 5.674672056229156, 
      "latmin": 50.88116499497467
    }, 
    {
      "latmax": 50.89719416072096, 
      "name": "Maastrichterweg", 
      "lonmin": 5.646021690226451, 
      "sanName": "maastrichterweg", 
      "numOfAddr": 95, 
      "lonmax": 5.673000877603567, 
      "latmin": 50.88231849983048
    }, 
    {
      "latmax": 50.888000342411814, 
      "name": "Marottenhofstraat", 
      "lonmin": 5.623768321819687, 
      "sanName": "marottenhofstraat", 
      "numOfAddr": 19, 
      "lonmax": 5.627224894658534, 
      "latmin": 50.887596938788846
    }, 
    {
      "latmax": 50.88842305791873, 
      "name": "M. Curiestraat", 
      "lonmin": 5.671513424213975, 
      "sanName": "mcuriestraat", 
      "numOfAddr": 1, 
      "lonmax": 5.671513424213975, 
      "latmin": 50.88842305791873
    }, 
    {
      "latmax": 50.90566308284908, 
      "name": "Meesjesstraat", 
      "lonmin": 5.668090847842204, 
      "sanName": "meesjesstraat", 
      "numOfAddr": 12, 
      "lonmax": 5.672054832240806, 
      "latmin": 50.903820326730894
    }, 
    {
      "latmax": 50.837060231285456, 
      "name": "Meiboomstraat", 
      "lonmin": 5.627113531448078, 
      "sanName": "meiboomstraat", 
      "numOfAddr": 8, 
      "lonmax": 5.62808417066533, 
      "latmin": 50.83617111590394
    }, 
    {
      "latmax": 50.888655075229686, 
      "name": "Merckenhofstraat", 
      "lonmin": 5.625202846628024, 
      "sanName": "merckenhofstraat", 
      "numOfAddr": 10, 
      "lonmax": 5.626023317409951, 
      "latmin": 50.88798823087332
    }, 
    {
      "latmax": 50.90424648824849, 
      "name": "Merelstraat", 
      "lonmin": 5.669799438312001, 
      "sanName": "merelstraat", 
      "numOfAddr": 10, 
      "lonmax": 5.673479311003884, 
      "latmin": 50.90270281962461
    }, 
    {
      "latmax": 50.84144175631226, 
      "name": "Meulenweg", 
      "lonmin": 5.620344818620168, 
      "sanName": "meulenweg", 
      "numOfAddr": 2, 
      "lonmax": 5.624411799651413, 
      "latmin": 50.83971910687157
    }, 
    {
      "latmax": 50.92742389902776, 
      "name": "Molenbergstraat", 
      "lonmin": 5.608049018205957, 
      "sanName": "molenbergstraat", 
      "numOfAddr": 12, 
      "lonmax": 5.621429940411903, 
      "latmin": 50.92113539842677
    }, 
    {
      "latmax": 50.86175737797303, 
      "name": "Molenpoel", 
      "lonmin": 5.622134926006791, 
      "sanName": "molenpoel", 
      "numOfAddr": 7, 
      "lonmax": 5.623110744479913, 
      "latmin": 50.860662016169954
    }, 
    {
      "latmax": 50.8992476175978, 
      "name": "Molenstraat", 
      "lonmin": 5.649347408073411, 
      "sanName": "molenstraat", 
      "numOfAddr": 22, 
      "lonmax": 5.650519813565092, 
      "latmin": 50.89759636404242
    }, 
    {
      "latmax": 50.890365370699236, 
      "name": "Molenweideplein", 
      "lonmin": 5.647201300066973, 
      "sanName": "molenweideplein", 
      "numOfAddr": 28, 
      "lonmax": 5.650422803304826, 
      "latmin": 50.88846331996145
    }, 
    {
      "latmax": 50.88838130694261, 
      "name": "Molenweidestraat", 
      "lonmin": 5.645544778898305, 
      "sanName": "molenweidestraat", 
      "numOfAddr": 3, 
      "lonmax": 5.648201164887268, 
      "latmin": 50.88774489650087
    }, 
    {
      "latmax": 50.89428933797582, 
      "name": "Monseigneur Broeckxstraat", 
      "lonmin": 5.633492373339911, 
      "sanName": "monseigneurbroeckxstraat", 
      "numOfAddr": 18, 
      "lonmax": 5.634932216779521, 
      "latmin": 50.89340740318197
    }, 
    {
      "latmax": 50.89508897823967, 
      "name": "Monseigneur Cardijnstraat", 
      "lonmin": 5.634919727603135, 
      "sanName": "monseigneurcardijnstraat", 
      "numOfAddr": 21, 
      "lonmax": 5.636741242148637, 
      "latmin": 50.89394972472535
    }, 
    {
      "latmax": 50.884413213149166, 
      "name": "Montaigneweg", 
      "lonmin": 5.641717219966922, 
      "sanName": "montaigneweg", 
      "numOfAddr": 4, 
      "lonmax": 5.645249964665071, 
      "latmin": 50.881733245773994
    }, 
    {
      "latmax": 50.907468052736846, 
      "name": "Nachtegalenstraat", 
      "lonmin": 5.667322030163702, 
      "sanName": "nachtegalenstraat", 
      "numOfAddr": 11, 
      "lonmax": 5.671266982966098, 
      "latmin": 50.904922436729876
    }, 
    {
      "latmax": 50.91014959271145, 
      "name": "Neerharenweg", 
      "lonmin": 5.654618666759083, 
      "sanName": "neerharenweg", 
      "numOfAddr": 21, 
      "lonmax": 5.671957670903108, 
      "latmin": 50.901678928030904
    }, 
    {
      "latmax": 50.83869800625829, 
      "name": "Nelissenlaan", 
      "lonmin": 5.626581566758757, 
      "sanName": "nelissenlaan", 
      "numOfAddr": 3, 
      "lonmax": 5.627338998279808, 
      "latmin": 50.83813893934174
    }, 
    {
      "latmax": 50.91303234349866, 
      "name": "Nieuwe Ervenstraat", 
      "lonmin": 5.6762337334290835, 
      "sanName": "nieuweervenstraat", 
      "numOfAddr": 31, 
      "lonmax": 5.680386379803986, 
      "latmin": 50.91182669842225
    }, 
    {
      "latmax": 50.88665779219803, 
      "name": "Nijverheidslaan", 
      "lonmin": 5.661428500628802, 
      "sanName": "nijverheidslaan", 
      "numOfAddr": 34, 
      "lonmax": 5.66587842130259, 
      "latmin": 50.88457234996883
    }, 
    {
      "latmax": 50.86461784582604, 
      "name": "O.L. Vrouwestraat", 
      "lonmin": 5.629174810853418, 
      "sanName": "olvrouwestraat", 
      "numOfAddr": 23, 
      "lonmax": 5.632781667136282, 
      "latmin": 50.863624748355036
    }, 
    {
      "latmax": 50.85956363009676, 
      "name": "Omloopstraat", 
      "lonmin": 5.623690140469046, 
      "sanName": "omloopstraat", 
      "numOfAddr": 8, 
      "lonmax": 5.624543075203218, 
      "latmin": 50.85721148966555
    }, 
    {
      "latmax": 50.862320662297655, 
      "name": "Omstraat", 
      "lonmin": 5.625688427304974, 
      "sanName": "omstraat", 
      "numOfAddr": 59, 
      "lonmax": 5.634342768095733, 
      "latmin": 50.86046871966554
    }, 
    {
      "latmax": 50.89613854997338, 
      "name": "Oogstplein", 
      "lonmin": 5.651102573181236, 
      "sanName": "oogstplein", 
      "numOfAddr": 11, 
      "lonmax": 5.652356905559744, 
      "latmin": 50.89546466796374
    }, 
    {
      "latmax": 50.90027094574721, 
      "name": "Op de Ekster", 
      "lonmin": 5.654424968884762, 
      "sanName": "opdeekster", 
      "numOfAddr": 7, 
      "lonmax": 5.655059329535934, 
      "latmin": 50.89966864113876
    }, 
    {
      "latmax": 50.888990791952374, 
      "name": "Op de Puin", 
      "lonmin": 5.6270686122746385, 
      "sanName": "opdepuin", 
      "numOfAddr": 20, 
      "lonmax": 5.628694778587543, 
      "latmin": 50.8854135819552
    }, 
    {
      "latmax": 50.889933816109846, 
      "name": "Oude Heirbaan", 
      "lonmin": 5.673581409056489, 
      "sanName": "oudeheirbaan", 
      "numOfAddr": 93, 
      "lonmax": 5.677256819733855, 
      "latmin": 50.88114767612918
    }, 
    {
      "latmax": 50.91803897120971, 
      "name": "Oud Kantoorstraat", 
      "lonmin": 5.609400733038545, 
      "sanName": "oudkantoorstraat", 
      "numOfAddr": 2, 
      "lonmax": 5.60974312533524, 
      "latmin": 50.91686882370255
    }, 
    {
      "latmax": 50.89528247306616, 
      "name": "Oud Strijdersstraat", 
      "lonmin": 5.65806722814919, 
      "sanName": "oudstrijdersstraat", 
      "numOfAddr": 4, 
      "lonmax": 5.658781341301152, 
      "latmin": 50.89486274154316
    }, 
    {
      "latmax": 50.91503849856629, 
      "name": "Paalsteenlaan", 
      "lonmin": 5.668129142702301, 
      "sanName": "paalsteenlaan", 
      "numOfAddr": 74, 
      "lonmax": 5.680997943372023, 
      "latmin": 50.91060640262991
    }, 
    {
      "latmax": 50.89995747521647, 
      "name": "Panishof", 
      "lonmin": 5.6271019892591925, 
      "sanName": "panishof", 
      "numOfAddr": 8, 
      "lonmax": 5.629129447920376, 
      "latmin": 50.898951252353214
    }, 
    {
      "latmax": 50.89951483103482, 
      "name": "Pannestraat", 
      "lonmin": 5.6247632710523625, 
      "sanName": "pannestraat", 
      "numOfAddr": 143, 
      "lonmax": 5.641946108519007, 
      "latmin": 50.88643102986069
    }, 
    {
      "latmax": 50.861923279284646, 
      "name": "Papenweg", 
      "lonmin": 5.634223285803462, 
      "sanName": "papenweg", 
      "numOfAddr": 17, 
      "lonmax": 5.635644384202315, 
      "latmin": 50.85873472422358
    }, 
    {
      "latmax": 50.89897540646236, 
      "name": "Parallelstraat", 
      "lonmin": 5.650371919437461, 
      "sanName": "parallelstraat", 
      "numOfAddr": 6, 
      "lonmax": 5.651213976658738, 
      "latmin": 50.898380570270106
    }, 
    {
      "latmax": 50.87019244222122, 
      "name": "Parelhoenlaan", 
      "lonmin": 5.630966046551518, 
      "sanName": "parelhoenlaan", 
      "numOfAddr": 3, 
      "lonmax": 5.631269844731978, 
      "latmin": 50.869743458047374
    }, 
    {
      "latmax": 50.89620010087106, 
      "name": "Pastoor Cuypersstraat", 
      "lonmin": 5.634453535698561, 
      "sanName": "pastoorcuypersstraat", 
      "numOfAddr": 3, 
      "lonmax": 5.635108887909349, 
      "latmin": 50.895961461651154
    }, 
    {
      "latmax": 50.90975240452956, 
      "name": "Pastoor Houbenplein", 
      "lonmin": 5.68277219268217, 
      "sanName": "pastoorhoubenplein", 
      "numOfAddr": 10, 
      "lonmax": 5.684160722336266, 
      "latmin": 50.90932944445898
    }, 
    {
      "latmax": 50.89150664916255, 
      "name": "Pastoorslindestraat", 
      "lonmin": 5.623110916547537, 
      "sanName": "pastoorslindestraat", 
      "numOfAddr": 80, 
      "lonmax": 5.633434566195365, 
      "latmin": 50.88845605280768
    }, 
    {
      "latmax": 50.89387463395741, 
      "name": "Pastoor Smeyersstraat", 
      "lonmin": 5.633499786804752, 
      "sanName": "pastoorsmeyersstraat", 
      "numOfAddr": 6, 
      "lonmax": 5.634155126386949, 
      "latmin": 50.89357060159692
    }, 
    {
      "latmax": 50.86592721655345, 
      "name": "Pastoor Woltersplein", 
      "lonmin": 5.631380634219264, 
      "sanName": "pastoorwoltersplein", 
      "numOfAddr": 4, 
      "lonmax": 5.632011083351765, 
      "latmin": 50.86561413616432
    }, 
    {
      "latmax": 50.88962491440142, 
      "name": "Pastorijstraat", 
      "lonmin": 5.652488307689704, 
      "sanName": "pastorijstraat", 
      "numOfAddr": 6, 
      "lonmax": 5.653924374539708, 
      "latmin": 50.88907086936453
    }, 
    {
      "latmax": 50.89404554483122, 
      "name": "Pater Damiaanstraat", 
      "lonmin": 5.634507497071825, 
      "sanName": "paterdamiaanstraat", 
      "numOfAddr": 5, 
      "lonmax": 5.634990600935287, 
      "latmin": 50.89377165078015
    }, 
    {
      "latmax": 50.89522840526294, 
      "name": "Pater Pirestraat", 
      "lonmin": 5.635735590222466, 
      "sanName": "paterpirestraat", 
      "numOfAddr": 9, 
      "lonmax": 5.636299231161028, 
      "latmin": 50.89484345775837
    }, 
    {
      "latmax": 50.88558980308594, 
      "name": "Patershof", 
      "lonmin": 5.602401395461894, 
      "sanName": "patershof", 
      "numOfAddr": 37, 
      "lonmax": 5.605401332870295, 
      "latmin": 50.88373213850293
    }, 
    {
      "latmax": 50.894779760559835, 
      "name": "Pater Verbiststraat", 
      "lonmin": 5.634102711909659, 
      "sanName": "paterverbiststraat", 
      "numOfAddr": 16, 
      "lonmax": 5.634970636148493, 
      "latmin": 50.89424611851379
    }, 
    {
      "latmax": 50.87105266971784, 
      "name": "Patrijzenlaan", 
      "lonmin": 5.628672473809227, 
      "sanName": "patrijzenlaan", 
      "numOfAddr": 14, 
      "lonmax": 5.629842234386986, 
      "latmin": 50.8698183624588
    }, 
    {
      "latmax": 50.89283666130632, 
      "name": "Pieter Breughelstraat", 
      "lonmin": 5.63659388436782, 
      "sanName": "pieterbreughelstraat", 
      "numOfAddr": 19, 
      "lonmax": 5.638718908542659, 
      "latmin": 50.89100354464045
    }, 
    {
      "latmax": 50.8910209348272, 
      "name": "Pieter Paul Rubensstraat", 
      "lonmin": 5.637593144654672, 
      "sanName": "pieterpaulrubensstraat", 
      "numOfAddr": 44, 
      "lonmax": 5.642993306591134, 
      "latmin": 50.889153894021
    }, 
    {
      "latmax": 50.89976900664127, 
      "name": "Postweg", 
      "lonmin": 5.632218689117738, 
      "sanName": "postweg", 
      "numOfAddr": 58, 
      "lonmax": 5.638753450828326, 
      "latmin": 50.8941269936248
    }, 
    {
      "latmax": 50.894268973902804, 
      "name": "Priester Daensstraat", 
      "lonmin": 5.632709244194491, 
      "sanName": "priesterdaensstraat", 
      "numOfAddr": 21, 
      "lonmax": 5.634299542487344, 
      "latmin": 50.893024752164536
    }, 
    {
      "latmax": 50.902023033827184, 
      "name": "Prins Xavierdreef", 
      "lonmin": 5.675669944281319, 
      "sanName": "prinsxavierdreef", 
      "numOfAddr": 7, 
      "lonmax": 5.676417496441619, 
      "latmin": 50.90091432617518
    }, 
    {
      "latmax": 50.89554392701275, 
      "name": "Putstraat", 
      "lonmin": 5.6662951535787025, 
      "sanName": "putstraat", 
      "numOfAddr": 22, 
      "lonmax": 5.669655610260879, 
      "latmin": 50.89411598201528
    }, 
    {
      "latmax": 50.89828865617654, 
      "name": "Rankenlaan", 
      "lonmin": 5.653127031080183, 
      "sanName": "rankenlaan", 
      "numOfAddr": 28, 
      "lonmax": 5.658173395845953, 
      "latmin": 50.89576157999091
    }, 
    {
      "latmax": 50.88564681167807, 
      "name": "Rechtestraat", 
      "lonmin": 5.643093019888912, 
      "sanName": "rechtestraat", 
      "numOfAddr": 1, 
      "lonmax": 5.643093019888912, 
      "latmin": 50.88564681167807
    }, 
    {
      "latmax": 50.88833878890695, 
      "name": "Reepenhofstraat", 
      "lonmin": 5.626345096300097, 
      "sanName": "reepenhofstraat", 
      "numOfAddr": 5, 
      "lonmax": 5.626991512525847, 
      "latmin": 50.88796702270745
    }, 
    {
      "latmax": 50.8708253188228, 
      "name": "Reigerlaan", 
      "lonmin": 5.626035144965949, 
      "sanName": "reigerlaan", 
      "numOfAddr": 27, 
      "lonmax": 5.630190007283505, 
      "latmin": 50.86888820408549
    }, 
    {
      "latmax": 50.90885201729755, 
      "name": "Reistraat", 
      "lonmin": 5.672271413801361, 
      "sanName": "reistraat", 
      "numOfAddr": 44, 
      "lonmax": 5.677289575870576, 
      "latmin": 50.901525915228504
    }, 
    {
      "latmax": 50.89201915186891, 
      "name": "Rembrandtstraat", 
      "lonmin": 5.635395155858967, 
      "sanName": "rembrandtstraat", 
      "numOfAddr": 14, 
      "lonmax": 5.63653555290492, 
      "latmin": 50.890864608972514
    }, 
    {
      "latmax": 50.89860086128263, 
      "name": "Rode Kruisstraat", 
      "lonmin": 5.670547938658267, 
      "sanName": "rodekruisstraat", 
      "numOfAddr": 31, 
      "lonmax": 5.675009357577873, 
      "latmin": 50.89663093636943
    }, 
    {
      "latmax": 50.90149600617089, 
      "name": "Roelerdreef", 
      "lonmin": 5.629333487024573, 
      "sanName": "roelerdreef", 
      "numOfAddr": 11, 
      "lonmax": 5.632934492413793, 
      "latmin": 50.900557480848505
    }, 
    {
      "latmax": 50.89712929664393, 
      "name": "Roemerstraat", 
      "lonmin": 5.652138733175175, 
      "sanName": "roemerstraat", 
      "numOfAddr": 16, 
      "lonmax": 5.653705709264524, 
      "latmin": 50.89610869003362
    }, 
    {
      "latmax": 50.913657087714235, 
      "name": "Romeinendreef", 
      "lonmin": 5.6684518939515876, 
      "sanName": "romeinendreef", 
      "numOfAddr": 16, 
      "lonmax": 5.672538920604528, 
      "latmin": 50.91025551133179
    }, 
    {
      "latmax": 50.876375096803706, 
      "name": "Roosakkerstraat", 
      "lonmin": 5.628507736948882, 
      "sanName": "roosakkerstraat", 
      "numOfAddr": 17, 
      "lonmax": 5.631321498285667, 
      "latmin": 50.87519947603673
    }, 
    {
      "latmax": 50.860228027748725, 
      "name": "Rosmeerweg", 
      "lonmin": 5.60853489551355, 
      "sanName": "rosmeerweg", 
      "numOfAddr": 21, 
      "lonmax": 5.616032226426575, 
      "latmin": 50.857971901725264
    }, 
    {
      "latmax": 50.908869990202774, 
      "name": "Rozenlaan", 
      "lonmin": 5.677309347507409, 
      "sanName": "rozenlaan", 
      "numOfAddr": 20, 
      "lonmax": 5.678277277284881, 
      "latmin": 50.906587347544736
    }, 
    {
      "latmax": 50.882809801882075, 
      "name": "Rozenwei", 
      "lonmin": 5.599310074768794, 
      "sanName": "rozenwei", 
      "numOfAddr": 5, 
      "lonmax": 5.601411065916589, 
      "latmin": 50.8823961508603
    }, 
    {
      "latmax": 50.89928942933673, 
      "name": "Rozijnenstraat", 
      "lonmin": 5.654400403826538, 
      "sanName": "rozijnenstraat", 
      "numOfAddr": 34, 
      "lonmax": 5.657955118053098, 
      "latmin": 50.89799782882276
    }, 
    {
      "latmax": 50.883896440401294, 
      "name": "Sapstraat", 
      "lonmin": 5.676783388536501, 
      "sanName": "sapstraat", 
      "numOfAddr": 28, 
      "lonmax": 5.678161638627157, 
      "latmin": 50.88169287935541
    }, 
    {
      "latmax": 50.885164298809194, 
      "name": "Schippersstraat", 
      "lonmin": 5.675212066132555, 
      "sanName": "schippersstraat", 
      "numOfAddr": 13, 
      "lonmax": 5.676496278902662, 
      "latmin": 50.88466420574854
    }, 
    {
      "latmax": 50.887814911486586, 
      "name": "Schumanplein", 
      "lonmin": 5.649723382796282, 
      "sanName": "schumanplein", 
      "numOfAddr": 4, 
      "lonmax": 5.649865176499805, 
      "latmin": 50.88770853102325
    }, 
    {
      "latmax": 50.9100964026781, 
      "name": "Schuttershofstraat", 
      "lonmin": 5.672687705134101, 
      "sanName": "schuttershofstraat", 
      "numOfAddr": 30, 
      "lonmax": 5.6795902921542005, 
      "latmin": 50.908874149818594
    }, 
    {
      "latmax": 50.905745293210465, 
      "name": "Seringenstraat", 
      "lonmin": 5.676621736214054, 
      "sanName": "seringenstraat", 
      "numOfAddr": 17, 
      "lonmax": 5.678275295701066, 
      "latmin": 50.90442719622266
    }, 
    {
      "latmax": 50.90624103164175, 
      "name": "Sijsjesstraat", 
      "lonmin": 5.6654424457344446, 
      "sanName": "sijsjesstraat", 
      "numOfAddr": 3, 
      "lonmax": 5.6664966564345285, 
      "latmin": 50.90546903283082
    }, 
    {
      "latmax": 50.86369593635258, 
      "name": "Sint Antoniussteeg", 
      "lonmin": 5.620851012843486, 
      "sanName": "sintantoniussteeg", 
      "numOfAddr": 13, 
      "lonmax": 5.621817215310845, 
      "latmin": 50.86272177947544
    }, 
    {
      "latmax": 50.83923876350451, 
      "name": "Sint-Michielsstraat", 
      "lonmin": 5.626212414383734, 
      "sanName": "sintmichielsstraat", 
      "numOfAddr": 41, 
      "lonmax": 5.631229399563528, 
      "latmin": 50.837035919002744
    }, 
    {
      "latmax": 50.8943034051194, 
      "name": "Sint Servaasplein", 
      "lonmin": 5.634721072245956, 
      "sanName": "sintservaasplein", 
      "numOfAddr": 4, 
      "lonmax": 5.635492058088277, 
      "latmin": 50.893928175115704
    }, 
    {
      "latmax": 50.88527629358139, 
      "name": "Sluishuis", 
      "lonmin": 5.65482526357817, 
      "sanName": "sluishuis", 
      "numOfAddr": 1, 
      "lonmax": 5.65482526357817, 
      "latmin": 50.88527629358139
    }, 
    {
      "latmax": 50.88636428460566, 
      "name": "Smeermaasstraat", 
      "lonmin": 5.675162761015873, 
      "sanName": "smeermaasstraat", 
      "numOfAddr": 25, 
      "lonmax": 5.6769618250207365, 
      "latmin": 50.88534028907993
    }, 
    {
      "latmax": 50.89531553048677, 
      "name": "Smeetsstraat", 
      "lonmin": 5.619894601648555, 
      "sanName": "smeetsstraat", 
      "numOfAddr": 49, 
      "lonmax": 5.626746730322273, 
      "latmin": 50.88947398768722
    }, 
    {
      "latmax": 50.842674553904125, 
      "name": "Smisstraat", 
      "lonmin": 5.626272348654639, 
      "sanName": "smisstraat", 
      "numOfAddr": 44, 
      "lonmax": 5.634208668683237, 
      "latmin": 50.837746249829564
    }, 
    {
      "latmax": 50.870916352839465, 
      "name": "Spechtlaan", 
      "lonmin": 5.629609679198946, 
      "sanName": "spechtlaan", 
      "numOfAddr": 16, 
      "lonmax": 5.631323547884514, 
      "latmin": 50.86969644480405
    }, 
    {
      "latmax": 50.8716282451048, 
      "name": "Sperwerlaan", 
      "lonmin": 5.627380434740566, 
      "sanName": "sperwerlaan", 
      "numOfAddr": 11, 
      "lonmax": 5.62894977954976, 
      "latmin": 50.87075593301172
    }, 
    {
      "latmax": 50.88708167639681, 
      "name": "Spoorwegstraat", 
      "lonmin": 5.648155643850726, 
      "sanName": "spoorwegstraat", 
      "numOfAddr": 9, 
      "lonmax": 5.649286345324699, 
      "latmin": 50.88661285497982
    }, 
    {
      "latmax": 50.89748225028191, 
      "name": "Sportstraat", 
      "lonmin": 5.661196363280195, 
      "sanName": "sportstraat", 
      "numOfAddr": 2, 
      "lonmax": 5.661368269875653, 
      "latmin": 50.897383267764
    }, 
    {
      "latmax": 50.840992012327405, 
      "name": "Spouwerstraat", 
      "lonmin": 5.625951410697074, 
      "sanName": "spouwerstraat", 
      "numOfAddr": 17, 
      "lonmax": 5.629517154059466, 
      "latmin": 50.83972613973039
    }, 
    {
      "latmax": 50.90370339941333, 
      "name": "Sprokkelstraat", 
      "lonmin": 5.6482550181720415, 
      "sanName": "sprokkelstraat", 
      "numOfAddr": 33, 
      "lonmax": 5.653644837738718, 
      "latmin": 50.90069513570916
    }, 
    {
      "latmax": 50.91264215745794, 
      "name": "Staatsbaan", 
      "lonmin": 5.679145710357079, 
      "sanName": "staatsbaan", 
      "numOfAddr": 67, 
      "lonmax": 5.68280731826691, 
      "latmin": 50.90601614113748
    }, 
    {
      "latmax": 50.88900583317442, 
      "name": "Stationsstraat", 
      "lonmin": 5.6376060659787885, 
      "sanName": "stationsstraat", 
      "numOfAddr": 138, 
      "lonmax": 5.651669785005998, 
      "latmin": 50.88476889785623
    }, 
    {
      "latmax": 50.88644867394415, 
      "name": "St. Augustinusstraat", 
      "lonmin": 5.6074730022814965, 
      "sanName": "staugustinusstraat", 
      "numOfAddr": 39, 
      "lonmax": 5.610629296908184, 
      "latmin": 50.8842454151886
    }, 
    {
      "latmax": 50.89235512878684, 
      "name": "Steegstraat", 
      "lonmin": 5.629086222927705, 
      "sanName": "steegstraat", 
      "numOfAddr": 28, 
      "lonmax": 5.632467170912721, 
      "latmin": 50.8906901117777
    }, 
    {
      "latmax": 50.901629647569344, 
      "name": "Steenselbergweg", 
      "lonmin": 5.639577182477604, 
      "sanName": "steenselbergweg", 
      "numOfAddr": 41, 
      "lonmax": 5.64461066546344, 
      "latmin": 50.89766795581326
    }, 
    {
      "latmax": 50.921350675382186, 
      "name": "Steenweg", 
      "lonmin": 5.685046521234613, 
      "sanName": "steenweg", 
      "numOfAddr": 1, 
      "lonmax": 5.685046521234613, 
      "latmin": 50.921350675382186
    }, 
    {
      "latmax": 50.89290855139236, 
      "name": "Stijn Streuvelsstraat", 
      "lonmin": 5.644047329164859, 
      "sanName": "stijnstreuvelsstraat", 
      "numOfAddr": 7, 
      "lonmax": 5.644647044509441, 
      "latmin": 50.89246872820885
    }, 
    {
      "latmax": 50.88737425592529, 
      "name": "St. Laurentiusstraat", 
      "lonmin": 5.610770974737148, 
      "sanName": "stlaurentiusstraat", 
      "numOfAddr": 35, 
      "lonmax": 5.6127558890150535, 
      "latmin": 50.88498368059218
    }, 
    {
      "latmax": 50.86349807174261, 
      "name": "Strodorp", 
      "lonmin": 5.612687454154444, 
      "sanName": "strodorp", 
      "numOfAddr": 87, 
      "lonmax": 5.624773672888694, 
      "latmin": 50.8607350486497
    }, 
    {
      "latmax": 50.88737137378594, 
      "name": "Tichelovenstraat", 
      "lonmin": 5.676043198035382, 
      "sanName": "tichelovenstraat", 
      "numOfAddr": 20, 
      "lonmax": 5.677263686889811, 
      "latmin": 50.88654537769216
    }, 
    {
      "latmax": 50.883101673774775, 
      "name": "Tongersesteenweg", 
      "lonmin": 5.632374274387036, 
      "sanName": "tongersesteenweg", 
      "numOfAddr": 19, 
      "lonmax": 5.636587357009277, 
      "latmin": 50.88101731325789
    }, 
    {
      "latmax": 50.90559573544598, 
      "name": "Tournebride", 
      "lonmin": 5.6756051706437045, 
      "sanName": "tournebride", 
      "numOfAddr": 35, 
      "lonmax": 5.679402247904923, 
      "latmin": 50.897972985949124
    }, 
    {
      "latmax": 50.89705556865261, 
      "name": "Trossenhof", 
      "lonmin": 5.655842595444512, 
      "sanName": "trossenhof", 
      "numOfAddr": 9, 
      "lonmax": 5.656878503785235, 
      "latmin": 50.896389532397585
    }, 
    {
      "latmax": 50.87243459133784, 
      "name": "Valkenlaan", 
      "lonmin": 5.626370551009633, 
      "sanName": "valkenlaan", 
      "numOfAddr": 18, 
      "lonmax": 5.627946140089768, 
      "latmin": 50.87101115073764
    }, 
    {
      "latmax": 50.91202111892588, 
      "name": "Van Kerckemstraat", 
      "lonmin": 5.674518197833652, 
      "sanName": "vankerckemstraat", 
      "numOfAddr": 19, 
      "lonmax": 5.676213273757454, 
      "latmin": 50.90972208656713
    }, 
    {
      "latmax": 50.897565830353614, 
      "name": "Vatstraat", 
      "lonmin": 5.657497045237529, 
      "sanName": "vatstraat", 
      "numOfAddr": 8, 
      "lonmax": 5.65845390155142, 
      "latmin": 50.89697003718228
    }, 
    {
      "latmax": 50.907020894281686, 
      "name": "Verbindingslaan", 
      "lonmin": 5.676471495991683, 
      "sanName": "verbindingslaan", 
      "numOfAddr": 13, 
      "lonmax": 5.6788120301124225, 
      "latmin": 50.90563931982943
    }, 
    {
      "latmax": 50.88832034794886, 
      "name": "Veugenlaan", 
      "lonmin": 5.67437144751624, 
      "sanName": "veugenlaan", 
      "numOfAddr": 4, 
      "lonmax": 5.6757181010227145, 
      "latmin": 50.888182808481865
    }, 
    {
      "latmax": 50.89077604030548, 
      "name": "Vincent Van Goghstraat", 
      "lonmin": 5.639379438863298, 
      "sanName": "vincentvangoghstraat", 
      "numOfAddr": 10, 
      "lonmax": 5.6402952556977315, 
      "latmin": 50.889774616164836
    }, 
    {
      "latmax": 50.83757094675039, 
      "name": "Vlijtingerweg", 
      "lonmin": 5.626430218982452, 
      "sanName": "vlijtingerweg", 
      "numOfAddr": 17, 
      "lonmax": 5.633690666629061, 
      "latmin": 50.83598030620663
    }, 
    {
      "latmax": 50.88863325017763, 
      "name": "Vlootgracht", 
      "lonmin": 5.601208462603373, 
      "sanName": "vlootgracht", 
      "numOfAddr": 39, 
      "lonmax": 5.606489416133487, 
      "latmin": 50.886826356780645
    }, 
    {
      "latmax": 50.905487939219476, 
      "name": "Vossenpad", 
      "lonmin": 5.6793796834091275, 
      "sanName": "vossenpad", 
      "numOfAddr": 15, 
      "lonmax": 5.681202899489983, 
      "latmin": 50.90291805557149
    }, 
    {
      "latmax": 50.896241677115704, 
      "name": "Vrijheidsstraat", 
      "lonmin": 5.65691569542793, 
      "sanName": "vrijheidsstraat", 
      "numOfAddr": 6, 
      "lonmax": 5.658470524093513, 
      "latmin": 50.89576786296151
    }, 
    {
      "latmax": 50.90210992566935, 
      "name": "Waterstraat", 
      "lonmin": 5.65355316318512, 
      "sanName": "waterstraat", 
      "numOfAddr": 110, 
      "lonmax": 5.66588936503458, 
      "latmin": 50.894678310584396
    }, 
    {
      "latmax": 50.90584311558446, 
      "name": "Wezelpad", 
      "lonmin": 5.680541815676998, 
      "sanName": "wezelpad", 
      "numOfAddr": 5, 
      "lonmax": 5.682140928030692, 
      "latmin": 50.90554691734454
    }, 
    {
      "latmax": 50.882240898539415, 
      "name": "Wijerdijk", 
      "lonmin": 5.606233262335345, 
      "sanName": "wijerdijk", 
      "numOfAddr": 36, 
      "lonmax": 5.6102036675052975, 
      "latmin": 50.879346252932685
    }, 
    {
      "latmax": 50.90016415360492, 
      "name": "Wijngaardstraat", 
      "lonmin": 5.646809968557387, 
      "sanName": "wijngaardstraat", 
      "numOfAddr": 125, 
      "lonmax": 5.656496836027148, 
      "latmin": 50.89318220899331
    }, 
    {
      "latmax": 50.89583287895781, 
      "name": "Wijnstokstraat", 
      "lonmin": 5.650543876970237, 
      "sanName": "wijnstokstraat", 
      "numOfAddr": 12, 
      "lonmax": 5.653355650594422, 
      "latmin": 50.89459197154728
    }, 
    {
      "latmax": 50.87156306948608, 
      "name": "Winevenstraat", 
      "lonmin": 5.630747390183308, 
      "sanName": "winevenstraat", 
      "numOfAddr": 22, 
      "lonmax": 5.633347259416275, 
      "latmin": 50.86785166786832
    }, 
    {
      "latmax": 50.88879574472258, 
      "name": "Winkelstraat", 
      "lonmin": 5.648605375789595, 
      "sanName": "winkelstraat", 
      "numOfAddr": 16, 
      "lonmax": 5.649404969829669, 
      "latmin": 50.888240906800874
    }, 
    {
      "latmax": 50.8942428950877, 
      "name": "Winningerstraat", 
      "lonmin": 5.662530249856557, 
      "sanName": "winningerstraat", 
      "numOfAddr": 26, 
      "lonmax": 5.664660007598888, 
      "latmin": 50.8910996736838
    }, 
    {
      "latmax": 50.88690638945795, 
      "name": "Wolfstraat", 
      "lonmin": 5.662773846172938, 
      "sanName": "wolfstraat", 
      "numOfAddr": 5, 
      "lonmax": 5.664604427731598, 
      "latmin": 50.8860673922656
    }, 
    {
      "latmax": 50.892117914337994, 
      "name": "Zandstraat", 
      "lonmin": 5.6303478671641605, 
      "sanName": "zandstraat", 
      "numOfAddr": 3, 
      "lonmax": 5.63083915088479, 
      "latmin": 50.89190149384374
    }, 
    {
      "latmax": 50.88554420293045, 
      "name": "Zavelstraat", 
      "lonmin": 5.6144907391937435, 
      "sanName": "zavelstraat", 
      "numOfAddr": 20, 
      "lonmax": 5.617484208282762, 
      "latmin": 50.88363399243746
    }, 
    {
      "latmax": 50.89178339472387, 
      "name": "Zilverdennenlaan", 
      "lonmin": 5.600849051066046, 
      "sanName": "zilverdennenlaan", 
      "numOfAddr": 53, 
      "lonmax": 5.60708551130804, 
      "latmin": 50.888650255316634
    }
  ]
}