{
  "streets": [
    {
      "latmax": 51.02289273698333, 
      "name": "1 Meilaan", 
      "lonmin": 5.700762176499986, 
      "sanName": "1meilaan", 
      "numOfAddr": 22, 
      "lonmax": 5.706750938006053, 
      "latmin": 51.022233385466635
    }, 
    {
      "latmax": 51.051886632112634, 
      "name": "Allemansweg", 
      "lonmin": 5.714542936669162, 
      "sanName": "allemansweg", 
      "numOfAddr": 51, 
      "lonmax": 5.732791053630378, 
      "latmin": 51.047091966067725
    }, 
    {
      "latmax": 51.02008654906454, 
      "name": "Arnold-Sauwenlaan", 
      "lonmin": 5.72883730212612, 
      "sanName": "arnoldsauwenlaan", 
      "numOfAddr": 96, 
      "lonmax": 5.742077432158651, 
      "latmin": 51.0183695104129
    }, 
    {
      "latmax": 51.041559824827324, 
      "name": "A. Rodenbachstraat", 
      "lonmin": 5.7142595946837655, 
      "sanName": "arodenbachstraat", 
      "numOfAddr": 29, 
      "lonmax": 5.71598904049371, 
      "latmin": 51.04054168220112
    }, 
    {
      "latmax": 51.03996924973996, 
      "name": "Bakkershoefstraat", 
      "lonmin": 5.7055481201739795, 
      "sanName": "bakkershoefstraat", 
      "numOfAddr": 53, 
      "lonmax": 5.71029176161596, 
      "latmin": 51.03741893988246
    }, 
    {
      "latmax": 51.03698822490747, 
      "name": "Baron de Rosenweg", 
      "lonmin": 5.731285293985826, 
      "sanName": "baronderosenweg", 
      "numOfAddr": 15, 
      "lonmax": 5.731911604075178, 
      "latmin": 51.03617929631445
    }, 
    {
      "latmax": 51.02400911448937, 
      "name": "Bautshoefstraat", 
      "lonmin": 5.7006679906522075, 
      "sanName": "bautshoefstraat", 
      "numOfAddr": 26, 
      "lonmax": 5.70885885659789, 
      "latmin": 51.022860636830934
    }, 
    {
      "latmax": 51.01505186868332, 
      "name": "Bekaertlaan", 
      "lonmin": 5.695488276474946, 
      "sanName": "bekaertlaan", 
      "numOfAddr": 11, 
      "lonmax": 5.710752528206242, 
      "latmin": 51.01225817220921
    }, 
    {
      "latmax": 51.01789529967425, 
      "name": "Bellikstraat", 
      "lonmin": 5.721649668435213, 
      "sanName": "bellikstraat", 
      "numOfAddr": 26, 
      "lonmax": 5.724866659962147, 
      "latmin": 51.01686466523055
    }, 
    {
      "latmax": 51.02194102690283, 
      "name": "Belzerstraat", 
      "lonmin": 5.744428196117337, 
      "sanName": "belzerstraat", 
      "numOfAddr": 8, 
      "lonmax": 5.745520850993909, 
      "latmin": 51.02133398114488
    }, 
    {
      "latmax": 51.06586681178583, 
      "name": "Bergerkampstraat", 
      "lonmin": 5.752939859464644, 
      "sanName": "bergerkampstraat", 
      "numOfAddr": 51, 
      "lonmax": 5.76011225168094, 
      "latmin": 51.063907076346304
    }, 
    {
      "latmax": 51.01513067913418, 
      "name": "Berkenlaan", 
      "lonmin": 5.6481791406521085, 
      "sanName": "berkenlaan", 
      "numOfAddr": 12, 
      "lonmax": 5.6502010610539815, 
      "latmin": 51.014155402900876
    }, 
    {
      "latmax": 51.04989828966999, 
      "name": "Bessenstraat", 
      "lonmin": 5.710380819583289, 
      "sanName": "bessenstraat", 
      "numOfAddr": 3, 
      "lonmax": 5.7146780218500295, 
      "latmin": 51.04977918961359
    }, 
    {
      "latmax": 51.00929117971316, 
      "name": "Beukenstraat", 
      "lonmin": 5.658328314233813, 
      "sanName": "beukenstraat", 
      "numOfAddr": 27, 
      "lonmax": 5.662872857440315, 
      "latmin": 51.00627302613343
    }, 
    {
      "latmax": 51.05646374850919, 
      "name": "Biesestraat", 
      "lonmin": 5.71781205633182, 
      "sanName": "biesestraat", 
      "numOfAddr": 1, 
      "lonmax": 5.71781205633182, 
      "latmin": 51.05646374850919
    }, 
    {
      "latmax": 51.033920645229045, 
      "name": "Bloemendaal", 
      "lonmin": 5.7294747388540035, 
      "sanName": "bloemendaal", 
      "numOfAddr": 20, 
      "lonmax": 5.731933417011567, 
      "latmin": 51.03294540150037
    }, 
    {
      "latmax": 51.03584263429368, 
      "name": "Boekweitstraat", 
      "lonmin": 5.71250639231606, 
      "sanName": "boekweitstraat", 
      "numOfAddr": 32, 
      "lonmax": 5.713988049074257, 
      "latmin": 51.033436065402675
    }, 
    {
      "latmax": 51.00770843730395, 
      "name": "Bonekamp", 
      "lonmin": 5.71940967376556, 
      "sanName": "bonekamp", 
      "numOfAddr": 11, 
      "lonmax": 5.720644928587812, 
      "latmin": 51.0068653158029
    }, 
    {
      "latmax": 51.03459090864145, 
      "name": "Borreshoefstraat", 
      "lonmin": 5.707012363327905, 
      "sanName": "borreshoefstraat", 
      "numOfAddr": 132, 
      "lonmax": 5.72754839942582, 
      "latmin": 51.03014034704032
    }, 
    {
      "latmax": 51.019639063794465, 
      "name": "Boslaan", 
      "lonmin": 5.634872118818578, 
      "sanName": "boslaan", 
      "numOfAddr": 31, 
      "lonmax": 5.707312926744202, 
      "latmin": 51.008422987847496
    }, 
    {
      "latmax": 51.021437504091644, 
      "name": "Botermarkt", 
      "lonmin": 5.744362431789471, 
      "sanName": "botermarkt", 
      "numOfAddr": 18, 
      "lonmax": 5.745521932423119, 
      "latmin": 51.02087239664869
    }, 
    {
      "latmax": 51.0351234175355, 
      "name": "Boyen", 
      "lonmin": 5.750917138900693, 
      "sanName": "boyen", 
      "numOfAddr": 31, 
      "lonmax": 5.75553421482821, 
      "latmin": 51.03199210976937
    }, 
    {
      "latmax": 51.02885250808329, 
      "name": "Boyerweg", 
      "lonmin": 5.750063741870356, 
      "sanName": "boyerweg", 
      "numOfAddr": 8, 
      "lonmax": 5.752141677228469, 
      "latmin": 51.026119779443185
    }, 
    {
      "latmax": 51.019380569022985, 
      "name": "Brammert", 
      "lonmin": 5.737708281184108, 
      "sanName": "brammert", 
      "numOfAddr": 57, 
      "lonmax": 5.742011531756809, 
      "latmin": 51.01635002396428
    }, 
    {
      "latmax": 51.01894959850214, 
      "name": "Brammertstraatje", 
      "lonmin": 5.740547526685938, 
      "sanName": "brammertstraatje", 
      "numOfAddr": 27, 
      "lonmax": 5.7416707920473815, 
      "latmin": 51.01380352779938
    }, 
    {
      "latmax": 51.07405673683537, 
      "name": "Breemstraat", 
      "lonmin": 5.756764006283294, 
      "sanName": "breemstraat", 
      "numOfAddr": 33, 
      "lonmax": 5.758866687470807, 
      "latmin": 51.069150341710134
    }, 
    {
      "latmax": 51.0120394618629, 
      "name": "Bresilstraat", 
      "lonmin": 5.717614542661242, 
      "sanName": "bresilstraat", 
      "numOfAddr": 54, 
      "lonmax": 5.721414119774179, 
      "latmin": 51.00924510466793
    }, 
    {
      "latmax": 51.023694912282366, 
      "name": "Broekhofstraat", 
      "lonmin": 5.720511129690218, 
      "sanName": "broekhofstraat", 
      "numOfAddr": 39, 
      "lonmax": 5.724313845893288, 
      "latmin": 51.0196537135317
    }, 
    {
      "latmax": 51.057616890379144, 
      "name": "Brugstraat", 
      "lonmin": 5.706327212280302, 
      "sanName": "brugstraat", 
      "numOfAddr": 12, 
      "lonmax": 5.709429167403363, 
      "latmin": 51.05730753386606
    }, 
    {
      "latmax": 51.021969092572476, 
      "name": "Brugwachterskade", 
      "lonmin": 5.7173058187387635, 
      "sanName": "brugwachterskade", 
      "numOfAddr": 2, 
      "lonmax": 5.718896794056922, 
      "latmin": 51.020891673015605
    }, 
    {
      "latmax": 51.06765595386174, 
      "name": "Burg. Henrylaan", 
      "lonmin": 5.7278216070645005, 
      "sanName": "burghenrylaan", 
      "numOfAddr": 150, 
      "lonmax": 5.734647304961051, 
      "latmin": 51.05279353858643
    }, 
    {
      "latmax": 51.05401369069447, 
      "name": "Burg. Prevotlaan", 
      "lonmin": 5.733979654784237, 
      "sanName": "burgprevotlaan", 
      "numOfAddr": 37, 
      "lonmax": 5.749244310471461, 
      "latmin": 51.02280060676293
    }, 
    {
      "latmax": 51.017578226814386, 
      "name": "Concertplein", 
      "lonmin": 5.729383473728364, 
      "sanName": "concertplein", 
      "numOfAddr": 7, 
      "lonmax": 5.730387669192824, 
      "latmin": 51.016669691105825
    }, 
    {
      "latmax": 51.01836581686569, 
      "name": "Daalderdijk", 
      "lonmin": 5.744841788610449, 
      "sanName": "daalderdijk", 
      "numOfAddr": 16, 
      "lonmax": 5.749192786513874, 
      "latmin": 51.010406961399696
    }, 
    {
      "latmax": 51.06882277407221, 
      "name": "Daalweg", 
      "lonmin": 5.7701362365316315, 
      "sanName": "daalweg", 
      "numOfAddr": 1, 
      "lonmax": 5.7701362365316315, 
      "latmin": 51.06882277407221
    }, 
    {
      "latmax": 51.06485141740802, 
      "name": "Damiaan", 
      "lonmin": 5.79641510428059, 
      "sanName": "damiaan", 
      "numOfAddr": 1, 
      "lonmax": 5.79641510428059, 
      "latmin": 51.06485141740802
    }, 
    {
      "latmax": 51.053013265677365, 
      "name": "de Schiervellaan", 
      "lonmin": 5.742275465109285, 
      "sanName": "deschiervellaan", 
      "numOfAddr": 41, 
      "lonmax": 5.749235294239714, 
      "latmin": 51.046709733343526
    }, 
    {
      "latmax": 51.003998276522104, 
      "name": "De Wieke Tuin", 
      "lonmin": 5.722942397119481, 
      "sanName": "dewieketuin", 
      "numOfAddr": 3, 
      "lonmax": 5.723788630556596, 
      "latmin": 51.003532547790805
    }, 
    {
      "latmax": 51.03729738487527, 
      "name": "Dijkweg", 
      "lonmin": 5.698179592258802, 
      "sanName": "dijkweg", 
      "numOfAddr": 32, 
      "lonmax": 5.703938236295091, 
      "latmin": 51.03576896791909
    }, 
    {
      "latmax": 51.07208385984048, 
      "name": "Donkelstraat", 
      "lonmin": 5.744392296129395, 
      "sanName": "donkelstraat", 
      "numOfAddr": 1, 
      "lonmax": 5.744392296129395, 
      "latmin": 51.07208385984048
    }, 
    {
      "latmax": 51.01121571552633, 
      "name": "Dopheidestraat", 
      "lonmin": 5.6483062578172705, 
      "sanName": "dopheidestraat", 
      "numOfAddr": 17, 
      "lonmax": 5.651593911659425, 
      "latmin": 51.0104495094618
    }, 
    {
      "latmax": 51.02081354414291, 
      "name": "Dorpsstraat", 
      "lonmin": 5.720000373119374, 
      "sanName": "dorpsstraat", 
      "numOfAddr": 70, 
      "lonmax": 5.728615462808353, 
      "latmin": 51.01823482055069
    }, 
    {
      "latmax": 51.010564858801665, 
      "name": "Drie Eikenweg", 
      "lonmin": 5.661911558959597, 
      "sanName": "drieeikenweg", 
      "numOfAddr": 6, 
      "lonmax": 5.663295714136729, 
      "latmin": 51.006919401260014
    }, 
    {
      "latmax": 51.036522585555694, 
      "name": "Driepaal", 
      "lonmin": 5.664996014701365, 
      "sanName": "driepaal", 
      "numOfAddr": 5, 
      "lonmax": 5.668089604842233, 
      "latmin": 51.03496329399066
    }, 
    {
      "latmax": 51.035793071464575, 
      "name": "Driepaalhoeveweg", 
      "lonmin": 5.697954197690804, 
      "sanName": "driepaalhoeveweg", 
      "numOfAddr": 36, 
      "lonmax": 5.704192710279443, 
      "latmin": 51.034001821794
    }, 
    {
      "latmax": 51.02169548243388, 
      "name": "Dr. Lenstralaan", 
      "lonmin": 5.698592604806432, 
      "sanName": "drlenstralaan", 
      "numOfAddr": 31, 
      "lonmax": 5.709106434719811, 
      "latmin": 51.02082530701009
    }, 
    {
      "latmax": 51.03149576471875, 
      "name": "Eburonenlaan", 
      "lonmin": 5.734132767803694, 
      "sanName": "eburonenlaan", 
      "numOfAddr": 14, 
      "lonmax": 5.736112415894932, 
      "latmin": 51.03091113463725
    }, 
    {
      "latmax": 51.0679551519701, 
      "name": "Eekhoornlaan", 
      "lonmin": 5.712048269273955, 
      "sanName": "eekhoornlaan", 
      "numOfAddr": 69, 
      "lonmax": 5.726958644064627, 
      "latmin": 51.06456309697198
    }, 
    {
      "latmax": 51.05225338930223, 
      "name": "Eindestraat", 
      "lonmin": 5.704692482325485, 
      "sanName": "eindestraat", 
      "numOfAddr": 94, 
      "lonmax": 5.731370314957987, 
      "latmin": 51.05047108583559
    }, 
    {
      "latmax": 51.05686975418838, 
      "name": "Ekselstraat", 
      "lonmin": 5.721527322473696, 
      "sanName": "ekselstraat", 
      "numOfAddr": 3, 
      "lonmax": 5.722338358347005, 
      "latmin": 51.05623196342115
    }, 
    {
      "latmax": 51.00469124508571, 
      "name": "Eksterveldweg", 
      "lonmin": 5.7186436046058065, 
      "sanName": "eksterveldweg", 
      "numOfAddr": 26, 
      "lonmax": 5.723788296859149, 
      "latmin": 51.003301272711795
    }, 
    {
      "latmax": 51.0087218487691, 
      "name": "Elzenstraat", 
      "lonmin": 5.719941169110889, 
      "sanName": "elzenstraat", 
      "numOfAddr": 28, 
      "lonmax": 5.721634240735218, 
      "latmin": 51.007709117498365
    }, 
    {
      "latmax": 51.05486814075087, 
      "name": "Emiel Dorlaan", 
      "lonmin": 5.716539061015143, 
      "sanName": "emieldorlaan", 
      "numOfAddr": 60, 
      "lonmax": 5.731392982044751, 
      "latmin": 51.052621006859304
    }, 
    {
      "latmax": 51.05199241497214, 
      "name": "Energielaan", 
      "lonmin": 5.693792058780124, 
      "sanName": "energielaan", 
      "numOfAddr": 2, 
      "lonmax": 5.699631637848581, 
      "latmin": 51.0502424963625
    }, 
    {
      "latmax": 51.03463343207703, 
      "name": "Erteveld", 
      "lonmin": 5.69961072739976, 
      "sanName": "erteveld", 
      "numOfAddr": 49, 
      "lonmax": 5.70391060379629, 
      "latmin": 51.03195108926587
    }, 
    {
      "latmax": 51.00877699400979, 
      "name": "Essenstraat", 
      "lonmin": 5.722226555796246, 
      "sanName": "essenstraat", 
      "numOfAddr": 12, 
      "lonmax": 5.723261648888656, 
      "latmin": 51.00809495201701
    }, 
    {
      "latmax": 51.040220976128325, 
      "name": "Europalaan", 
      "lonmin": 5.683958243312333, 
      "sanName": "europalaan", 
      "numOfAddr": 130, 
      "lonmax": 5.728697566325329, 
      "latmin": 51.03570944436839
    }, 
    {
      "latmax": 51.01813816067358, 
      "name": "Flaasweg", 
      "lonmin": 5.720719740786784, 
      "sanName": "flaasweg", 
      "numOfAddr": 2, 
      "lonmax": 5.720961973432828, 
      "latmin": 51.017825107124764
    }, 
    {
      "latmax": 51.008104993901384, 
      "name": "Fuutstraat", 
      "lonmin": 5.63714214690887, 
      "sanName": "fuutstraat", 
      "numOfAddr": 3, 
      "lonmax": 5.638080458721723, 
      "latmin": 51.007797469391534
    }, 
    {
      "latmax": 51.01127988844649, 
      "name": "Gagelstraat", 
      "lonmin": 5.718139605028698, 
      "sanName": "gagelstraat", 
      "numOfAddr": 13, 
      "lonmax": 5.719531788561575, 
      "latmin": 51.0104418456152
    }, 
    {
      "latmax": 51.0225654288936, 
      "name": "Gallestraat", 
      "lonmin": 5.745117022631701, 
      "sanName": "gallestraat", 
      "numOfAddr": 19, 
      "lonmax": 5.746107561177006, 
      "latmin": 51.021605615363065
    }, 
    {
      "latmax": 51.01411767604824, 
      "name": "Gaspeldoornstraat", 
      "lonmin": 5.691176707456739, 
      "sanName": "gaspeldoornstraat", 
      "numOfAddr": 7, 
      "lonmax": 5.693705030513483, 
      "latmin": 51.01299072758284
    }, 
    {
      "latmax": 51.025432263689424, 
      "name": "Gerstenbosweg", 
      "lonmin": 5.708225712298063, 
      "sanName": "gerstenbosweg", 
      "numOfAddr": 6, 
      "lonmax": 5.71013775910797, 
      "latmin": 51.023902896113164
    }, 
    {
      "latmax": 51.03464350801181, 
      "name": "Gerststraat", 
      "lonmin": 5.713306871977707, 
      "sanName": "gerststraat", 
      "numOfAddr": 15, 
      "lonmax": 5.715233206716146, 
      "latmin": 51.03407168151177
    }, 
    {
      "latmax": 51.013083532355566, 
      "name": "Geverslaan", 
      "lonmin": 5.721085911357054, 
      "sanName": "geverslaan", 
      "numOfAddr": 44, 
      "lonmax": 5.72521120207625, 
      "latmin": 51.01015861444872
    }, 
    {
      "latmax": 51.01049876609101, 
      "name": "Grenenbosweg", 
      "lonmin": 5.717577651903871, 
      "sanName": "grenenbosweg", 
      "numOfAddr": 7, 
      "lonmax": 5.718649360000623, 
      "latmin": 51.00986755964997
    }, 
    {
      "latmax": 51.03260879772581, 
      "name": "Groene Weg", 
      "lonmin": 5.72672794440493, 
      "sanName": "groeneweg", 
      "numOfAddr": 1, 
      "lonmax": 5.72672794440493, 
      "latmin": 51.03260879772581
    }, 
    {
      "latmax": 51.013618192650505, 
      "name": "Groenstraat", 
      "lonmin": 5.717739469038063, 
      "sanName": "groenstraat", 
      "numOfAddr": 39, 
      "lonmax": 5.724473801329302, 
      "latmin": 51.01052009492937
    }, 
    {
      "latmax": 51.03427416967765, 
      "name": "Gruisweg", 
      "lonmin": 5.735538634822813, 
      "sanName": "gruisweg", 
      "numOfAddr": 4, 
      "lonmax": 5.736698143350076, 
      "latmin": 51.03395019264261
    }, 
    {
      "latmax": 51.011805470107326, 
      "name": "G. Simenonlaan", 
      "lonmin": 5.719242725470694, 
      "sanName": "gsimenonlaan", 
      "numOfAddr": 12, 
      "lonmax": 5.720793579158724, 
      "latmin": 51.01125755263457
    }, 
    {
      "latmax": 51.02702035148526, 
      "name": "Haagdoorn", 
      "lonmin": 5.727729757129813, 
      "sanName": "haagdoorn", 
      "numOfAddr": 14, 
      "lonmax": 5.728845915053372, 
      "latmin": 51.02569800027873
    }, 
    {
      "latmax": 51.05388402593241, 
      "name": "Haagstraat", 
      "lonmin": 5.731526092359385, 
      "sanName": "haagstraat", 
      "numOfAddr": 54, 
      "lonmax": 5.7374198975211, 
      "latmin": 51.0516818736379
    }, 
    {
      "latmax": 51.01609760764837, 
      "name": "Harmonielaan", 
      "lonmin": 5.729162961974539, 
      "sanName": "harmonielaan", 
      "numOfAddr": 8, 
      "lonmax": 5.731112615623281, 
      "latmin": 51.01565379095915
    }, 
    {
      "latmax": 51.035286652715534, 
      "name": "Haverstraat", 
      "lonmin": 5.716080655988663, 
      "sanName": "haverstraat", 
      "numOfAddr": 28, 
      "lonmax": 5.720420382465818, 
      "latmin": 51.03454501650532
    }, 
    {
      "latmax": 51.007290367890626, 
      "name": "Havikstraat", 
      "lonmin": 5.638502552865675, 
      "sanName": "havikstraat", 
      "numOfAddr": 22, 
      "lonmax": 5.6403230040609476, 
      "latmin": 51.00541136504473
    }, 
    {
      "latmax": 51.04446614654323, 
      "name": "Hazekamp", 
      "lonmin": 5.720311261334103, 
      "sanName": "hazekamp", 
      "numOfAddr": 12, 
      "lonmax": 5.721216876282516, 
      "latmin": 51.04289162045596
    }, 
    {
      "latmax": 51.00533799002271, 
      "name": "H. Dunantstraat", 
      "lonmin": 5.72024956176935, 
      "sanName": "hdunantstraat", 
      "numOfAddr": 7, 
      "lonmax": 5.721149614511164, 
      "latmin": 51.00482153543929
    }, 
    {
      "latmax": 51.06424882069702, 
      "name": "Heerstraat", 
      "lonmin": 5.7467857210908875, 
      "sanName": "heerstraat", 
      "numOfAddr": 8, 
      "lonmax": 5.750256856531901, 
      "latmin": 51.05936676315568
    }, 
    {
      "latmax": 51.03103840324899, 
      "name": "Heideweg", 
      "lonmin": 5.7011847671679785, 
      "sanName": "heideweg", 
      "numOfAddr": 18, 
      "lonmax": 5.703943434074798, 
      "latmin": 51.03040117924658
    }, 
    {
      "latmax": 51.04149776265487, 
      "name": "Heilderveld", 
      "lonmin": 5.718272877273777, 
      "sanName": "heilderveld", 
      "numOfAddr": 32, 
      "lonmax": 5.729009668921013, 
      "latmin": 51.037817435608844
    }, 
    {
      "latmax": 51.031471233924314, 
      "name": "Heimeersweg", 
      "lonmin": 5.711795747764965, 
      "sanName": "heimeersweg", 
      "numOfAddr": 7, 
      "lonmax": 5.713071675337316, 
      "latmin": 51.03051859861229
    }, 
    {
      "latmax": 51.07853470461549, 
      "name": "Heirbaan", 
      "lonmin": 5.751873678829466, 
      "sanName": "heirbaan", 
      "numOfAddr": 94, 
      "lonmax": 5.758581299898025, 
      "latmin": 51.06942820867197
    }, 
    {
      "latmax": 51.038288864325324, 
      "name": "Het Getske", 
      "lonmin": 5.7164627715754905, 
      "sanName": "hetgetske", 
      "numOfAddr": 10, 
      "lonmax": 5.717002633136736, 
      "latmin": 51.03787314995444
    }, 
    {
      "latmax": 51.04692912295576, 
      "name": "Heulentakstraat", 
      "lonmin": 5.692859951511652, 
      "sanName": "heulentakstraat", 
      "numOfAddr": 9, 
      "lonmax": 5.7016874937134565, 
      "latmin": 51.04240293560953
    }, 
    {
      "latmax": 51.01650478774786, 
      "name": "Heuvelsven", 
      "lonmin": 5.648440436422327, 
      "sanName": "heuvelsven", 
      "numOfAddr": 1, 
      "lonmax": 5.648440436422327, 
      "latmin": 51.01650478774786
    }, 
    {
      "latmax": 51.01553867515894, 
      "name": "Heuvelsvenlaan", 
      "lonmin": 5.646916451514461, 
      "sanName": "heuvelsvenlaan", 
      "numOfAddr": 40, 
      "lonmax": 5.647959276150513, 
      "latmin": 51.01032819902263
    }, 
    {
      "latmax": 51.04106405949658, 
      "name": "Hoefkamp", 
      "lonmin": 5.7118258434748, 
      "sanName": "hoefkamp", 
      "numOfAddr": 78, 
      "lonmax": 5.7145016677969895, 
      "latmin": 51.0391411045198
    }, 
    {
      "latmax": 51.00412340771937, 
      "name": "Hoeveweg", 
      "lonmin": 5.632357448384844, 
      "sanName": "hoeveweg", 
      "numOfAddr": 19, 
      "lonmax": 5.652857288221605, 
      "latmin": 51.002570755648826
    }, 
    {
      "latmax": 51.05906182226956, 
      "name": "Hoogbaan", 
      "lonmin": 5.72892916773786, 
      "sanName": "hoogbaan", 
      "numOfAddr": 179, 
      "lonmax": 5.744947091368196, 
      "latmin": 51.037992221926054
    }, 
    {
      "latmax": 51.01262377589531, 
      "name": "Hoogveenstraat", 
      "lonmin": 5.6484653517885475, 
      "sanName": "hoogveenstraat", 
      "numOfAddr": 7, 
      "lonmax": 5.650106800743084, 
      "latmin": 51.01215802728212
    }, 
    {
      "latmax": 51.01098688603683, 
      "name": "IQ-Parklaan", 
      "lonmin": 5.71079227973032, 
      "sanName": "iqparklaan", 
      "numOfAddr": 11, 
      "lonmax": 5.71195306436908, 
      "latmin": 51.008912876971564
    }, 
    {
      "latmax": 51.06123936061371, 
      "name": "Kanaalstraat", 
      "lonmin": 5.698773308651235, 
      "sanName": "kanaalstraat", 
      "numOfAddr": 11, 
      "lonmax": 5.700805500634592, 
      "latmin": 51.053432795027554
    }, 
    {
      "latmax": 51.059308217637735, 
      "name": "Kantonsweg", 
      "lonmin": 5.7082364768130915, 
      "sanName": "kantonsweg", 
      "numOfAddr": 193, 
      "lonmax": 5.719760659270449, 
      "latmin": 51.03871079554566
    }, 
    {
      "latmax": 51.07597159480816, 
      "name": "Kanunnik J. Coenenstraat", 
      "lonmin": 5.754775849915543, 
      "sanName": "kanunnikjcoenenstraat", 
      "numOfAddr": 17, 
      "lonmax": 5.756656986373067, 
      "latmin": 51.07525279909509
    }, 
    {
      "latmax": 51.065733529348535, 
      "name": "Kapelhof", 
      "lonmin": 5.750954807104433, 
      "sanName": "kapelhof", 
      "numOfAddr": 31, 
      "lonmax": 5.753452637880077, 
      "latmin": 51.06473384083829
    }, 
    {
      "latmax": 51.02009041255869, 
      "name": "Kapelstraat", 
      "lonmin": 5.728134997187322, 
      "sanName": "kapelstraat", 
      "numOfAddr": 148, 
      "lonmax": 5.738208978204283, 
      "latmin": 51.002590360202746
    }, 
    {
      "latmax": 51.04005617558745, 
      "name": "Kastanjeboomlaan", 
      "lonmin": 5.7163151675822155, 
      "sanName": "kastanjeboomlaan", 
      "numOfAddr": 9, 
      "lonmax": 5.716863179880218, 
      "latmin": 51.03963379076936
    }, 
    {
      "latmax": 51.07228091669473, 
      "name": "Kasteeldreef", 
      "lonmin": 5.746516371674833, 
      "sanName": "kasteeldreef", 
      "numOfAddr": 40, 
      "lonmax": 5.751655746648279, 
      "latmin": 51.0690617420176
    }, 
    {
      "latmax": 51.020870667877965, 
      "name": "Kasteelstraat", 
      "lonmin": 5.746085018212891, 
      "sanName": "kasteelstraat", 
      "numOfAddr": 12, 
      "lonmax": 5.747147133026942, 
      "latmin": 51.020551143590694
    }, 
    {
      "latmax": 51.07551418418826, 
      "name": "Keizerskamp", 
      "lonmin": 5.76733664344074, 
      "sanName": "keizerskamp", 
      "numOfAddr": 4, 
      "lonmax": 5.769601713571206, 
      "latmin": 51.07443554331972
    }, 
    {
      "latmax": 51.05198638107631, 
      "name": "Kempenstraat", 
      "lonmin": 5.737730745710785, 
      "sanName": "kempenstraat", 
      "numOfAddr": 59, 
      "lonmax": 5.747259149258012, 
      "latmin": 51.04990287341571
    }, 
    {
      "latmax": 51.01964192669647, 
      "name": "Kerkhofstraat", 
      "lonmin": 5.727165891916972, 
      "sanName": "kerkhofstraat", 
      "numOfAddr": 9, 
      "lonmax": 5.727759310473428, 
      "latmin": 51.0187762827618
    }, 
    {
      "latmax": 51.06636553049776, 
      "name": "Kerkstraat", 
      "lonmin": 5.758218421167871, 
      "sanName": "kerkstraat", 
      "numOfAddr": 13, 
      "lonmax": 5.759359410086532, 
      "latmin": 51.06556088206255
    }, 
    {
      "latmax": 51.03438479332914, 
      "name": "Kerkvoetpad", 
      "lonmin": 5.730500569308125, 
      "sanName": "kerkvoetpad", 
      "numOfAddr": 1, 
      "lonmax": 5.730500569308125, 
      "latmin": 51.03438479332914
    }, 
    {
      "latmax": 51.020344198809525, 
      "name": "Kersenweg", 
      "lonmin": 5.727191805260494, 
      "sanName": "kersenweg", 
      "numOfAddr": 15, 
      "lonmax": 5.729824164701475, 
      "latmin": 51.01927953389827
    }, 
    {
      "latmax": 51.03246868041275, 
      "name": "Keyertstraat", 
      "lonmin": 5.706834596566835, 
      "sanName": "keyertstraat", 
      "numOfAddr": 25, 
      "lonmax": 5.711397753320409, 
      "latmin": 51.03181209311659
    }, 
    {
      "latmax": 51.02210934332626, 
      "name": "Kiekenstraat", 
      "lonmin": 5.7469593860077035, 
      "sanName": "kiekenstraat", 
      "numOfAddr": 5, 
      "lonmax": 5.7477369291206575, 
      "latmin": 51.02179910350043
    }, 
    {
      "latmax": 51.0060197484256, 
      "name": "Klauwierstraat", 
      "lonmin": 5.636936794449694, 
      "sanName": "klauwierstraat", 
      "numOfAddr": 22, 
      "lonmax": 5.6394949184120255, 
      "latmin": 51.00449016733567
    }, 
    {
      "latmax": 51.061532063113724, 
      "name": "Klaverstraat", 
      "lonmin": 5.712290277061101, 
      "sanName": "klaverstraat", 
      "numOfAddr": 66, 
      "lonmax": 5.730881232291224, 
      "latmin": 51.05524871986661
    }, 
    {
      "latmax": 51.053407421995466, 
      "name": "Kloosterpark", 
      "lonmin": 5.735568066624018, 
      "sanName": "kloosterpark", 
      "numOfAddr": 15, 
      "lonmax": 5.737220501638643, 
      "latmin": 51.05257547449119
    }, 
    {
      "latmax": 51.06689096652355, 
      "name": "Kloosterstraat", 
      "lonmin": 5.756074187951309, 
      "sanName": "kloosterstraat", 
      "numOfAddr": 14, 
      "lonmax": 5.75717598909498, 
      "latmin": 51.0657508612317
    }, 
    {
      "latmax": 51.02584008818446, 
      "name": "Koeweerd", 
      "lonmin": 5.74408564206886, 
      "sanName": "koeweerd", 
      "numOfAddr": 73, 
      "lonmax": 5.748777753779079, 
      "latmin": 51.023042812784844
    }, 
    {
      "latmax": 51.04235836002519, 
      "name": "Kolderstraat", 
      "lonmin": 5.711670129639392, 
      "sanName": "kolderstraat", 
      "numOfAddr": 71, 
      "lonmax": 5.717204166316426, 
      "latmin": 51.04076726131225
    }, 
    {
      "latmax": 51.030767817866206, 
      "name": "Kommelstraat", 
      "lonmin": 5.735113406540167, 
      "sanName": "kommelstraat", 
      "numOfAddr": 11, 
      "lonmax": 5.736519672230602, 
      "latmin": 51.029866390031344
    }, 
    {
      "latmax": 51.03534039888755, 
      "name": "Koning Boudewijnplein", 
      "lonmin": 5.7255339426885525, 
      "sanName": "koningboudewijnplein", 
      "numOfAddr": 3, 
      "lonmax": 5.725866058927485, 
      "latmin": 51.03484119152805
    }, 
    {
      "latmax": 51.01645903190694, 
      "name": "Koppelstraat", 
      "lonmin": 5.72111629561909, 
      "sanName": "koppelstraat", 
      "numOfAddr": 60, 
      "lonmax": 5.7325637044292, 
      "latmin": 51.0139387950198
    }, 
    {
      "latmax": 51.008165215132564, 
      "name": "Korhoenstraat", 
      "lonmin": 5.637019746611271, 
      "sanName": "korhoenstraat", 
      "numOfAddr": 25, 
      "lonmax": 5.640565290363955, 
      "latmin": 51.00638908780929
    }, 
    {
      "latmax": 51.034995258555, 
      "name": "Korte Steeg", 
      "lonmin": 5.736126142159632, 
      "sanName": "kortesteeg", 
      "numOfAddr": 4, 
      "lonmax": 5.736709387160986, 
      "latmin": 51.03456144409493
    }, 
    {
      "latmax": 51.017320673388845, 
      "name": "Korversstraat", 
      "lonmin": 5.742503221226995, 
      "sanName": "korversstraat", 
      "numOfAddr": 18, 
      "lonmax": 5.745088086447744, 
      "latmin": 51.016415488255156
    }, 
    {
      "latmax": 51.074404258823364, 
      "name": "Krekeldries", 
      "lonmin": 5.720898885627895, 
      "sanName": "krekeldries", 
      "numOfAddr": 33, 
      "lonmax": 5.75493158024525, 
      "latmin": 51.00695967449257
    }, 
    {
      "latmax": 51.075192333999254, 
      "name": "Kriekelsheuvel", 
      "lonmin": 5.754246099104471, 
      "sanName": "kriekelsheuvel", 
      "numOfAddr": 15, 
      "lonmax": 5.755249206503114, 
      "latmin": 51.07434724584973
    }, 
    {
      "latmax": 51.06819724648439, 
      "name": "Kromstraat", 
      "lonmin": 5.758527806574942, 
      "sanName": "kromstraat", 
      "numOfAddr": 13, 
      "lonmax": 5.759481067186663, 
      "latmin": 51.067079705280904
    }, 
    {
      "latmax": 51.061746743189985, 
      "name": "Kropstraat", 
      "lonmin": 5.750090913071889, 
      "sanName": "kropstraat", 
      "numOfAddr": 1, 
      "lonmax": 5.750090913071889, 
      "latmin": 51.061746743189985
    }, 
    {
      "latmax": 51.04330979491919, 
      "name": "Kruishoefstraat", 
      "lonmin": 5.690588420232678, 
      "sanName": "kruishoefstraat", 
      "numOfAddr": 27, 
      "lonmax": 5.702869365649961, 
      "latmin": 51.040717160525965
    }, 
    {
      "latmax": 51.01837255200779, 
      "name": "Kruisstraat", 
      "lonmin": 5.726674951123721, 
      "sanName": "kruisstraat", 
      "numOfAddr": 2, 
      "lonmax": 5.72693944142872, 
      "latmin": 51.01785964486708
    }, 
    {
      "latmax": 51.06801073586902, 
      "name": "Kruisveldstraat", 
      "lonmin": 5.740570091758008, 
      "sanName": "kruisveldstraat", 
      "numOfAddr": 45, 
      "lonmax": 5.749058192095402, 
      "latmin": 51.064938846942326
    }, 
    {
      "latmax": 51.01558018673283, 
      "name": "Kruisvenlaan", 
      "lonmin": 5.6483290378804165, 
      "sanName": "kruisvenlaan", 
      "numOfAddr": 49, 
      "lonmax": 5.651272757370218, 
      "latmin": 51.01098380084441
    }, 
    {
      "latmax": 51.001805043063136, 
      "name": "Kuilenweg", 
      "lonmin": 5.727350985149217, 
      "sanName": "kuilenweg", 
      "numOfAddr": 8, 
      "lonmax": 5.72792397130275, 
      "latmin": 51.00065278330768
    }, 
    {
      "latmax": 51.065691666129084, 
      "name": "Kwavenstraat", 
      "lonmin": 5.7237057193998995, 
      "sanName": "kwavenstraat", 
      "numOfAddr": 51, 
      "lonmax": 5.729098327462657, 
      "latmin": 51.061360823327874
    }, 
    {
      "latmax": 51.06523422894446, 
      "name": "Laakstraat", 
      "lonmin": 5.75736910356088, 
      "sanName": "laakstraat", 
      "numOfAddr": 13, 
      "lonmax": 5.7594704810720945, 
      "latmin": 51.0642501996049
    }, 
    {
      "latmax": 51.06695812425602, 
      "name": "Langerijnsweg", 
      "lonmin": 5.76674903146972, 
      "sanName": "langerijnsweg", 
      "numOfAddr": 2, 
      "lonmax": 5.768370351345265, 
      "latmin": 51.06631825355591
    }, 
    {
      "latmax": 51.023294806886064, 
      "name": "Langs de Graaf", 
      "lonmin": 5.7402172778146605, 
      "sanName": "langsdegraaf", 
      "numOfAddr": 6, 
      "lonmax": 5.743083329689044, 
      "latmin": 51.02069587134606
    }, 
    {
      "latmax": 51.068725419112916, 
      "name": "Langstraat", 
      "lonmin": 5.752770090168154, 
      "sanName": "langstraat", 
      "numOfAddr": 80, 
      "lonmax": 5.764410351029107, 
      "latmin": 51.06266898795343
    }, 
    {
      "latmax": 51.03823099590701, 
      "name": "Lemmenshoefstraat", 
      "lonmin": 5.710588777856658, 
      "sanName": "lemmenshoefstraat", 
      "numOfAddr": 60, 
      "lonmax": 5.71241893497229, 
      "latmin": 51.03238330957088
    }, 
    {
      "latmax": 51.037768509750705, 
      "name": "Leymveld", 
      "lonmin": 5.7308133653706115, 
      "sanName": "leymveld", 
      "numOfAddr": 9, 
      "lonmax": 5.731861592313801, 
      "latmin": 51.03736704746429
    }, 
    {
      "latmax": 51.04055388536595, 
      "name": "Lichtstraat", 
      "lonmin": 5.714354295392701, 
      "sanName": "lichtstraat", 
      "numOfAddr": 38, 
      "lonmax": 5.717189476769655, 
      "latmin": 51.03936270935497
    }, 
    {
      "latmax": 51.02354295750883, 
      "name": "Lieve Moenssenslaan", 
      "lonmin": 5.686191255045798, 
      "sanName": "lievemoenssenslaan", 
      "numOfAddr": 2, 
      "lonmax": 5.689919917134634, 
      "latmin": 51.02341385846406
    }, 
    {
      "latmax": 51.06689736241645, 
      "name": "Lijsterlaan", 
      "lonmin": 5.726639147225512, 
      "sanName": "lijsterlaan", 
      "numOfAddr": 19, 
      "lonmax": 5.72870777259638, 
      "latmin": 51.065507873177815
    }, 
    {
      "latmax": 51.009128769578005, 
      "name": "Lissenstraat", 
      "lonmin": 5.721372307351353, 
      "sanName": "lissenstraat", 
      "numOfAddr": 16, 
      "lonmax": 5.722763277243946, 
      "latmin": 51.00851847490149
    }, 
    {
      "latmax": 51.01617052787759, 
      "name": "Litzberg", 
      "lonmin": 5.717452973554439, 
      "sanName": "litzberg", 
      "numOfAddr": 11, 
      "lonmax": 5.719832016757005, 
      "latmin": 51.015225883216665
    }, 
    {
      "latmax": 51.04331859584283, 
      "name": "Lodderkuil", 
      "lonmin": 5.710253781177863, 
      "sanName": "lodderkuil", 
      "numOfAddr": 56, 
      "lonmax": 5.711854601664492, 
      "latmin": 51.04161650922316
    }, 
    {
      "latmax": 51.0236302446474, 
      "name": "Maasstraat", 
      "lonmin": 5.74420622149614, 
      "sanName": "maasstraat", 
      "numOfAddr": 48, 
      "lonmax": 5.746792658956477, 
      "latmin": 51.02231926194585
    }, 
    {
      "latmax": 51.01675109652306, 
      "name": "Mandenstraat", 
      "lonmin": 5.743807684563039, 
      "sanName": "mandenstraat", 
      "numOfAddr": 10, 
      "lonmax": 5.744649385913374, 
      "latmin": 51.016086128192434
    }, 
    {
      "latmax": 51.03704309406268, 
      "name": "Ma\u008bsstraat", 
      "lonmin": 5.715839193483396, 
      "sanName": "masstraat", 
      "numOfAddr": 33, 
      "lonmax": 5.717847288713866, 
      "latmin": 51.03512564210562
    }, 
    {
      "latmax": 51.02273202595544, 
      "name": "Medaerstraat", 
      "lonmin": 5.7472360501852515, 
      "sanName": "medaerstraat", 
      "numOfAddr": 39, 
      "lonmax": 5.749912124411439, 
      "latmin": 51.02191512101845
    }, 
    {
      "latmax": 51.01710923124854, 
      "name": "Meerkensstraat", 
      "lonmin": 5.690939298328344, 
      "sanName": "meerkensstraat", 
      "numOfAddr": 29, 
      "lonmax": 5.700105711833157, 
      "latmin": 51.01319437920852
    }, 
    {
      "latmax": 51.015845637715685, 
      "name": "Melodielaan", 
      "lonmin": 5.728330476101157, 
      "sanName": "melodielaan", 
      "numOfAddr": 2, 
      "lonmax": 5.728576681714704, 
      "latmin": 51.015456045502
    }, 
    {
      "latmax": 51.06870712740115, 
      "name": "Merellaan", 
      "lonmin": 5.725049121011464, 
      "sanName": "merellaan", 
      "numOfAddr": 12, 
      "lonmax": 5.725919188767657, 
      "latmin": 51.067323376384586
    }, 
    {
      "latmax": 51.022712915691876, 
      "name": "Middenstraat", 
      "lonmin": 5.744616334431168, 
      "sanName": "middenstraat", 
      "numOfAddr": 12, 
      "lonmax": 5.745343661902975, 
      "latmin": 51.02179403170662
    }, 
    {
      "latmax": 51.02384109193855, 
      "name": "Modelstad", 
      "lonmin": 5.708921652611672, 
      "sanName": "modelstad", 
      "numOfAddr": 30, 
      "lonmax": 5.710279312095269, 
      "latmin": 51.02044452113287
    }, 
    {
      "latmax": 51.0180221625841, 
      "name": "Molenveld", 
      "lonmin": 5.74943828353461, 
      "sanName": "molenveld", 
      "numOfAddr": 73, 
      "lonmax": 5.7656319726240985, 
      "latmin": 51.0116767574224
    }, 
    {
      "latmax": 51.058333135049615, 
      "name": "Molenweg", 
      "lonmin": 5.7327933257075445, 
      "sanName": "molenweg", 
      "numOfAddr": 37, 
      "lonmax": 5.742225075991903, 
      "latmin": 51.05537197168626
    }, 
    {
      "latmax": 51.072199751828705, 
      "name": "Mortelveldstraat", 
      "lonmin": 5.7547056189050405, 
      "sanName": "mortelveldstraat", 
      "numOfAddr": 32, 
      "lonmax": 5.755840866045192, 
      "latmin": 51.06835758833512
    }, 
    {
      "latmax": 51.02310835911821, 
      "name": "Mr. Dreesenstraat", 
      "lonmin": 5.719329008217385, 
      "sanName": "mrdreesenstraat", 
      "numOfAddr": 14, 
      "lonmax": 5.72096720338314, 
      "latmin": 51.022207965025544
    }, 
    {
      "latmax": 51.03996813390003, 
      "name": "M. Stansstraat", 
      "lonmin": 5.733014223357493, 
      "sanName": "mstansstraat", 
      "numOfAddr": 40, 
      "lonmax": 5.735237857718904, 
      "latmin": 51.035584342566615
    }, 
    {
      "latmax": 51.00678663323649, 
      "name": "Mulheim", 
      "lonmin": 5.7144404331173915, 
      "sanName": "mulheim", 
      "numOfAddr": 49, 
      "lonmax": 5.719932821821076, 
      "latmin": 51.00300349101258
    }, 
    {
      "latmax": 51.068826641516765, 
      "name": "Nachtegaallaan", 
      "lonmin": 5.715050499944495, 
      "sanName": "nachtegaallaan", 
      "numOfAddr": 78, 
      "lonmax": 5.724983487159497, 
      "latmin": 51.06513779201448
    }, 
    {
      "latmax": 51.02317089853083, 
      "name": "Negenoordlaan", 
      "lonmin": 5.749210910657391, 
      "sanName": "negenoordlaan", 
      "numOfAddr": 2, 
      "lonmax": 5.749814344288154, 
      "latmin": 51.02290542769485
    }, 
    {
      "latmax": 51.020023735527666, 
      "name": "Nieuwe Weerd", 
      "lonmin": 5.750982745809677, 
      "sanName": "nieuweweerd", 
      "numOfAddr": 25, 
      "lonmax": 5.751858550721244, 
      "latmin": 51.01810915295711
    }, 
    {
      "latmax": 51.01784096195207, 
      "name": "Nieuwstraat", 
      "lonmin": 5.720209435683351, 
      "sanName": "nieuwstraat", 
      "numOfAddr": 53, 
      "lonmax": 5.725612553126124, 
      "latmin": 51.012922224597546
    }, 
    {
      "latmax": 51.03298415859083, 
      "name": "Nijssenweg", 
      "lonmin": 5.714796055268659, 
      "sanName": "nijssenweg", 
      "numOfAddr": 7, 
      "lonmax": 5.716340992534612, 
      "latmin": 51.02624848654906
    }, 
    {
      "latmax": 51.020272898439266, 
      "name": "Nijverheidslaan", 
      "lonmin": 5.708244260056272, 
      "sanName": "nijverheidslaan", 
      "numOfAddr": 19, 
      "lonmax": 5.713514277176987, 
      "latmin": 51.016601957285104
    }, 
    {
      "latmax": 51.00757996554641, 
      "name": "Noteborn", 
      "lonmin": 5.71652316968948, 
      "sanName": "noteborn", 
      "numOfAddr": 98, 
      "lonmax": 5.720374855266847, 
      "latmin": 51.005608261443655
    }, 
    {
      "latmax": 51.01962623201044, 
      "name": "Onder de Bergen", 
      "lonmin": 5.699290413768759, 
      "sanName": "onderdebergen", 
      "numOfAddr": 22, 
      "lonmax": 5.705843413256405, 
      "latmin": 51.01843291556639
    }, 
    {
      "latmax": 51.024984058546934, 
      "name": "Ondernemerspark", 
      "lonmin": 5.723932304461581, 
      "sanName": "ondernemerspark", 
      "numOfAddr": 28, 
      "lonmax": 5.72578264162203, 
      "latmin": 51.021970637922784
    }, 
    {
      "latmax": 51.063499645365276, 
      "name": "Oostwal", 
      "lonmin": 5.752671996384002, 
      "sanName": "oostwal", 
      "numOfAddr": 7, 
      "lonmax": 5.753242475442189, 
      "latmin": 51.06184392607716
    }, 
    {
      "latmax": 51.03653238800159, 
      "name": "Op de Bekker", 
      "lonmin": 5.709063913645702, 
      "sanName": "opdebekker", 
      "numOfAddr": 30, 
      "lonmax": 5.71081125625712, 
      "latmin": 51.03444925632201
    }, 
    {
      "latmax": 51.01932682006828, 
      "name": "Oude Baan", 
      "lonmin": 5.714712534438247, 
      "sanName": "oudebaan", 
      "numOfAddr": 103, 
      "lonmax": 5.723921529228261, 
      "latmin": 51.00695604310908
    }, 
    {
      "latmax": 51.033057203526404, 
      "name": "Oude Brouwerijstraat", 
      "lonmin": 5.734626423906145, 
      "sanName": "oudebrouwerijstraat", 
      "numOfAddr": 4, 
      "lonmax": 5.735585792405577, 
      "latmin": 51.03233748050471
    }, 
    {
      "latmax": 51.037557025245746, 
      "name": "Oude Brugstraat", 
      "lonmin": 5.705759039075923, 
      "sanName": "oudebrugstraat", 
      "numOfAddr": 16, 
      "lonmax": 5.707671713350329, 
      "latmin": 51.03615955067265
    }, 
    {
      "latmax": 51.03680928337668, 
      "name": "Oude-Kerkstraat", 
      "lonmin": 5.730490997869284, 
      "sanName": "oudekerkstraat", 
      "numOfAddr": 60, 
      "lonmax": 5.736043088185108, 
      "latmin": 51.03307740960466
    }, 
    {
      "latmax": 51.02186900151961, 
      "name": "Oude-Maasstraat", 
      "lonmin": 5.749622109911461, 
      "sanName": "oudemaasstraat", 
      "numOfAddr": 11, 
      "lonmax": 5.7500564011091555, 
      "latmin": 51.02087851458505
    }, 
    {
      "latmax": 51.04522058349006, 
      "name": "Pannenhuisstraat", 
      "lonmin": 5.697246012623453, 
      "sanName": "pannenhuisstraat", 
      "numOfAddr": 43, 
      "lonmax": 5.7013776281717785, 
      "latmin": 51.03485063834801
    }, 
    {
      "latmax": 51.072388468215905, 
      "name": "Past.J.Hendrikxstraat", 
      "lonmin": 5.755339947777276, 
      "sanName": "pastjhendrikxstraat", 
      "numOfAddr": 35, 
      "lonmax": 5.757309586357511, 
      "latmin": 51.06908092342551
    }, 
    {
      "latmax": 51.05488071713834, 
      "name": "Pastoorstraat", 
      "lonmin": 5.743514573024675, 
      "sanName": "pastoorstraat", 
      "numOfAddr": 34, 
      "lonmax": 5.748756856058036, 
      "latmin": 51.052511839373366
    }, 
    {
      "latmax": 51.03306579033007, 
      "name": "Platte Lindenberg", 
      "lonmin": 5.691802111612987, 
      "sanName": "plattelindenberg", 
      "numOfAddr": 2, 
      "lonmax": 5.69347016757265, 
      "latmin": 51.032395938403084
    }, 
    {
      "latmax": 51.020676371156064, 
      "name": "Poelstraat", 
      "lonmin": 5.7462217203515555, 
      "sanName": "poelstraat", 
      "numOfAddr": 11, 
      "lonmax": 5.746662258013711, 
      "latmin": 51.020208209070255
    }, 
    {
      "latmax": 51.051221880232504, 
      "name": "Potstraat", 
      "lonmin": 5.729726964792148, 
      "sanName": "potstraat", 
      "numOfAddr": 9, 
      "lonmax": 5.73037552505349, 
      "latmin": 51.050042742864676
    }, 
    {
      "latmax": 51.00310853083202, 
      "name": "Rachels", 
      "lonmin": 5.72022551895458, 
      "sanName": "rachels", 
      "numOfAddr": 43, 
      "lonmax": 5.728047256384053, 
      "latmin": 51.0016499478682
    }, 
    {
      "latmax": 51.022287144567635, 
      "name": "Rechtestraat", 
      "lonmin": 5.745348111505934, 
      "sanName": "rechtestraat", 
      "numOfAddr": 61, 
      "lonmax": 5.747184719565016, 
      "latmin": 51.0202545932278
    }, 
    {
      "latmax": 51.02477746088053, 
      "name": "Reinkensweg", 
      "lonmin": 5.708365311188318, 
      "sanName": "reinkensweg", 
      "numOfAddr": 5, 
      "lonmax": 5.708712005187636, 
      "latmin": 51.02370121224931
    }, 
    {
      "latmax": 51.062059138397366, 
      "name": "Reselt", 
      "lonmin": 5.722619122528229, 
      "sanName": "reselt", 
      "numOfAddr": 42, 
      "lonmax": 5.727960227505019, 
      "latmin": 51.05695434048787
    }, 
    {
      "latmax": 51.07020328733961, 
      "name": "Reuzelaar", 
      "lonmin": 5.763274495933054, 
      "sanName": "reuzelaar", 
      "numOfAddr": 4, 
      "lonmax": 5.76394494427568, 
      "latmin": 51.06973889538661
    }, 
    {
      "latmax": 51.01854185132335, 
      "name": "Riethoekstraat", 
      "lonmin": 5.754091855795703, 
      "sanName": "riethoekstraat", 
      "numOfAddr": 31, 
      "lonmax": 5.757609123482306, 
      "latmin": 51.01722361527204
    }, 
    {
      "latmax": 51.01562899275045, 
      "name": "Rietlaan", 
      "lonmin": 5.644300302242032, 
      "sanName": "rietlaan", 
      "numOfAddr": 21, 
      "lonmax": 5.646878242987305, 
      "latmin": 51.014509511396405
    }, 
    {
      "latmax": 51.08209797415259, 
      "name": "Rijksweg", 
      "lonmin": 5.7223261707273645, 
      "sanName": "rijksweg", 
      "numOfAddr": 540, 
      "lonmax": 5.761729914410263, 
      "latmin": 51.00003744583775
    }, 
    {
      "latmax": 51.04779167007844, 
      "name": "Ritserstraat", 
      "lonmin": 5.708230727251424, 
      "sanName": "ritserstraat", 
      "numOfAddr": 48, 
      "lonmax": 5.7263187006612934, 
      "latmin": 51.04321744001122
    }, 
    {
      "latmax": 51.019690401381, 
      "name": "Rode-Kruisstraat", 
      "lonmin": 5.732038428008646, 
      "sanName": "rodekruisstraat", 
      "numOfAddr": 32, 
      "lonmax": 5.7330115009816875, 
      "latmin": 51.015296805598055
    }, 
    {
      "latmax": 51.03529923893875, 
      "name": "Roggestraat", 
      "lonmin": 5.713680783854633, 
      "sanName": "roggestraat", 
      "numOfAddr": 22, 
      "lonmax": 5.715956840437518, 
      "latmin": 51.03386544318404
    }, 
    {
      "latmax": 51.05662124065066, 
      "name": "Rooselaerspad", 
      "lonmin": 5.749626108163094, 
      "sanName": "rooselaerspad", 
      "numOfAddr": 1, 
      "lonmax": 5.749626108163094, 
      "latmin": 51.05662124065066
    }, 
    {
      "latmax": 51.04417053822482, 
      "name": "Rootstraat", 
      "lonmin": 5.717761872275228, 
      "sanName": "rootstraat", 
      "numOfAddr": 3, 
      "lonmax": 5.718486392834351, 
      "latmin": 51.0440826673301
    }, 
    {
      "latmax": 51.075826420163054, 
      "name": "Rosmeerkamp", 
      "lonmin": 5.75255660947019, 
      "sanName": "rosmeerkamp", 
      "numOfAddr": 2, 
      "lonmax": 5.752728529345131, 
      "latmin": 51.07516432291361
    }, 
    {
      "latmax": 51.08088212088443, 
      "name": "Rotsheide", 
      "lonmin": 5.760295434174185, 
      "sanName": "rotsheide", 
      "numOfAddr": 17, 
      "lonmax": 5.76397569862989, 
      "latmin": 51.07876494505074
    }, 
    {
      "latmax": 51.06692685086392, 
      "name": "Rozenlaan", 
      "lonmin": 5.720376440671436, 
      "sanName": "rozenlaan", 
      "numOfAddr": 55, 
      "lonmax": 5.723645223274419, 
      "latmin": 51.06114944982891
    }, 
    {
      "latmax": 51.04295495141196, 
      "name": "Saalweg", 
      "lonmin": 5.711775098684632, 
      "sanName": "saalweg", 
      "numOfAddr": 30, 
      "lonmax": 5.713397128009865, 
      "latmin": 51.041750113855784
    }, 
    {
      "latmax": 51.03444512973001, 
      "name": "Scherpenbergstraat", 
      "lonmin": 5.685826061568401, 
      "sanName": "scherpenbergstraat", 
      "numOfAddr": 20, 
      "lonmax": 5.701186885081177, 
      "latmin": 51.02738587637643
    }, 
    {
      "latmax": 51.03810988513881, 
      "name": "Schoolstraat", 
      "lonmin": 2.306689562140502, 
      "sanName": "schoolstraat", 
      "numOfAddr": 107, 
      "lonmax": 5.724554349962493, 
      "latmin": 49.293335165093566
    }, 
    {
      "latmax": 51.06813985365563, 
      "name": "Schootsheide", 
      "lonmin": 5.708889168560988, 
      "sanName": "schootsheide", 
      "numOfAddr": 1, 
      "lonmax": 5.708889168560988, 
      "latmin": 51.06813985365563
    }, 
    {
      "latmax": 51.0200517339351, 
      "name": "Schuttersstraat", 
      "lonmin": 5.742995529985815, 
      "sanName": "schuttersstraat", 
      "numOfAddr": 9, 
      "lonmax": 5.74535985282614, 
      "latmin": 51.01947350997972
    }, 
    {
      "latmax": 51.02304238842541, 
      "name": "Senator G. Ruttenstraat", 
      "lonmin": 5.7427486746793415, 
      "sanName": "senatorgruttenstraat", 
      "numOfAddr": 55, 
      "lonmax": 5.74505891879095, 
      "latmin": 51.020649898421496
    }, 
    {
      "latmax": 51.01789761660983, 
      "name": "Siemenslaan", 
      "lonmin": 5.701677525285883, 
      "sanName": "siemenslaan", 
      "numOfAddr": 18, 
      "lonmax": 5.709255726691564, 
      "latmin": 51.00850227859089
    }, 
    {
      "latmax": 51.07382052093251, 
      "name": "Sipernau", 
      "lonmin": 5.746857737598685, 
      "sanName": "sipernau", 
      "numOfAddr": 5, 
      "lonmax": 5.747423555787023, 
      "latmin": 51.073159870767874
    }, 
    {
      "latmax": 51.00778164906154, 
      "name": "Slakkenstraat", 
      "lonmin": 5.718236755086862, 
      "sanName": "slakkenstraat", 
      "numOfAddr": 69, 
      "lonmax": 5.7241355828342515, 
      "latmin": 51.00420470150383
    }, 
    {
      "latmax": 51.02188014519984, 
      "name": "Snapstraat", 
      "lonmin": 5.746532236522737, 
      "sanName": "snapstraat", 
      "numOfAddr": 10, 
      "lonmax": 5.747146640325218, 
      "latmin": 51.02082959779448
    }, 
    {
      "latmax": 51.04248404244111, 
      "name": "Soerenbosweg", 
      "lonmin": 5.72111802588583, 
      "sanName": "soerenbosweg", 
      "numOfAddr": 5, 
      "lonmax": 5.72241155310516, 
      "latmin": 51.03884671330129
    }, 
    {
      "latmax": 51.026776425071276, 
      "name": "Soerveldweg", 
      "lonmin": 5.722197744161773, 
      "sanName": "soerveldweg", 
      "numOfAddr": 16, 
      "lonmax": 5.7240339020976645, 
      "latmin": 51.02198351861805
    }, 
    {
      "latmax": 51.01821466893724, 
      "name": "Sparrendal", 
      "lonmin": 5.679566079775991, 
      "sanName": "sparrendal", 
      "numOfAddr": 47, 
      "lonmax": 5.68101932045289, 
      "latmin": 51.01566394781942
    }, 
    {
      "latmax": 51.03683116248303, 
      "name": "Speltstraat", 
      "lonmin": 5.717262820926238, 
      "sanName": "speltstraat", 
      "numOfAddr": 44, 
      "lonmax": 5.72039800871221, 
      "latmin": 51.03531135880184
    }, 
    {
      "latmax": 51.035764131175, 
      "name": "Spileind", 
      "lonmin": 5.723182879558097, 
      "sanName": "spileind", 
      "numOfAddr": 28, 
      "lonmax": 5.724792239146593, 
      "latmin": 51.03443511726605
    }, 
    {
      "latmax": 51.03775287837846, 
      "name": "Sportlaan", 
      "lonmin": 5.706963595384905, 
      "sanName": "sportlaan", 
      "numOfAddr": 54, 
      "lonmax": 5.709981713860137, 
      "latmin": 51.03133875026906
    }, 
    {
      "latmax": 51.019291209923246, 
      "name": "Stadsgraaf", 
      "lonmin": 5.743219653317396, 
      "sanName": "stadsgraaf", 
      "numOfAddr": 20, 
      "lonmax": 5.7482555295182225, 
      "latmin": 51.01785140389858
    }, 
    {
      "latmax": 51.06975340400026, 
      "name": "Stationsstraat", 
      "lonmin": 5.7284988360349365, 
      "sanName": "stationsstraat", 
      "numOfAddr": 119, 
      "lonmax": 5.751725271348008, 
      "latmin": 51.06739514185371
    }, 
    {
      "latmax": 51.026067305899694, 
      "name": "Steenhuis", 
      "lonmin": 5.7282098887220645, 
      "sanName": "steenhuis", 
      "numOfAddr": 12, 
      "lonmax": 5.7390886476830305, 
      "latmin": 51.0202111035503
    }, 
    {
      "latmax": 51.02079630616785, 
      "name": "Steenkuilstraat", 
      "lonmin": 5.74226010821993, 
      "sanName": "steenkuilstraat", 
      "numOfAddr": 68, 
      "lonmax": 5.749145464661194, 
      "latmin": 51.01980240144595
    }, 
    {
      "latmax": 51.07428749488428, 
      "name": "Steenweg naar Neeroeteren", 
      "lonmin": 5.718224662072611, 
      "sanName": "steenwegnaarneeroeteren", 
      "numOfAddr": 68, 
      "lonmax": 5.7274933746133065, 
      "latmin": 51.06813428806442
    }, 
    {
      "latmax": 51.02809143355962, 
      "name": "Stemmendaal", 
      "lonmin": 5.718169711551981, 
      "sanName": "stemmendaal", 
      "numOfAddr": 1, 
      "lonmax": 5.718169711551981, 
      "latmin": 51.02809143355962
    }, 
    {
      "latmax": 51.02198306759349, 
      "name": "St. Jansweg", 
      "lonmin": 5.719794403095943, 
      "sanName": "stjansweg", 
      "numOfAddr": 23, 
      "lonmax": 5.722574791303687, 
      "latmin": 51.020804635257285
    }, 
    {
      "latmax": 51.0210989102213, 
      "name": "Stock-Heim", 
      "lonmin": 5.738422004289038, 
      "sanName": "stockheim", 
      "numOfAddr": 14, 
      "lonmax": 5.739414799677737, 
      "latmin": 51.02037235630257
    }, 
    {
      "latmax": 51.01759902420155, 
      "name": "Stockheimerbosch", 
      "lonmin": 5.627852395316906, 
      "sanName": "stockheimerbosch", 
      "numOfAddr": 6, 
      "lonmax": 5.636556637206029, 
      "latmin": 51.01489875709142
    }, 
    {
      "latmax": 51.03970982799052, 
      "name": "Stokkemerbaan", 
      "lonmin": 5.728744885638931, 
      "sanName": "stokkemerbaan", 
      "numOfAddr": 140, 
      "lonmax": 5.743859091729521, 
      "latmin": 51.0174601953898
    }, 
    {
      "latmax": 51.01838174170453, 
      "name": "Struipstraat", 
      "lonmin": 5.742649491358598, 
      "sanName": "struipstraat", 
      "numOfAddr": 10, 
      "lonmax": 5.743581810216422, 
      "latmin": 51.01722751815938
    }, 
    {
      "latmax": 51.01765695921651, 
      "name": "Symfonielaan", 
      "lonmin": 5.729401420209276, 
      "sanName": "symfonielaan", 
      "numOfAddr": 2, 
      "lonmax": 5.731473919964827, 
      "latmin": 51.01627746399101
    }, 
    {
      "latmax": 51.00862333720194, 
      "name": "Talingstraat", 
      "lonmin": 5.636668453822018, 
      "sanName": "talingstraat", 
      "numOfAddr": 18, 
      "lonmax": 5.6405061304962, 
      "latmin": 51.0080799794913
    }, 
    {
      "latmax": 51.00639942264495, 
      "name": "Tapuitstraat", 
      "lonmin": 5.636492173131608, 
      "sanName": "tapuitstraat", 
      "numOfAddr": 7, 
      "lonmax": 5.638480857801898, 
      "latmin": 51.006017974967186
    }, 
    {
      "latmax": 51.03677669461083, 
      "name": "Tarwestraat", 
      "lonmin": 5.712284463331973, 
      "sanName": "tarwestraat", 
      "numOfAddr": 18, 
      "lonmax": 5.714503882382159, 
      "latmin": 51.03618233631123
    }, 
    {
      "latmax": 51.036302695960174, 
      "name": "Ter Motten", 
      "lonmin": 5.726145867823961, 
      "sanName": "termotten", 
      "numOfAddr": 1, 
      "lonmax": 5.726145867823961, 
      "latmin": 51.036302695960174
    }, 
    {
      "latmax": 51.01424402696099, 
      "name": "Teutelbergstraat", 
      "lonmin": 5.689676197447705, 
      "sanName": "teutelbergstraat", 
      "numOfAddr": 8, 
      "lonmax": 5.691308267674966, 
      "latmin": 51.0127086229143
    }, 
    {
      "latmax": 51.06613434512806, 
      "name": "Tienkampstraat", 
      "lonmin": 5.751608851792953, 
      "sanName": "tienkampstraat", 
      "numOfAddr": 17, 
      "lonmax": 5.754753854324274, 
      "latmin": 51.065186191685164
    }, 
    {
      "latmax": 51.05325189298802, 
      "name": "Tienstraat", 
      "lonmin": 5.737088315212754, 
      "sanName": "tienstraat", 
      "numOfAddr": 16, 
      "lonmax": 5.738103591835319, 
      "latmin": 51.05297255703985
    }, 
    {
      "latmax": 51.02050929867, 
      "name": "Tivoli", 
      "lonmin": 5.7151994362354275, 
      "sanName": "tivoli", 
      "numOfAddr": 11, 
      "lonmax": 5.71824870250853, 
      "latmin": 51.01846853008276
    }, 
    {
      "latmax": 51.019726481027966, 
      "name": "Tugela", 
      "lonmin": 5.747378730868676, 
      "sanName": "tugela", 
      "numOfAddr": 19, 
      "lonmax": 5.74825897076411, 
      "latmin": 51.0183889112775
    }, 
    {
      "latmax": 51.055596533240916, 
      "name": "Vaartstraat", 
      "lonmin": 5.701804361454164, 
      "sanName": "vaartstraat", 
      "numOfAddr": 30, 
      "lonmax": 5.710654292180965, 
      "latmin": 51.05431555685333
    }, 
    {
      "latmax": 51.01382867336086, 
      "name": "Veenmosstraat", 
      "lonmin": 5.648453820597831, 
      "sanName": "veenmosstraat", 
      "numOfAddr": 9, 
      "lonmax": 5.650109006473618, 
      "latmin": 51.013229864782865
    }, 
    {
      "latmax": 51.058444662104115, 
      "name": "Veesteeg", 
      "lonmin": 5.717424173185738, 
      "sanName": "veesteeg", 
      "numOfAddr": 17, 
      "lonmax": 5.725303761281372, 
      "latmin": 51.05737896893056
    }, 
    {
      "latmax": 51.00430245310336, 
      "name": "Veeweide", 
      "lonmin": 5.729651003341405, 
      "sanName": "veeweide", 
      "numOfAddr": 35, 
      "lonmax": 5.73171726001056, 
      "latmin": 51.00328580204832
    }, 
    {
      "latmax": 51.05854308115509, 
      "name": "Veldsteeg", 
      "lonmin": 5.728312637613577, 
      "sanName": "veldsteeg", 
      "numOfAddr": 31, 
      "lonmax": 5.7316090280123895, 
      "latmin": 51.05434236850721
    }, 
    {
      "latmax": 51.007899461425176, 
      "name": "Vilvertstraat", 
      "lonmin": 5.703975646187911, 
      "sanName": "vilvertstraat", 
      "numOfAddr": 2, 
      "lonmax": 5.711079332050429, 
      "latmin": 51.006807053191665
    }, 
    {
      "latmax": 51.06629976391672, 
      "name": "Vinkenlaan", 
      "lonmin": 5.727550396140539, 
      "sanName": "vinkenlaan", 
      "numOfAddr": 8, 
      "lonmax": 5.7288017563596005, 
      "latmin": 51.06592390429134
    }, 
    {
      "latmax": 51.03599571082015, 
      "name": "Vissersstraat", 
      "lonmin": 5.735518766648912, 
      "sanName": "vissersstraat", 
      "numOfAddr": 11, 
      "lonmax": 5.736966885014546, 
      "latmin": 51.03300500047653
    }, 
    {
      "latmax": 51.03512781601257, 
      "name": "Vlasstraat", 
      "lonmin": 5.7123710096003295, 
      "sanName": "vlasstraat", 
      "numOfAddr": 3, 
      "lonmax": 5.712522251455317, 
      "latmin": 51.034795007216154
    }, 
    {
      "latmax": 51.03735023269926, 
      "name": "Vlessersweg", 
      "lonmin": 5.719239749922471, 
      "sanName": "vlessersweg", 
      "numOfAddr": 47, 
      "lonmax": 5.722193447406944, 
      "latmin": 51.024463976847
    }, 
    {
      "latmax": 51.02292687623397, 
      "name": "Vliegenheuvel", 
      "lonmin": 5.712877084652255, 
      "sanName": "vliegenheuvel", 
      "numOfAddr": 4, 
      "lonmax": 5.719179852899165, 
      "latmin": 51.02024326439248
    }, 
    {
      "latmax": 51.01009491275854, 
      "name": "Vrietselstraat", 
      "lonmin": 5.7165757548226, 
      "sanName": "vrietselstraat", 
      "numOfAddr": 26, 
      "lonmax": 5.719702764981265, 
      "latmin": 51.00791696184165
    }, 
    {
      "latmax": 51.02157703162594, 
      "name": "Wal", 
      "lonmin": 5.742638634793452, 
      "sanName": "wal", 
      "numOfAddr": 12, 
      "lonmax": 5.749588603961523, 
      "latmin": 51.019739529272755
    }, 
    {
      "latmax": 51.06927357880973, 
      "name": "Watering", 
      "lonmin": 5.706220219351142, 
      "sanName": "watering", 
      "numOfAddr": 1, 
      "lonmax": 5.706220219351142, 
      "latmin": 51.06927357880973
    }, 
    {
      "latmax": 51.033308136373, 
      "name": "Watermolenstraat", 
      "lonmin": 5.735241797190891, 
      "sanName": "watermolenstraat", 
      "numOfAddr": 49, 
      "lonmax": 5.737697196405637, 
      "latmin": 51.028703809695884
    }, 
    {
      "latmax": 51.00896621705348, 
      "name": "Watertorenstraat", 
      "lonmin": 5.639321175465342, 
      "sanName": "watertorenstraat", 
      "numOfAddr": 22, 
      "lonmax": 5.64050310246467, 
      "latmin": 51.00414637883368
    }, 
    {
      "latmax": 51.07940203126414, 
      "name": "Wie\u0089rs", 
      "lonmin": 5.7545960958356375, 
      "sanName": "wiers", 
      "numOfAddr": 1, 
      "lonmax": 5.7545960958356375, 
      "latmin": 51.07940203126414
    }, 
    {
      "latmax": 51.016964563655165, 
      "name": "Wilgenstraat", 
      "lonmin": 5.74199324359618, 
      "sanName": "wilgenstraat", 
      "numOfAddr": 5, 
      "lonmax": 5.742504464825834, 
      "latmin": 51.01660676352441
    }, 
    {
      "latmax": 51.00615089086552, 
      "name": "Willibrordusstraat", 
      "lonmin": 5.71450346681117, 
      "sanName": "willibrordusstraat", 
      "numOfAddr": 24, 
      "lonmax": 5.71809919544529, 
      "latmin": 51.00474240692717
    }, 
    {
      "latmax": 51.00479754699443, 
      "name": "Windelsteenstraat", 
      "lonmin": 5.636483771350088, 
      "sanName": "windelsteenstraat", 
      "numOfAddr": 6, 
      "lonmax": 5.637285295968823, 
      "latmin": 51.00436564979455
    }, 
    {
      "latmax": 51.03616140703483, 
      "name": "Wuytershoefstraat", 
      "lonmin": 5.698123453330086, 
      "sanName": "wuytershoefstraat", 
      "numOfAddr": 24, 
      "lonmax": 5.701195249368627, 
      "latmin": 51.035166423232546
    }, 
    {
      "latmax": 51.07683196177158, 
      "name": "Zandstraat", 
      "lonmin": 5.755866426325406, 
      "sanName": "zandstraat", 
      "numOfAddr": 68, 
      "lonmax": 5.77191697496517, 
      "latmin": 51.0681571378473
    }, 
    {
      "latmax": 51.03551550775161, 
      "name": "Zavelstraat", 
      "lonmin": 5.703622605914708, 
      "sanName": "zavelstraat", 
      "numOfAddr": 39, 
      "lonmax": 5.704876370792065, 
      "latmin": 51.02963979456538
    }, 
    {
      "latmax": 51.016144944573604, 
      "name": "Zonnedauwlaan", 
      "lonmin": 5.64452873186895, 
      "sanName": "zonnedauwlaan", 
      "numOfAddr": 37, 
      "lonmax": 5.651045564186053, 
      "latmin": 51.01559455920707
    }, 
    {
      "latmax": 51.064836578697786, 
      "name": "Zonnestraat", 
      "lonmin": 5.750290773186295, 
      "sanName": "zonnestraat", 
      "numOfAddr": 24, 
      "lonmax": 5.754942665245527, 
      "latmin": 51.06320813228075
    }
  ]
}