{
  "streets": [
    {
      "latmax": 51.036439461144546, 
      "name": "Akkerstraat", 
      "lonmin": 5.572397911733568, 
      "sanName": "akkerstraat", 
      "numOfAddr": 12, 
      "lonmax": 5.5738205544538, 
      "latmin": 51.03516863606559
    }, 
    {
      "latmax": 51.031216829680034, 
      "name": "Asterstraat", 
      "lonmin": 5.536354668671384, 
      "sanName": "asterstraat", 
      "numOfAddr": 9, 
      "lonmax": 5.53842722600776, 
      "latmin": 51.03058230283241
    }, 
    {
      "latmax": 51.03078559983606, 
      "name": "Azaleastraat", 
      "lonmin": 5.530803134277275, 
      "sanName": "azaleastraat", 
      "numOfAddr": 13, 
      "lonmax": 5.532272291128764, 
      "latmin": 51.03012798105474
    }, 
    {
      "latmax": 51.0326012053782, 
      "name": "Bampsstraat", 
      "lonmin": 5.597493279276218, 
      "sanName": "bampsstraat", 
      "numOfAddr": 7, 
      "lonmax": 5.600630720357117, 
      "latmin": 51.030998053673486
    }, 
    {
      "latmax": 51.03833033318858, 
      "name": "Bedrijfsstraat", 
      "lonmin": 5.532170038758905, 
      "sanName": "bedrijfsstraat", 
      "numOfAddr": 3, 
      "lonmax": 5.535563452901518, 
      "latmin": 51.03596145062099
    }, 
    {
      "latmax": 51.0334221177776, 
      "name": "Begoniastraat", 
      "lonmin": 5.535204033527762, 
      "sanName": "begoniastraat", 
      "numOfAddr": 36, 
      "lonmax": 5.539813059222102, 
      "latmin": 51.032046714502556
    }, 
    {
      "latmax": 51.057695403742116, 
      "name": "Bergerweg", 
      "lonmin": 5.610376360826402, 
      "sanName": "bergerweg", 
      "numOfAddr": 4, 
      "lonmax": 5.611607837294831, 
      "latmin": 51.056695109001964
    }, 
    {
      "latmax": 51.03155262808007, 
      "name": "Bergstraat", 
      "lonmin": 5.58784644334523, 
      "sanName": "bergstraat", 
      "numOfAddr": 17, 
      "lonmax": 5.590369907850974, 
      "latmin": 51.03026209848691
    }, 
    {
      "latmax": 51.04622147322086, 
      "name": "Bieskensveld", 
      "lonmin": 5.5863732947267675, 
      "sanName": "bieskensveld", 
      "numOfAddr": 15, 
      "lonmax": 5.587799155935602, 
      "latmin": 51.04543505567048
    }, 
    {
      "latmax": 51.03381371844371, 
      "name": "Bijvaerdeweg", 
      "lonmin": 5.585403853618315, 
      "sanName": "bijvaerdeweg", 
      "numOfAddr": 36, 
      "lonmax": 5.589123564920201, 
      "latmin": 51.02653025273616
    }, 
    {
      "latmax": 51.04597869512155, 
      "name": "Binnenweg", 
      "lonmin": 5.576886265535943, 
      "sanName": "binnenweg", 
      "numOfAddr": 11, 
      "lonmax": 5.577992310720301, 
      "latmin": 51.04506695957984
    }, 
    {
      "latmax": 51.0513986957418, 
      "name": "Boekweitstraat", 
      "lonmin": 5.581566079589522, 
      "sanName": "boekweitstraat", 
      "numOfAddr": 95, 
      "lonmax": 5.585059387072409, 
      "latmin": 51.047233263748595
    }, 
    {
      "latmax": 51.033313862711985, 
      "name": "Bosstraat", 
      "lonmin": 5.583398518646333, 
      "sanName": "bosstraat", 
      "numOfAddr": 42, 
      "lonmax": 5.591139418954115, 
      "latmin": 51.03194552543455
    }, 
    {
      "latmax": 51.037824464905846, 
      "name": "Braamstraat", 
      "lonmin": 5.585379391468438, 
      "sanName": "braamstraat", 
      "numOfAddr": 4, 
      "lonmax": 5.586217267823059, 
      "latmin": 51.03761592628626
    }, 
    {
      "latmax": 51.05445480131628, 
      "name": "Bremstraat", 
      "lonmin": 5.587338295394641, 
      "sanName": "bremstraat", 
      "numOfAddr": 16, 
      "lonmax": 5.58976748950791, 
      "latmin": 51.05383020260871
    }, 
    {
      "latmax": 51.04341676500137, 
      "name": "Broekkantstraat", 
      "lonmin": 5.589669384814235, 
      "sanName": "broekkantstraat", 
      "numOfAddr": 62, 
      "lonmax": 5.592514421415871, 
      "latmin": 51.03434786390838
    }, 
    {
      "latmax": 51.040277963717, 
      "name": "Bunderstraat", 
      "lonmin": 5.572479921438408, 
      "sanName": "bunderstraat", 
      "numOfAddr": 4, 
      "lonmax": 5.573645234068443, 
      "latmin": 51.03980725748084
    }, 
    {
      "latmax": 51.03160553575283, 
      "name": "Chrysantenstraat", 
      "lonmin": 5.530536015094074, 
      "sanName": "chrysantenstraat", 
      "numOfAddr": 19, 
      "lonmax": 5.532892067984276, 
      "latmin": 51.0310161679711
    }, 
    {
      "latmax": 51.04693994222188, 
      "name": "Cousenstraat", 
      "lonmin": 5.593488914725931, 
      "sanName": "cousenstraat", 
      "numOfAddr": 7, 
      "lonmax": 5.594341473251471, 
      "latmin": 51.04590579014841
    }, 
    {
      "latmax": 51.049395673547025, 
      "name": "Dalstraat", 
      "lonmin": 5.608730784373667, 
      "sanName": "dalstraat", 
      "numOfAddr": 11, 
      "lonmax": 5.610688179732959, 
      "latmin": 51.04893427233732
    }, 
    {
      "latmax": 51.03529959526618, 
      "name": "Dennenstraat", 
      "lonmin": 5.562711817801227, 
      "sanName": "dennenstraat", 
      "numOfAddr": 7, 
      "lonmax": 5.564048146078439, 
      "latmin": 51.033747219004454
    }, 
    {
      "latmax": 51.04312083177665, 
      "name": "Dorpsplein", 
      "lonmin": 5.583694492372915, 
      "sanName": "dorpsplein", 
      "numOfAddr": 10, 
      "lonmax": 5.584741172096724, 
      "latmin": 51.0420565016335
    }, 
    {
      "latmax": 51.04607312314653, 
      "name": "Dorpsstraat", 
      "lonmin": 5.584025234461679, 
      "sanName": "dorpsstraat", 
      "numOfAddr": 35, 
      "lonmax": 5.586276723305689, 
      "latmin": 51.043175528813066
    }, 
    {
      "latmax": 51.05488181962175, 
      "name": "Dreesstraat", 
      "lonmin": 5.6057138045915025, 
      "sanName": "dreesstraat", 
      "numOfAddr": 51, 
      "lonmax": 5.614737744489692, 
      "latmin": 51.05246743610044
    }, 
    {
      "latmax": 51.045806194347804, 
      "name": "Droogstraat", 
      "lonmin": 5.575323250914776, 
      "sanName": "droogstraat", 
      "numOfAddr": 44, 
      "lonmax": 5.582257744908119, 
      "latmin": 51.04313085455714
    }, 
    {
      "latmax": 51.05857463439516, 
      "name": "Duinenstraat", 
      "lonmin": 5.614743161349913, 
      "sanName": "duinenstraat", 
      "numOfAddr": 1, 
      "lonmax": 5.614743161349913, 
      "latmin": 51.05857463439516
    }, 
    {
      "latmax": 51.046902367775374, 
      "name": "Dwarsstraat", 
      "lonmin": 5.605786186234456, 
      "sanName": "dwarsstraat", 
      "numOfAddr": 11, 
      "lonmax": 5.607961761467448, 
      "latmin": 51.04638606251124
    }, 
    {
      "latmax": 51.04678966356087, 
      "name": "Eindstraat", 
      "lonmin": 5.579749215962458, 
      "sanName": "eindstraat", 
      "numOfAddr": 9, 
      "lonmax": 5.580898770714861, 
      "latmin": 51.04554113979296
    }, 
    {
      "latmax": 51.05255949318294, 
      "name": "Elf-Septemberlaan", 
      "lonmin": 5.589854781415779, 
      "sanName": "elfseptemberlaan", 
      "numOfAddr": 39, 
      "lonmax": 5.592719936702868, 
      "latmin": 51.04767436884887
    }, 
    {
      "latmax": 51.051988269417386, 
      "name": "Engelenweg", 
      "lonmin": 5.579602702201817, 
      "sanName": "engelenweg", 
      "numOfAddr": 47, 
      "lonmax": 5.582272739187217, 
      "latmin": 51.04626284928611
    }, 
    {
      "latmax": 51.02971584097324, 
      "name": "Fazantenstraat", 
      "lonmin": 5.539069667840669, 
      "sanName": "fazantenstraat", 
      "numOfAddr": 41, 
      "lonmax": 5.54582727708149, 
      "latmin": 51.027482502572035
    }, 
    {
      "latmax": 51.03286044842601, 
      "name": "Floxstraat", 
      "lonmin": 5.535407953169052, 
      "sanName": "floxstraat", 
      "numOfAddr": 17, 
      "lonmax": 5.5387211022706, 
      "latmin": 51.031437552679
    }, 
    {
      "latmax": 51.05607248962781, 
      "name": "Geensstraat", 
      "lonmin": 5.606179577062958, 
      "sanName": "geensstraat", 
      "numOfAddr": 47, 
      "lonmax": 5.613727404351601, 
      "latmin": 51.05472747276001
    }, 
    {
      "latmax": 51.03387229081599, 
      "name": "Gladiolenstraat", 
      "lonmin": 5.534528677594253, 
      "sanName": "gladiolenstraat", 
      "numOfAddr": 13, 
      "lonmax": 5.536823743268598, 
      "latmin": 51.03315550184805
    }, 
    {
      "latmax": 51.042815754411635, 
      "name": "Gommersstraat", 
      "lonmin": 5.5928975628835556, 
      "sanName": "gommersstraat", 
      "numOfAddr": 4, 
      "lonmax": 5.597684958333127, 
      "latmin": 51.040315407316285
    }, 
    {
      "latmax": 51.0415107279389, 
      "name": "Groenstraat", 
      "lonmin": 5.573813905286443, 
      "sanName": "groenstraat", 
      "numOfAddr": 57, 
      "lonmax": 5.576755575868084, 
      "latmin": 51.03345096401354
    }, 
    {
      "latmax": 51.05671902425995, 
      "name": "Heerstraat", 
      "lonmin": 5.6012457251755245, 
      "sanName": "heerstraat", 
      "numOfAddr": 47, 
      "lonmax": 5.6072821679571625, 
      "latmin": 51.05071453851744
    }, 
    {
      "latmax": 51.03097400473554, 
      "name": "Heidebloemstraat", 
      "lonmin": 5.532015263209875, 
      "sanName": "heidebloemstraat", 
      "numOfAddr": 20, 
      "lonmax": 5.53325219406203, 
      "latmin": 51.028177991743355
    }, 
    {
      "latmax": 51.03357897699348, 
      "name": "Heidestraat", 
      "lonmin": 5.576590883298086, 
      "sanName": "heidestraat", 
      "numOfAddr": 52, 
      "lonmax": 5.581997227059066, 
      "latmin": 51.029487636632766
    }, 
    {
      "latmax": 51.02937032048021, 
      "name": "Heikantstraat", 
      "lonmin": 5.5675299871712225, 
      "sanName": "heikantstraat", 
      "numOfAddr": 25, 
      "lonmax": 5.579475462588434, 
      "latmin": 51.02620922663157
    }, 
    {
      "latmax": 51.03171737139543, 
      "name": "Heivinkenstraat", 
      "lonmin": 5.546094810177095, 
      "sanName": "heivinkenstraat", 
      "numOfAddr": 28, 
      "lonmax": 5.551541808957491, 
      "latmin": 51.02977718936484
    }, 
    {
      "latmax": 51.04125326093057, 
      "name": "Hermispad", 
      "lonmin": 5.58096620754938, 
      "sanName": "hermispad", 
      "numOfAddr": 10, 
      "lonmax": 5.582113987074473, 
      "latmin": 51.04059761859841
    }, 
    {
      "latmax": 51.04162323126534, 
      "name": "Hermisweg", 
      "lonmin": 5.579766479490515, 
      "sanName": "hermisweg", 
      "numOfAddr": 33, 
      "lonmax": 5.582007641760241, 
      "latmin": 51.03791904270141
    }, 
    {
      "latmax": 51.04636179016969, 
      "name": "Hoekstraat", 
      "lonmin": 5.575356781039899, 
      "sanName": "hoekstraat", 
      "numOfAddr": 21, 
      "lonmax": 5.577766893215722, 
      "latmin": 51.044492683708555
    }, 
    {
      "latmax": 51.03241125523929, 
      "name": "Hoeverbergweg", 
      "lonmin": 5.587534347877543, 
      "sanName": "hoeverbergweg", 
      "numOfAddr": 25, 
      "lonmax": 5.591563059821864, 
      "latmin": 51.03120248165216
    }, 
    {
      "latmax": 51.04240985064767, 
      "name": "Hoeverkerkweg", 
      "lonmin": 5.584526934615686, 
      "sanName": "hoeverkerkweg", 
      "numOfAddr": 63, 
      "lonmax": 5.588772891907483, 
      "latmin": 51.03534259587277
    }, 
    {
      "latmax": 51.034797612277636, 
      "name": "Hoeverweg", 
      "lonmin": 5.5886402715184875, 
      "sanName": "hoeverweg", 
      "numOfAddr": 37, 
      "lonmax": 5.598667414504505, 
      "latmin": 51.02774300644829
    }, 
    {
      "latmax": 51.05386938635863, 
      "name": "Hofstraat", 
      "lonmin": 5.605812223222669, 
      "sanName": "hofstraat", 
      "numOfAddr": 7, 
      "lonmax": 5.6068473768059395, 
      "latmin": 51.053335020578544
    }, 
    {
      "latmax": 51.0478519174825, 
      "name": "Hoolvenstraat", 
      "lonmin": 5.604936394418449, 
      "sanName": "hoolvenstraat", 
      "numOfAddr": 9, 
      "lonmax": 5.606347312615049, 
      "latmin": 51.047004761886704
    }, 
    {
      "latmax": 51.03326041440129, 
      "name": "Hortensiastraat", 
      "lonmin": 5.53061975277869, 
      "sanName": "hortensiastraat", 
      "numOfAddr": 9, 
      "lonmax": 5.53344692399193, 
      "latmin": 51.032398431665776
    }, 
    {
      "latmax": 51.04465240506953, 
      "name": "Huisveldstraat", 
      "lonmin": 5.579922641902618, 
      "sanName": "huisveldstraat", 
      "numOfAddr": 7, 
      "lonmax": 5.580746067057943, 
      "latmin": 51.04376333584106
    }, 
    {
      "latmax": 51.042045670041304, 
      "name": "Industrieweg-Noord", 
      "lonmin": 5.531055624420081, 
      "sanName": "industriewegnoord", 
      "numOfAddr": 54, 
      "lonmax": 5.559821637315244, 
      "latmin": 51.0337119430293
    }, 
    {
      "latmax": 51.03464561316643, 
      "name": "Industrieweg-Zuid", 
      "lonmin": 5.561282626100317, 
      "sanName": "industriewegzuid", 
      "numOfAddr": 4, 
      "lonmax": 5.56349359425516, 
      "latmin": 51.03294076895302
    }, 
    {
      "latmax": 51.03072412798096, 
      "name": "Irisstraat", 
      "lonmin": 5.532876758466378, 
      "sanName": "irisstraat", 
      "numOfAddr": 25, 
      "lonmax": 5.535830457726415, 
      "latmin": 51.02950201769765
    }, 
    {
      "latmax": 51.04637191606427, 
      "name": "Kapelstraat", 
      "lonmin": 5.582526726444214, 
      "sanName": "kapelstraat", 
      "numOfAddr": 26, 
      "lonmax": 5.5845307286071755, 
      "latmin": 51.04285048677024
    }, 
    {
      "latmax": 51.022695613291674, 
      "name": "Kastersstraat", 
      "lonmin": 5.593055348761051, 
      "sanName": "kastersstraat", 
      "numOfAddr": 1, 
      "lonmax": 5.593055348761051, 
      "latmin": 51.022695613291674
    }, 
    {
      "latmax": 51.037994525759196, 
      "name": "Kiewitstraat", 
      "lonmin": 5.5789781660910505, 
      "sanName": "kiewitstraat", 
      "numOfAddr": 19, 
      "lonmax": 5.582198726670589, 
      "latmin": 51.03685222641477
    }, 
    {
      "latmax": 51.044431022665826, 
      "name": "Kimpenstraat", 
      "lonmin": 5.5805861820886715, 
      "sanName": "kimpenstraat", 
      "numOfAddr": 5, 
      "lonmax": 5.582406177234176, 
      "latmin": 51.04273523491204
    }, 
    {
      "latmax": 51.04370599796279, 
      "name": "Klein-Drogenstraat", 
      "lonmin": 5.576919908803362, 
      "sanName": "kleindrogenstraat", 
      "numOfAddr": 4, 
      "lonmax": 5.577925550903444, 
      "latmin": 51.04343709008431
    }, 
    {
      "latmax": 51.03793445954038, 
      "name": "Klissenstraat", 
      "lonmin": 5.583262317528677, 
      "sanName": "klissenstraat", 
      "numOfAddr": 2, 
      "lonmax": 5.58366387450702, 
      "latmin": 51.03788987722588
    }, 
    {
      "latmax": 51.0298403386428, 
      "name": "Koekoekstraat", 
      "lonmin": 5.5416047833901425, 
      "sanName": "koekoekstraat", 
      "numOfAddr": 7, 
      "lonmax": 5.5423292503734825, 
      "latmin": 51.02927314979886
    }, 
    {
      "latmax": 51.050667069700815, 
      "name": "Kortestraat", 
      "lonmin": 5.609471949919482, 
      "sanName": "kortestraat", 
      "numOfAddr": 6, 
      "lonmax": 5.610296613199876, 
      "latmin": 51.05022116889548
    }, 
    {
      "latmax": 51.05025730254265, 
      "name": "Kreemersstraat", 
      "lonmin": 5.602045112313369, 
      "sanName": "kreemersstraat", 
      "numOfAddr": 66, 
      "lonmax": 5.611496998661341, 
      "latmin": 51.04682720156201
    }, 
    {
      "latmax": 51.031847539720246, 
      "name": "Krokusstraat", 
      "lonmin": 5.530928493050469, 
      "sanName": "krokusstraat", 
      "numOfAddr": 5, 
      "lonmax": 5.531580775191299, 
      "latmin": 51.03154590798856
    }, 
    {
      "latmax": 51.047657339050815, 
      "name": "Kruisstraat", 
      "lonmin": 5.586253039141958, 
      "sanName": "kruisstraat", 
      "numOfAddr": 33, 
      "lonmax": 5.592194145500435, 
      "latmin": 51.04597163816668
    }, 
    {
      "latmax": 51.036033635695915, 
      "name": "Kuilenweg", 
      "lonmin": 5.571289280576997, 
      "sanName": "kuilenweg", 
      "numOfAddr": 8, 
      "lonmax": 5.573096632159202, 
      "latmin": 51.035543521565195
    }, 
    {
      "latmax": 51.05501637715755, 
      "name": "Laerstraat", 
      "lonmin": 5.589504767498364, 
      "sanName": "laerstraat", 
      "numOfAddr": 51, 
      "lonmax": 5.605281456317068, 
      "latmin": 51.052301638263145
    }, 
    {
      "latmax": 51.0472767976338, 
      "name": "Langstraat", 
      "lonmin": 5.582810403312042, 
      "sanName": "langstraat", 
      "numOfAddr": 4, 
      "lonmax": 5.583402840458559, 
      "latmin": 51.04619094235827
    }, 
    {
      "latmax": 51.052085145122994, 
      "name": "Langveldweg", 
      "lonmin": 5.577665784298085, 
      "sanName": "langveldweg", 
      "numOfAddr": 40, 
      "lonmax": 5.581477092090688, 
      "latmin": 51.04654600448187
    }, 
    {
      "latmax": 51.05656141099811, 
      "name": "Leemkuilstraat", 
      "lonmin": 5.582531989716398, 
      "sanName": "leemkuilstraat", 
      "numOfAddr": 8, 
      "lonmax": 5.585564724035442, 
      "latmin": 51.05446483371855
    }, 
    {
      "latmax": 51.03274936814269, 
      "name": "Leeuwerikstraat", 
      "lonmin": 5.544890465276274, 
      "sanName": "leeuwerikstraat", 
      "numOfAddr": 44, 
      "lonmax": 5.551193181817955, 
      "latmin": 51.03078051359602
    }, 
    {
      "latmax": 51.05354422068938, 
      "name": "Leyssenstraat", 
      "lonmin": 5.604849636610011, 
      "sanName": "leyssenstraat", 
      "numOfAddr": 53, 
      "lonmax": 5.613401165027079, 
      "latmin": 51.05260581218697
    }, 
    {
      "latmax": 51.02939669033025, 
      "name": "Lietenstraat", 
      "lonmin": 5.582948364566098, 
      "sanName": "lietenstraat", 
      "numOfAddr": 28, 
      "lonmax": 5.588469164174123, 
      "latmin": 51.02705799644483
    }, 
    {
      "latmax": 51.030674409190695, 
      "name": "Lijsterstraat", 
      "lonmin": 5.538476627789644, 
      "sanName": "lijsterstraat", 
      "numOfAddr": 45, 
      "lonmax": 5.544320370367198, 
      "latmin": 51.02811087180755
    }, 
    {
      "latmax": 51.0341199741526, 
      "name": "Lobeliastraat", 
      "lonmin": 5.534366559549072, 
      "sanName": "lobeliastraat", 
      "numOfAddr": 18, 
      "lonmax": 5.539211254624738, 
      "latmin": 51.03352066302759
    }, 
    {
      "latmax": 51.05297451988126, 
      "name": "Manestraat", 
      "lonmin": 5.574441476060586, 
      "sanName": "manestraat", 
      "numOfAddr": 36, 
      "lonmax": 5.579648912617758, 
      "latmin": 51.045266554389784
    }, 
    {
      "latmax": 51.04849610187788, 
      "name": "Maneveldweg", 
      "lonmin": 5.578194807059766, 
      "sanName": "maneveldweg", 
      "numOfAddr": 7, 
      "lonmax": 5.579735738884418, 
      "latmin": 51.04700727401828
    }, 
    {
      "latmax": 51.03134597477586, 
      "name": "Merelstraat", 
      "lonmin": 5.543777593204193, 
      "sanName": "merelstraat", 
      "numOfAddr": 9, 
      "lonmax": 5.545940037231328, 
      "latmin": 51.03016468449668
    }, 
    {
      "latmax": 51.047102588494894, 
      "name": "Molenweg", 
      "lonmin": 5.590001360923136, 
      "sanName": "molenweg", 
      "numOfAddr": 131, 
      "lonmax": 5.616156976362248, 
      "latmin": 51.04306898591003
    }, 
    {
      "latmax": 51.045871543526495, 
      "name": "Nijverheidslaan", 
      "lonmin": 5.533690788705311, 
      "sanName": "nijverheidslaan", 
      "numOfAddr": 62, 
      "lonmax": 5.560611938443624, 
      "latmin": 51.0385642004453
    }, 
    {
      "latmax": 51.044103936487524, 
      "name": "Ophovenstraat", 
      "lonmin": 2.306689562140502, 
      "sanName": "ophovenstraat", 
      "numOfAddr": 50, 
      "lonmax": 5.576172158085227, 
      "latmin": 49.293335165093566
    }, 
    {
      "latmax": 51.04154701755609, 
      "name": "Oude Asserweg", 
      "lonmin": 5.582899188295421, 
      "sanName": "oudeasserweg", 
      "numOfAddr": 60, 
      "lonmax": 5.585724295176863, 
      "latmin": 51.033039613610036
    }, 
    {
      "latmax": 51.055541671670845, 
      "name": "Oude Kerkstraat", 
      "lonmin": 5.586298007743398, 
      "sanName": "oudekerkstraat", 
      "numOfAddr": 39, 
      "lonmax": 5.590338522464759, 
      "latmin": 51.04813176815596
    }, 
    {
      "latmax": 51.03419439269334, 
      "name": "Ouwerteweg", 
      "lonmin": 5.591023040110158, 
      "sanName": "ouwerteweg", 
      "numOfAddr": 7, 
      "lonmax": 5.592768081383002, 
      "latmin": 51.03363220186212
    }, 
    {
      "latmax": 51.03140904508213, 
      "name": "Patrijsstraat", 
      "lonmin": 5.54759632003014, 
      "sanName": "patrijsstraat", 
      "numOfAddr": 5, 
      "lonmax": 5.548564477583084, 
      "latmin": 51.03080169031363
    }, 
    {
      "latmax": 51.04274063586297, 
      "name": "Peetjesstraat", 
      "lonmin": 5.578625048934981, 
      "sanName": "peetjesstraat", 
      "numOfAddr": 5, 
      "lonmax": 5.579321593675235, 
      "latmin": 51.04236468047723
    }, 
    {
      "latmax": 51.03222973270803, 
      "name": "Petuniastraat", 
      "lonmin": 5.538573307680899, 
      "sanName": "petuniastraat", 
      "numOfAddr": 11, 
      "lonmax": 5.539509330018287, 
      "latmin": 51.03059050928781
    }, 
    {
      "latmax": 51.04488711309501, 
      "name": "Postweg", 
      "lonmin": 5.581197397719408, 
      "sanName": "postweg", 
      "numOfAddr": 7, 
      "lonmax": 5.582022719506206, 
      "latmin": 51.04367726756223
    }, 
    {
      "latmax": 51.031639663691564, 
      "name": "Primulastraat", 
      "lonmin": 5.533200277025355, 
      "sanName": "primulastraat", 
      "numOfAddr": 13, 
      "lonmax": 5.535125496823247, 
      "latmin": 51.0306988061675
    }, 
    {
      "latmax": 51.03346902656783, 
      "name": "Resedastraat", 
      "lonmin": 5.5395309047928825, 
      "sanName": "resedastraat", 
      "numOfAddr": 14, 
      "lonmax": 5.541896454441295, 
      "latmin": 51.030951362826436
    }, 
    {
      "latmax": 51.05149351814762, 
      "name": "Reyndersstraat", 
      "lonmin": 5.568639191412544, 
      "sanName": "reyndersstraat", 
      "numOfAddr": 62, 
      "lonmax": 5.575424664045589, 
      "latmin": 51.043785783149076
    }, 
    {
      "latmax": 51.04252249929096, 
      "name": "Rijtstraat", 
      "lonmin": 5.580036049689812, 
      "sanName": "rijtstraat", 
      "numOfAddr": 4, 
      "lonmax": 5.581050953137291, 
      "latmin": 51.04227544298369
    }, 
    {
      "latmax": 51.051199701633664, 
      "name": "Rittenweg", 
      "lonmin": 5.60924949370079, 
      "sanName": "rittenweg", 
      "numOfAddr": 61, 
      "lonmax": 5.61340637391939, 
      "latmin": 51.04540086603779
    }, 
    {
      "latmax": 51.041056912898384, 
      "name": "Roexeindestraat", 
      "lonmin": 5.573334705337847, 
      "sanName": "roexeindestraat", 
      "numOfAddr": 7, 
      "lonmax": 5.574026980963779, 
      "latmin": 51.0401288944547
    }, 
    {
      "latmax": 51.04415827358358, 
      "name": "Rozenstraat", 
      "lonmin": 5.576711782808474, 
      "sanName": "rozenstraat", 
      "numOfAddr": 31, 
      "lonmax": 5.582893239543329, 
      "latmin": 51.04260089381272
    }, 
    {
      "latmax": 51.0413011245598, 
      "name": "Schansstraat", 
      "lonmin": 5.592530796686055, 
      "sanName": "schansstraat", 
      "numOfAddr": 3, 
      "lonmax": 5.593381060368759, 
      "latmin": 51.0410203275197
    }, 
    {
      "latmax": 51.04091620801147, 
      "name": "Schasstraat", 
      "lonmin": 5.578389665012994, 
      "sanName": "schasstraat", 
      "numOfAddr": 5, 
      "lonmax": 5.5790661936927055, 
      "latmin": 51.040395333149945
    }, 
    {
      "latmax": 51.041109580147086, 
      "name": "Schrijversweg", 
      "lonmin": 5.576163671596703, 
      "sanName": "schrijversweg", 
      "numOfAddr": 7, 
      "lonmax": 5.577685342219811, 
      "latmin": 51.04028441864893
    }, 
    {
      "latmax": 51.035222558356246, 
      "name": "Silvesterlaan", 
      "lonmin": 5.570941693203991, 
      "sanName": "silvesterlaan", 
      "numOfAddr": 10, 
      "lonmax": 5.5745845010546065, 
      "latmin": 51.035142617099
    }, 
    {
      "latmax": 51.03339082295058, 
      "name": "Sint-Hubertuslaan", 
      "lonmin": 5.575624944853486, 
      "sanName": "sinthubertuslaan", 
      "numOfAddr": 2, 
      "lonmax": 5.576237130634232, 
      "latmin": 51.032825533167326
    }, 
    {
      "latmax": 51.05038551524953, 
      "name": "Slagmolenweg", 
      "lonmin": 5.604118769838808, 
      "sanName": "slagmolenweg", 
      "numOfAddr": 27, 
      "lonmax": 5.608987389574192, 
      "latmin": 51.04644460753191
    }, 
    {
      "latmax": 51.05455416229084, 
      "name": "Speeltuinstraat", 
      "lonmin": 5.577455596038548, 
      "sanName": "speeltuinstraat", 
      "numOfAddr": 28, 
      "lonmax": 5.585491365415881, 
      "latmin": 51.053456050741346
    }, 
    {
      "latmax": 51.05269827798886, 
      "name": "Stalsbosstraat", 
      "lonmin": 5.609451938156316, 
      "sanName": "stalsbosstraat", 
      "numOfAddr": 30, 
      "lonmax": 5.611509817125031, 
      "latmin": 51.051572666919775
    }, 
    {
      "latmax": 51.04084345026645, 
      "name": "Stegereindweg", 
      "lonmin": 5.578398008313362, 
      "sanName": "stegereindweg", 
      "numOfAddr": 24, 
      "lonmax": 5.582263152552893, 
      "latmin": 51.03827943213109
    }, 
    {
      "latmax": 51.04144299629818, 
      "name": "Stegerweg", 
      "lonmin": 5.576405186261308, 
      "sanName": "stegerweg", 
      "numOfAddr": 75, 
      "lonmax": 5.5795783329900965, 
      "latmin": 51.03365148930865
    }, 
    {
      "latmax": 51.03894979613364, 
      "name": "Teewisstraat", 
      "lonmin": 5.569385002545014, 
      "sanName": "teewisstraat", 
      "numOfAddr": 27, 
      "lonmax": 5.573610170313311, 
      "latmin": 51.03512495959196
    }, 
    {
      "latmax": 51.03269167227782, 
      "name": "Tulpenstraat", 
      "lonmin": 5.532722160246828, 
      "sanName": "tulpenstraat", 
      "numOfAddr": 11, 
      "lonmax": 5.534401387963966, 
      "latmin": 51.0318938342278
    }, 
    {
      "latmax": 51.03716598672166, 
      "name": "Veldstraat", 
      "lonmin": 5.572291286379078, 
      "sanName": "veldstraat", 
      "numOfAddr": 12, 
      "lonmax": 5.573960567574832, 
      "latmin": 51.03649366901899
    }, 
    {
      "latmax": 51.04278919068395, 
      "name": "Verbindingsweg", 
      "lonmin": 5.596854371321499, 
      "sanName": "verbindingsweg", 
      "numOfAddr": 1, 
      "lonmax": 5.596854371321499, 
      "latmin": 51.04278919068395
    }, 
    {
      "latmax": 51.05474586369674, 
      "name": "Verlengstraat", 
      "lonmin": 5.6140744255130794, 
      "sanName": "verlengstraat", 
      "numOfAddr": 20, 
      "lonmax": 5.618428307867057, 
      "latmin": 51.05359950129816
    }, 
    {
      "latmax": 51.04477077816579, 
      "name": "Vinkenkantstraat", 
      "lonmin": 5.588350392068678, 
      "sanName": "vinkenkantstraat", 
      "numOfAddr": 28, 
      "lonmax": 5.5966571380189505, 
      "latmin": 51.04362359064469
    }, 
    {
      "latmax": 51.032268283346895, 
      "name": "Violastraat", 
      "lonmin": 5.539083799462369, 
      "sanName": "violastraat", 
      "numOfAddr": 11, 
      "lonmax": 5.540812216461648, 
      "latmin": 51.031423457275174
    }, 
    {
      "latmax": 51.03695087057857, 
      "name": "Voerstraat", 
      "lonmin": 5.584906606792571, 
      "sanName": "voerstraat", 
      "numOfAddr": 23, 
      "lonmax": 5.587957051445042, 
      "latmin": 51.035059770103615
    }, 
    {
      "latmax": 51.04193736290207, 
      "name": "Weg naar As", 
      "lonmin": 5.579309089823318, 
      "sanName": "wegnaaras", 
      "numOfAddr": 173, 
      "lonmax": 5.583723860036492, 
      "latmin": 51.02200814581634
    }, 
    {
      "latmax": 51.05927433063457, 
      "name": "Weg naar Bree", 
      "lonmin": 5.5846818714653885, 
      "sanName": "wegnaarbree", 
      "numOfAddr": 94, 
      "lonmax": 5.587887594592291, 
      "latmin": 51.04643215722392
    }, 
    {
      "latmax": 51.05210381547606, 
      "name": "Weg naar Dorne", 
      "lonmin": 5.614165489679722, 
      "sanName": "wegnaardorne", 
      "numOfAddr": 20, 
      "lonmax": 5.622978422989133, 
      "latmin": 51.04819708402511
    }, 
    {
      "latmax": 51.03963495919263, 
      "name": "Weg naar Meeuwen", 
      "lonmin": 5.527825357018189, 
      "sanName": "wegnaarmeeuwen", 
      "numOfAddr": 21, 
      "lonmax": 5.531667478251727, 
      "latmin": 51.02840067023611
    }, 
    {
      "latmax": 51.02348517858116, 
      "name": "Weg naar Niel", 
      "lonmin": 5.582901425621167, 
      "sanName": "wegnaarniel", 
      "numOfAddr": 4, 
      "lonmax": 5.585890596804192, 
      "latmin": 51.02276329873111
    }, 
    {
      "latmax": 51.05356926813764, 
      "name": "Weg naar Opoeteren", 
      "lonmin": 5.5860404560719825, 
      "sanName": "wegnaaropoeteren", 
      "numOfAddr": 198, 
      "lonmax": 5.617609694160307, 
      "latmin": 51.0436198878727
    }, 
    {
      "latmax": 51.042463142170526, 
      "name": "Weg naar Zwartberg", 
      "lonmin": 5.522663935398379, 
      "sanName": "wegnaarzwartberg", 
      "numOfAddr": 339, 
      "lonmax": 5.582964799610108, 
      "latmin": 51.01889760654844
    }, 
    {
      "latmax": 51.03565419903545, 
      "name": "Wervelstraat", 
      "lonmin": 5.585645934755734, 
      "sanName": "wervelstraat", 
      "numOfAddr": 21, 
      "lonmax": 5.590529463813317, 
      "latmin": 51.034352685086525
    }, 
    {
      "latmax": 51.05304056019298, 
      "name": "Wolfsstraat", 
      "lonmin": 5.577514586432779, 
      "sanName": "wolfsstraat", 
      "numOfAddr": 33, 
      "lonmax": 5.585422986406242, 
      "latmin": 51.05205659421942
    }, 
    {
      "latmax": 51.04187788708694, 
      "name": "Zagerijstraat", 
      "lonmin": 5.569653811132323, 
      "sanName": "zagerijstraat", 
      "numOfAddr": 6, 
      "lonmax": 5.570285980532651, 
      "latmin": 51.04091392371069
    }, 
    {
      "latmax": 51.027640376215544, 
      "name": "Zandstraat", 
      "lonmin": 5.574325445201756, 
      "sanName": "zandstraat", 
      "numOfAddr": 25, 
      "lonmax": 5.580832089107026, 
      "latmin": 51.02608987177052
    }, 
    {
      "latmax": 51.05687255720281, 
      "name": "Zavelweg", 
      "lonmin": 5.620731674126387, 
      "sanName": "zavelweg", 
      "numOfAddr": 1, 
      "lonmax": 5.620731674126387, 
      "latmin": 51.05687255720281
    }, 
    {
      "latmax": 51.052489418062414, 
      "name": "Zijstraat", 
      "lonmin": 5.60430679777852, 
      "sanName": "zijstraat", 
      "numOfAddr": 23, 
      "lonmax": 5.609142354433703, 
      "latmin": 51.051307735647946
    }, 
    {
      "latmax": 51.03366009556248, 
      "name": "Zonnebloemstraat", 
      "lonmin": 5.5337553692796355, 
      "sanName": "zonnebloemstraat", 
      "numOfAddr": 25, 
      "lonmax": 5.537077972868248, 
      "latmin": 51.029950669781726
    }
  ]
}