{
  "streets": [
    {
      "latmax": 51.012634985192015, 
      "name": "Bremstraat", 
      "lonmin": 5.608921600352485, 
      "sanName": "bremstraat", 
      "numOfAddr": 13, 
      "lonmax": 5.61231930227377, 
      "latmin": 51.01069730063518
    }, 
    {
      "latmax": 51.01052140138937, 
      "name": "Burgemeester Vindevogellaan", 
      "lonmin": 5.602957612793411, 
      "sanName": "burgemeestervindevogellaan", 
      "numOfAddr": 2, 
      "lonmax": 5.6036883697603175, 
      "latmin": 51.01001995018974
    }, 
    {
      "latmax": 51.031261721064176, 
      "name": "Caelenbergstraat", 
      "lonmin": 5.606458632664653, 
      "sanName": "caelenbergstraat", 
      "numOfAddr": 12, 
      "lonmax": 5.61458290911539, 
      "latmin": 51.02957168478967
    }, 
    {
      "latmax": 51.022403488184565, 
      "name": "Daelstraat", 
      "lonmin": 5.6054449673773545, 
      "sanName": "daelstraat", 
      "numOfAddr": 16, 
      "lonmax": 5.606503478988278, 
      "latmin": 51.01999781648434
    }, 
    {
      "latmax": 51.01548188568902, 
      "name": "Dennengaerdelaan", 
      "lonmin": 5.610919233375636, 
      "sanName": "dennengaerdelaan", 
      "numOfAddr": 41, 
      "lonmax": 5.616672823299327, 
      "latmin": 51.01198595243257
    }, 
    {
      "latmax": 51.011564963397554, 
      "name": "Dianastraat", 
      "lonmin": 5.611700355164751, 
      "sanName": "dianastraat", 
      "numOfAddr": 5, 
      "lonmax": 5.6127956788723425, 
      "latmin": 51.0112199784473
    }, 
    {
      "latmax": 51.01434188736856, 
      "name": "Echostraat", 
      "lonmin": 5.612676857860684, 
      "sanName": "echostraat", 
      "numOfAddr": 7, 
      "lonmax": 5.613868367261121, 
      "latmin": 51.0135404719536
    }, 
    {
      "latmax": 51.01411803569365, 
      "name": "Eekhoorntjesweg", 
      "lonmin": 5.616232878572235, 
      "sanName": "eekhoorntjesweg", 
      "numOfAddr": 5, 
      "lonmax": 5.617623684149807, 
      "latmin": 51.012860589101436
    }, 
    {
      "latmax": 51.03254666686352, 
      "name": "Eindstraat", 
      "lonmin": 5.61408069292771, 
      "sanName": "eindstraat", 
      "numOfAddr": 2, 
      "lonmax": 5.614848698795288, 
      "latmin": 51.03229292292502
    }, 
    {
      "latmax": 51.02590964499447, 
      "name": "Geenstraat", 
      "lonmin": 5.6028525244701886, 
      "sanName": "geenstraat", 
      "numOfAddr": 20, 
      "lonmax": 5.612146344530174, 
      "latmin": 51.02446375678809
    }, 
    {
      "latmax": 51.02352260062671, 
      "name": "Grotstraat", 
      "lonmin": 5.5982744157086906, 
      "sanName": "grotstraat", 
      "numOfAddr": 77, 
      "lonmax": 5.608340119662201, 
      "latmin": 51.015820135583624
    }, 
    {
      "latmax": 51.02487501145424, 
      "name": "Heiweg", 
      "lonmin": 5.612897767351309, 
      "sanName": "heiweg", 
      "numOfAddr": 9, 
      "lonmax": 5.617853375086078, 
      "latmin": 51.02256297405848
    }, 
    {
      "latmax": 51.01916496995272, 
      "name": "Heulkensstraat", 
      "lonmin": 5.6149694374221895, 
      "sanName": "heulkensstraat", 
      "numOfAddr": 3, 
      "lonmax": 5.619311488212234, 
      "latmin": 51.01895484800929
    }, 
    {
      "latmax": 51.0321058148708, 
      "name": "Hoogstraat", 
      "lonmin": 5.594098284597492, 
      "sanName": "hoogstraat", 
      "numOfAddr": 120, 
      "lonmax": 5.617195220725637, 
      "latmin": 51.01081411733456
    }, 
    {
      "latmax": 51.031177912486065, 
      "name": "Jagersdreef", 
      "lonmin": 5.61677795639024, 
      "sanName": "jagersdreef", 
      "numOfAddr": 21, 
      "lonmax": 5.620330644369961, 
      "latmin": 51.02897508320046
    }, 
    {
      "latmax": 51.031431179400485, 
      "name": "J.F. Kennedystraat", 
      "lonmin": 5.617251006193949, 
      "sanName": "jfkennedystraat", 
      "numOfAddr": 24, 
      "lonmax": 5.620589740485902, 
      "latmin": 51.02969947670145
    }, 
    {
      "latmax": 51.012963637784445, 
      "name": "Kanunnik Berghsstraat", 
      "lonmin": 5.609571196515243, 
      "sanName": "kanunnikberghsstraat", 
      "numOfAddr": 16, 
      "lonmax": 5.61262714157916, 
      "latmin": 51.011701841150476
    }, 
    {
      "latmax": 51.02782848222486, 
      "name": "Kapelstraat", 
      "lonmin": 5.61518389113143, 
      "sanName": "kapelstraat", 
      "numOfAddr": 15, 
      "lonmax": 5.6281352827604145, 
      "latmin": 51.0215458812503
    }, 
    {
      "latmax": 51.00912889953504, 
      "name": "Koning Boudewijnplein", 
      "lonmin": 5.606101642082369, 
      "sanName": "koningboudewijnplein", 
      "numOfAddr": 4, 
      "lonmax": 5.606621163939042, 
      "latmin": 51.00898999494852
    }, 
    {
      "latmax": 51.013390668925666, 
      "name": "Krimstraat", 
      "lonmin": 5.6002320596510335, 
      "sanName": "krimstraat", 
      "numOfAddr": 17, 
      "lonmax": 5.601852333980308, 
      "latmin": 51.01137702653753
    }, 
    {
      "latmax": 51.018328911831105, 
      "name": "Kruisbeemdenstraat", 
      "lonmin": 5.602294385292848, 
      "sanName": "kruisbeemdenstraat", 
      "numOfAddr": 3, 
      "lonmax": 5.6039171563039405, 
      "latmin": 51.018110622911585
    }, 
    {
      "latmax": 51.0154888082322, 
      "name": "Kruisstraat", 
      "lonmin": 5.6022009620299125, 
      "sanName": "kruisstraat", 
      "numOfAddr": 33, 
      "lonmax": 5.611463464403377, 
      "latmin": 51.01004524438755
    }, 
    {
      "latmax": 51.00700051682952, 
      "name": "Lanklaarsesteenweg", 
      "lonmin": 5.607988944682363, 
      "sanName": "lanklaarsesteenweg", 
      "numOfAddr": 12, 
      "lonmax": 5.6128594999917745, 
      "latmin": 51.00669257815299
    }, 
    {
      "latmax": 51.01126324406911, 
      "name": "Leeuwerikstraat", 
      "lonmin": 5.607167595264186, 
      "sanName": "leeuwerikstraat", 
      "numOfAddr": 13, 
      "lonmax": 5.610142558449177, 
      "latmin": 51.00970057284985
    }, 
    {
      "latmax": 51.01009894625395, 
      "name": "Lode Plessersstraat", 
      "lonmin": 5.605352313674481, 
      "sanName": "lodeplessersstraat", 
      "numOfAddr": 13, 
      "lonmax": 5.606371113322344, 
      "latmin": 51.00840928793243
    }, 
    {
      "latmax": 51.01191144738878, 
      "name": "Lostraat", 
      "lonmin": 5.612728253650942, 
      "sanName": "lostraat", 
      "numOfAddr": 8, 
      "lonmax": 5.614153850607964, 
      "latmin": 51.010904428827125
    }, 
    {
      "latmax": 51.029788147653946, 
      "name": "Maaseikerweg", 
      "lonmin": 5.614860975554125, 
      "sanName": "maaseikerweg", 
      "numOfAddr": 18, 
      "lonmax": 5.621300808843086, 
      "latmin": 51.026533082295636
    }, 
    {
      "latmax": 51.017801040597746, 
      "name": "Melkerijstraat", 
      "lonmin": 5.608328721279068, 
      "sanName": "melkerijstraat", 
      "numOfAddr": 4, 
      "lonmax": 5.611763228250924, 
      "latmin": 51.01665097268655
    }, 
    {
      "latmax": 51.02614041467754, 
      "name": "Moorsbergstraat", 
      "lonmin": 5.6048045594176035, 
      "sanName": "moorsbergstraat", 
      "numOfAddr": 6, 
      "lonmax": 5.606324019239717, 
      "latmin": 51.02592481814564
    }, 
    {
      "latmax": 51.01404342115087, 
      "name": "Nielerlaan", 
      "lonmin": 5.600406267752296, 
      "sanName": "nielerlaan", 
      "numOfAddr": 60, 
      "lonmax": 5.605382092699836, 
      "latmin": 51.00615285873764
    }, 
    {
      "latmax": 51.02610047700361, 
      "name": "Nieuwheidestraat", 
      "lonmin": 5.614215059286423, 
      "sanName": "nieuwheidestraat", 
      "numOfAddr": 18, 
      "lonmax": 5.624499413713172, 
      "latmin": 51.02095083703249
    }, 
    {
      "latmax": 51.0185822965024, 
      "name": "O.L. Vrouwestraat", 
      "lonmin": 5.605182907774483, 
      "sanName": "olvrouwestraat", 
      "numOfAddr": 43, 
      "lonmax": 5.614431498874573, 
      "latmin": 51.01124587298512
    }, 
    {
      "latmax": 51.0090794978424, 
      "name": "Oostlaan", 
      "lonmin": 5.604506681363565, 
      "sanName": "oostlaan", 
      "numOfAddr": 32, 
      "lonmax": 5.608807450026054, 
      "latmin": 51.007403143805185
    }, 
    {
      "latmax": 51.01141441366775, 
      "name": "Oude Hoogstraat", 
      "lonmin": 5.5971713286597415, 
      "sanName": "oudehoogstraat", 
      "numOfAddr": 1, 
      "lonmax": 5.5971713286597415, 
      "latmin": 51.01141441366775
    }, 
    {
      "latmax": 51.01195742530579, 
      "name": "Pastoor Hermansstraat", 
      "lonmin": 5.601322471431968, 
      "sanName": "pastoorhermansstraat", 
      "numOfAddr": 17, 
      "lonmax": 5.603545917417887, 
      "latmin": 51.010180480406504
    }, 
    {
      "latmax": 51.01671784655932, 
      "name": "Riddersbaan", 
      "lonmin": 5.597270984008812, 
      "sanName": "riddersbaan", 
      "numOfAddr": 13, 
      "lonmax": 5.599247051453279, 
      "latmin": 51.01530389937582
    }, 
    {
      "latmax": 51.01932004763289, 
      "name": "Rouwmortelstraat", 
      "lonmin": 5.6209011544511975, 
      "sanName": "rouwmortelstraat", 
      "numOfAddr": 2, 
      "lonmax": 5.621534362116835, 
      "latmin": 51.01920065461252
    }, 
    {
      "latmax": 51.0088475537996, 
      "name": "Rozenstraat", 
      "lonmin": 5.6046065102160565, 
      "sanName": "rozenstraat", 
      "numOfAddr": 14, 
      "lonmax": 5.6076464742021646, 
      "latmin": 51.008267434937196
    }, 
    {
      "latmax": 51.01870456833787, 
      "name": "Schansbroek", 
      "lonmin": 5.598072775606335, 
      "sanName": "schansbroek", 
      "numOfAddr": 1, 
      "lonmax": 5.598072775606335, 
      "latmin": 51.01870456833787
    }, 
    {
      "latmax": 51.01667919297988, 
      "name": "Schoolstraat", 
      "lonmin": 5.604452737440176, 
      "sanName": "schoolstraat", 
      "numOfAddr": 32, 
      "lonmax": 5.61423589121248, 
      "latmin": 51.01204687227527
    }, 
    {
      "latmax": 51.029193515986336, 
      "name": "Schutterijstraat", 
      "lonmin": 5.609881824282254, 
      "sanName": "schutterijstraat", 
      "numOfAddr": 3, 
      "lonmax": 5.613787839337062, 
      "latmin": 51.02835121896123
    }, 
    {
      "latmax": 51.02086158222817, 
      "name": "Smeetsbergstraat", 
      "lonmin": 5.600257006229755, 
      "sanName": "smeetsbergstraat", 
      "numOfAddr": 21, 
      "lonmax": 5.606085470230047, 
      "latmin": 51.0195607242356
    }, 
    {
      "latmax": 51.0177409972061, 
      "name": "Smispoelstraat", 
      "lonmin": 5.594166066578296, 
      "sanName": "smispoelstraat", 
      "numOfAddr": 19, 
      "lonmax": 5.59768745018193, 
      "latmin": 51.01418806066725
    }, 
    {
      "latmax": 51.014755022956294, 
      "name": "Smisstraat", 
      "lonmin": 5.592491139484126, 
      "sanName": "smisstraat", 
      "numOfAddr": 11, 
      "lonmax": 5.596370658846185, 
      "latmin": 51.01296996957413
    }, 
    {
      "latmax": 51.028633983830105, 
      "name": "Sparrendreef", 
      "lonmin": 5.617298616378243, 
      "sanName": "sparrendreef", 
      "numOfAddr": 5, 
      "lonmax": 5.619295018398072, 
      "latmin": 51.0274306506542
    }, 
    {
      "latmax": 51.01097485321003, 
      "name": "Spoorwegstraat", 
      "lonmin": 5.605581193299624, 
      "sanName": "spoorwegstraat", 
      "numOfAddr": 31, 
      "lonmax": 5.612133651007259, 
      "latmin": 51.00886401967575
    }, 
    {
      "latmax": 51.01331172500006, 
      "name": "St. Hubertusstraat", 
      "lonmin": 5.612064651563694, 
      "sanName": "sthubertusstraat", 
      "numOfAddr": 13, 
      "lonmax": 5.614475087100578, 
      "latmin": 51.01243297665582
    }, 
    {
      "latmax": 51.00839878721878, 
      "name": "Sylvesterstraat", 
      "lonmin": 5.6029004793194135, 
      "sanName": "sylvesterstraat", 
      "numOfAddr": 5, 
      "lonmax": 5.603730237231197, 
      "latmin": 51.00777073476775
    }, 
    {
      "latmax": 51.01333585412987, 
      "name": "Varenlaan", 
      "lonmin": 5.6138931133321135, 
      "sanName": "varenlaan", 
      "numOfAddr": 4, 
      "lonmax": 5.615475010392841, 
      "latmin": 51.01293338228639
    }, 
    {
      "latmax": 51.02011696440695, 
      "name": "Veldstraat", 
      "lonmin": 5.616441497188771, 
      "sanName": "veldstraat", 
      "numOfAddr": 4, 
      "lonmax": 5.616940127205551, 
      "latmin": 51.01945292510091
    }, 
    {
      "latmax": 51.0119294584574, 
      "name": "Verbindingsstraat", 
      "lonmin": 5.598815344584916, 
      "sanName": "verbindingsstraat", 
      "numOfAddr": 12, 
      "lonmax": 5.604047625310031, 
      "latmin": 51.00966442683103
    }, 
    {
      "latmax": 51.021595893740475, 
      "name": "Vijverstraat", 
      "lonmin": 5.595604328313142, 
      "sanName": "vijverstraat", 
      "numOfAddr": 1, 
      "lonmax": 5.595604328313142, 
      "latmin": 51.021595893740475
    }, 
    {
      "latmax": 51.00960939068925, 
      "name": "Vooruitgangsstraat", 
      "lonmin": 5.606693437529973, 
      "sanName": "vooruitgangsstraat", 
      "numOfAddr": 9, 
      "lonmax": 5.608014996982823, 
      "latmin": 51.00884919667598
    }, 
    {
      "latmax": 51.022490207202424, 
      "name": "Wervenstraat", 
      "lonmin": 5.611004215988621, 
      "sanName": "wervenstraat", 
      "numOfAddr": 1, 
      "lonmax": 5.611004215988621, 
      "latmin": 51.022490207202424
    }
  ]
}