{
  "streets": [
    {
      "latmax": 50.83820534916265, 
      "name": "Beemdstraat", 
      "lonmin": 5.40118656703478, 
      "sanName": "beemdstraat", 
      "numOfAddr": 27, 
      "lonmax": 5.405702005746304, 
      "latmin": 50.83729928775553
    }, 
    {
      "latmax": 50.84144642669233, 
      "name": "Bosweg", 
      "lonmin": 5.3983721076615385, 
      "sanName": "bosweg", 
      "numOfAddr": 19, 
      "lonmax": 5.401760223300721, 
      "latmin": 50.840106135143785
    }, 
    {
      "latmax": 50.845286671595964, 
      "name": "Brandstraat", 
      "lonmin": 5.400655047988479, 
      "sanName": "brandstraat", 
      "numOfAddr": 36, 
      "lonmax": 5.40781469414334, 
      "latmin": 50.83860884532299
    }, 
    {
      "latmax": 50.85441213693836, 
      "name": "Bredeweg", 
      "lonmin": 5.394591444183216, 
      "sanName": "bredeweg", 
      "numOfAddr": 36, 
      "lonmax": 5.40043768817211, 
      "latmin": 50.83988779538329
    }, 
    {
      "latmax": 50.85303988960758, 
      "name": "Groenstraat", 
      "lonmin": 5.3923111952961875, 
      "sanName": "groenstraat", 
      "numOfAddr": 15, 
      "lonmax": 5.398237391846121, 
      "latmin": 50.850530078114396
    }, 
    {
      "latmax": 50.836167161633945, 
      "name": "Jeugdlaan", 
      "lonmin": 5.396239449478869, 
      "sanName": "jeugdlaan", 
      "numOfAddr": 13, 
      "lonmax": 5.3981017591538185, 
      "latmin": 50.83573729294235
    }, 
    {
      "latmax": 50.84019285803844, 
      "name": "Kasteelstraat", 
      "lonmin": 5.402562630861595, 
      "sanName": "kasteelstraat", 
      "numOfAddr": 19, 
      "lonmax": 5.411915689526979, 
      "latmin": 50.83883502173826
    }, 
    {
      "latmax": 50.83721366253755, 
      "name": "Leeuwerstraat", 
      "lonmin": 5.398168664919492, 
      "sanName": "leeuwerstraat", 
      "numOfAddr": 12, 
      "lonmax": 5.399854172586112, 
      "latmin": 50.83549917868533
    }, 
    {
      "latmax": 50.837809907102546, 
      "name": "Lelielaan", 
      "lonmin": 5.397880275372356, 
      "sanName": "lelielaan", 
      "numOfAddr": 23, 
      "lonmax": 5.398698903095664, 
      "latmin": 50.83607317648575
    }, 
    {
      "latmax": 50.83807098573282, 
      "name": "Lentelaan", 
      "lonmin": 5.397255994986567, 
      "sanName": "lentelaan", 
      "numOfAddr": 10, 
      "lonmax": 5.3982527069939845, 
      "latmin": 50.83774882779302
    }, 
    {
      "latmax": 50.85498154512401, 
      "name": "Mersenhovenstraat", 
      "lonmin": 5.395113497407247, 
      "sanName": "mersenhovenstraat", 
      "numOfAddr": 19, 
      "lonmax": 5.398826442943218, 
      "latmin": 50.85433274976197
    }, 
    {
      "latmax": 50.85306795692146, 
      "name": "Rozenstraat", 
      "lonmin": 5.391874322201886, 
      "sanName": "rozenstraat", 
      "numOfAddr": 17, 
      "lonmax": 5.393609669385498, 
      "latmin": 50.85148034013357
    }, 
    {
      "latmax": 50.83946633968246, 
      "name": "St.-Sebastiaanstraat", 
      "lonmin": 5.402635961022567, 
      "sanName": "stsebastiaanstraat", 
      "numOfAddr": 12, 
      "lonmax": 5.403938084556091, 
      "latmin": 50.838904368613974
    }, 
    {
      "latmax": 50.8524605647656, 
      "name": "Tongersesteenweg", 
      "lonmin": 5.390187950656578, 
      "sanName": "tongersesteenweg", 
      "numOfAddr": 129, 
      "lonmax": 5.404521575690337, 
      "latmin": 50.832370634892904
    }, 
    {
      "latmax": 50.83787532841228, 
      "name": "Tulpenlaan", 
      "lonmin": 5.396397615965165, 
      "sanName": "tulpenlaan", 
      "numOfAddr": 24, 
      "lonmax": 5.3975021185011824, 
      "latmin": 50.83625517456433
    }, 
    {
      "latmax": 50.83948614992661, 
      "name": "Wouddal", 
      "lonmin": 5.396989296218851, 
      "sanName": "wouddal", 
      "numOfAddr": 18, 
      "lonmax": 5.400258452985592, 
      "latmin": 50.83889305904024
    }
  ]
}