{
  "streets": [
    {
      "latmax": 50.89069154554657, 
      "name": "Abdijstraat", 
      "lonmin": 5.522920984554697, 
      "sanName": "abdijstraat", 
      "numOfAddr": 3, 
      "lonmax": 5.525613678556381, 
      "latmin": 50.888768299067394
    }, 
    {
      "latmax": 50.867765158378155, 
      "name": "Acacialaan", 
      "lonmin": 5.49938348887808, 
      "sanName": "acacialaan", 
      "numOfAddr": 15, 
      "lonmax": 5.500232003708015, 
      "latmin": 50.866400043811126
    }, 
    {
      "latmax": 50.832811639637214, 
      "name": "Achter de Hoven", 
      "lonmin": 5.5144603406640265, 
      "sanName": "achterdehoven", 
      "numOfAddr": 36, 
      "lonmax": 5.517929935019028, 
      "latmin": 50.83147443221001
    }, 
    {
      "latmax": 50.86851199300629, 
      "name": "Achterveldstraat", 
      "lonmin": 5.54624653927277, 
      "sanName": "achterveldstraat", 
      "numOfAddr": 3, 
      "lonmax": 5.549164160484915, 
      "latmin": 50.863760786605255
    }, 
    {
      "latmax": 50.834904778258064, 
      "name": "Akkerhof", 
      "lonmin": 5.553359943276492, 
      "sanName": "akkerhof", 
      "numOfAddr": 31, 
      "lonmax": 5.556191855736017, 
      "latmin": 50.83362506120017
    }, 
    {
      "latmax": 50.89025553493987, 
      "name": "Akkerstraat", 
      "lonmin": 5.493765614504743, 
      "sanName": "akkerstraat", 
      "numOfAddr": 22, 
      "lonmax": 5.49713712811817, 
      "latmin": 50.889334813760506
    }, 
    {
      "latmax": 50.836436347020516, 
      "name": "Alden Biesenstraat", 
      "lonmin": 5.519471176827839, 
      "sanName": "aldenbiesenstraat", 
      "numOfAddr": 21, 
      "lonmax": 5.521249266867836, 
      "latmin": 50.83470295132945
    }, 
    {
      "latmax": 50.83059679340951, 
      "name": "Althoeseltweg", 
      "lonmin": 5.511600825393158, 
      "sanName": "althoeseltweg", 
      "numOfAddr": 22, 
      "lonmax": 5.514202689758894, 
      "latmin": 50.829552228265776
    }, 
    {
      "latmax": 50.8588402209979, 
      "name": "Amelsdorp", 
      "lonmin": 5.5490891906171145, 
      "sanName": "amelsdorp", 
      "numOfAddr": 62, 
      "lonmax": 5.554878916553577, 
      "latmin": 50.85032058389997
    }, 
    {
      "latmax": 50.86050895483375, 
      "name": "Annastraat", 
      "lonmin": 5.570862962284871, 
      "sanName": "annastraat", 
      "numOfAddr": 10, 
      "lonmax": 5.5725155985153965, 
      "latmin": 50.86009441076069
    }, 
    {
      "latmax": 50.893843723922856, 
      "name": "Appelboomgaardstraat", 
      "lonmin": 5.5211292394059255, 
      "sanName": "appelboomgaardstraat", 
      "numOfAddr": 11, 
      "lonmax": 5.52310295008759, 
      "latmin": 50.88865276566784
    }, 
    {
      "latmax": 50.9091579781912, 
      "name": "Appelveldstraat", 
      "lonmin": 5.467940811919639, 
      "sanName": "appelveldstraat", 
      "numOfAddr": 76, 
      "lonmax": 5.471936501107226, 
      "latmin": 50.90251612400041
    }, 
    {
      "latmax": 50.88824831149209, 
      "name": "Asbornestraat", 
      "lonmin": 5.475844236389411, 
      "sanName": "asbornestraat", 
      "numOfAddr": 6, 
      "lonmax": 5.477382385770881, 
      "latmin": 50.88552013385577
    }, 
    {
      "latmax": 50.864419281302254, 
      "name": "Asbroekstraat", 
      "lonmin": 5.5275500896412355, 
      "sanName": "asbroekstraat", 
      "numOfAddr": 4, 
      "lonmax": 5.527765161357546, 
      "latmin": 50.8637222748385
    }, 
    {
      "latmax": 50.84370104264721, 
      "name": "Baanhofstraat", 
      "lonmin": 5.542486181468733, 
      "sanName": "baanhofstraat", 
      "numOfAddr": 11, 
      "lonmax": 5.5460327426656155, 
      "latmin": 50.84074675424294
    }, 
    {
      "latmax": 50.83086115674323, 
      "name": "Bammestraat", 
      "lonmin": 5.514566144792039, 
      "sanName": "bammestraat", 
      "numOfAddr": 81, 
      "lonmax": 5.51947366703752, 
      "latmin": 50.823421329540956
    }, 
    {
      "latmax": 50.847995948597706, 
      "name": "Bandstraat", 
      "lonmin": 5.56875864886022, 
      "sanName": "bandstraat", 
      "numOfAddr": 8, 
      "lonmax": 5.570553178503152, 
      "latmin": 50.84781488186248
    }, 
    {
      "latmax": 50.90044821655395, 
      "name": "Batterijstraat", 
      "lonmin": 5.525602087558469, 
      "sanName": "batterijstraat", 
      "numOfAddr": 15, 
      "lonmax": 5.529110854231839, 
      "latmin": 50.899232402995096
    }, 
    {
      "latmax": 50.872767905205684, 
      "name": "Beekomstraat", 
      "lonmin": 5.570170096532937, 
      "sanName": "beekomstraat", 
      "numOfAddr": 35, 
      "lonmax": 5.575342143001622, 
      "latmin": 50.87125429894688
    }, 
    {
      "latmax": 50.89221729949629, 
      "name": "Beekstraat", 
      "lonmin": 5.476168546427788, 
      "sanName": "beekstraat", 
      "numOfAddr": 13, 
      "lonmax": 5.477474102499441, 
      "latmin": 50.891386368889414
    }, 
    {
      "latmax": 50.84602323850609, 
      "name": "Beemdstraat", 
      "lonmin": 5.539073185986365, 
      "sanName": "beemdstraat", 
      "numOfAddr": 2, 
      "lonmax": 5.5404204017465934, 
      "latmin": 50.84541306990645
    }, 
    {
      "latmax": 50.91124554227354, 
      "name": "Begeveldstraat", 
      "lonmin": 5.459289884142675, 
      "sanName": "begeveldstraat", 
      "numOfAddr": 46, 
      "lonmax": 5.467285856086367, 
      "latmin": 50.90740276511073
    }, 
    {
      "latmax": 50.87022480545297, 
      "name": "Begijnhof", 
      "lonmin": 5.519136979034406, 
      "sanName": "begijnhof", 
      "numOfAddr": 20, 
      "lonmax": 5.520175072394094, 
      "latmin": 50.869728769347766
    }, 
    {
      "latmax": 50.8872982569291, 
      "name": "Berenbroekstraat", 
      "lonmin": 5.584154843892866, 
      "sanName": "berenbroekstraat", 
      "numOfAddr": 14, 
      "lonmax": 5.589090891557556, 
      "latmin": 50.882414842353434
    }, 
    {
      "latmax": 50.868726053874845, 
      "name": "Bergstraat", 
      "lonmin": 5.572953024052196, 
      "sanName": "bergstraat", 
      "numOfAddr": 14, 
      "lonmax": 5.5772409063494175, 
      "latmin": 50.86723106527708
    }, 
    {
      "latmax": 50.87271727959131, 
      "name": "Bergweidelaan", 
      "lonmin": 5.522499710256721, 
      "sanName": "bergweidelaan", 
      "numOfAddr": 9, 
      "lonmax": 5.524358069415372, 
      "latmin": 50.87235952038678
    }, 
    {
      "latmax": 50.902119816988325, 
      "name": "Berkenstraat", 
      "lonmin": 5.465332268176744, 
      "sanName": "berkenstraat", 
      "numOfAddr": 8, 
      "lonmax": 5.465975313078001, 
      "latmin": 50.90180909839137
    }, 
    {
      "latmax": 50.9042606300037, 
      "name": "Beterveld", 
      "lonmin": 5.4741857053696235, 
      "sanName": "beterveld", 
      "numOfAddr": 4, 
      "lonmax": 5.474720900944117, 
      "latmin": 50.90374220568548
    }, 
    {
      "latmax": 50.86429993949245, 
      "name": "Betonweg", 
      "lonmin": 5.576111862902438, 
      "sanName": "betonweg", 
      "numOfAddr": 27, 
      "lonmax": 5.580167635841411, 
      "latmin": 50.86319159050231
    }, 
    {
      "latmax": 50.8671467974342, 
      "name": "Beukenstraat", 
      "lonmin": 5.513589838728479, 
      "sanName": "beukenstraat", 
      "numOfAddr": 11, 
      "lonmax": 5.51478136112433, 
      "latmin": 50.866267319903926
    }, 
    {
      "latmax": 50.894508973447074, 
      "name": "Beverststraat", 
      "lonmin": 5.466970694061862, 
      "sanName": "beverststraat", 
      "numOfAddr": 87, 
      "lonmax": 5.474812675171522, 
      "latmin": 50.890563817575384
    }, 
    {
      "latmax": 50.865899299956475, 
      "name": "Biesenweg", 
      "lonmin": 5.521521989680654, 
      "sanName": "biesenweg", 
      "numOfAddr": 37, 
      "lonmax": 5.522586022696522, 
      "latmin": 50.85873333856044
    }, 
    {
      "latmax": 50.831552180364355, 
      "name": "Biestertstraat", 
      "lonmin": 5.539535062684059, 
      "sanName": "biestertstraat", 
      "numOfAddr": 59, 
      "lonmax": 5.548342225196722, 
      "latmin": 50.829255791076946
    }, 
    {
      "latmax": 50.86984680127525, 
      "name": "Bivelenweg", 
      "lonmin": 5.49583281454254, 
      "sanName": "bivelenweg", 
      "numOfAddr": 2, 
      "lonmax": 5.49611738444025, 
      "latmin": 50.869770510412955
    }, 
    {
      "latmax": 50.87370527037546, 
      "name": "Bleekaart", 
      "lonmin": 5.52565428096957, 
      "sanName": "bleekaart", 
      "numOfAddr": 25, 
      "lonmax": 5.527489639158526, 
      "latmin": 50.871638846970065
    }, 
    {
      "latmax": 50.89030910767788, 
      "name": "Blindestraat", 
      "lonmin": 5.48023034811819, 
      "sanName": "blindestraat", 
      "numOfAddr": 36, 
      "lonmax": 5.484520507578738, 
      "latmin": 50.88811858084196
    }, 
    {
      "latmax": 50.882394253966346, 
      "name": "Bloemendaalstraat", 
      "lonmin": 5.530811757732689, 
      "sanName": "bloemendaalstraat", 
      "numOfAddr": 32, 
      "lonmax": 5.5341966017549895, 
      "latmin": 50.87910005115641
    }, 
    {
      "latmax": 50.86752120973061, 
      "name": "Blookstraat", 
      "lonmin": 5.577910869851357, 
      "sanName": "blookstraat", 
      "numOfAddr": 24, 
      "lonmax": 5.585140365645563, 
      "latmin": 50.86585383044074
    }, 
    {
      "latmax": 50.888721649631556, 
      "name": "Boomstraat", 
      "lonmin": 5.497885406210746, 
      "sanName": "boomstraat", 
      "numOfAddr": 13, 
      "lonmax": 5.498992399970929, 
      "latmin": 50.88739887784953
    }, 
    {
      "latmax": 50.85487364481268, 
      "name": "Bornestraat", 
      "lonmin": 5.524043179067565, 
      "sanName": "bornestraat", 
      "numOfAddr": 4, 
      "lonmax": 5.527335302753829, 
      "latmin": 50.85455402595512
    }, 
    {
      "latmax": 50.869112415013944, 
      "name": "Borreberg", 
      "lonmin": 5.518683857512259, 
      "sanName": "borreberg", 
      "numOfAddr": 15, 
      "lonmax": 5.519746857082678, 
      "latmin": 50.86806772617029
    }, 
    {
      "latmax": 50.84051435701985, 
      "name": "Bosselaar", 
      "lonmin": 5.526621396253833, 
      "sanName": "bosselaar", 
      "numOfAddr": 19, 
      "lonmax": 5.529465673585794, 
      "latmin": 50.83716792379599
    }, 
    {
      "latmax": 50.845186530117395, 
      "name": "Bosstraat", 
      "lonmin": 5.57280175178216, 
      "sanName": "bosstraat", 
      "numOfAddr": 23, 
      "lonmax": 5.574934058074299, 
      "latmin": 50.843823477615
    }, 
    {
      "latmax": 50.88983328948143, 
      "name": "Bosveldstraat", 
      "lonmin": 5.457282664602825, 
      "sanName": "bosveldstraat", 
      "numOfAddr": 3, 
      "lonmax": 5.457617309359132, 
      "latmin": 50.888741026987404
    }, 
    {
      "latmax": 50.899914729196134, 
      "name": "Boswinningstraat", 
      "lonmin": 5.489903350344575, 
      "sanName": "boswinningstraat", 
      "numOfAddr": 2, 
      "lonmax": 5.496136770476534, 
      "latmin": 50.89788184841299
    }, 
    {
      "latmax": 50.83020638341668, 
      "name": "Bovenstraat", 
      "lonmin": 5.545695534102817, 
      "sanName": "bovenstraat", 
      "numOfAddr": 36, 
      "lonmax": 5.548714296517189, 
      "latmin": 50.82724669434912
    }, 
    {
      "latmax": 50.88626035764457, 
      "name": "Boxbergstraat", 
      "lonmin": 5.565348447876323, 
      "sanName": "boxbergstraat", 
      "numOfAddr": 2, 
      "lonmax": 5.565921135438008, 
      "latmin": 50.88600232732069
    }, 
    {
      "latmax": 50.874440200564145, 
      "name": "Braamstraat", 
      "lonmin": 5.569947630677479, 
      "sanName": "braamstraat", 
      "numOfAddr": 29, 
      "lonmax": 5.574455529199014, 
      "latmin": 50.87212033639429
    }, 
    {
      "latmax": 50.87773500651837, 
      "name": "Brabantsestraat", 
      "lonmin": 5.5215547790395805, 
      "sanName": "brabantsestraat", 
      "numOfAddr": 17, 
      "lonmax": 5.52397584759026, 
      "latmin": 50.87428959390524
    }, 
    {
      "latmax": 50.84732807200015, 
      "name": "Brakkemerweg", 
      "lonmin": 5.587164382284426, 
      "sanName": "brakkemerweg", 
      "numOfAddr": 1, 
      "lonmax": 5.587164382284426, 
      "latmin": 50.84732807200015
    }, 
    {
      "latmax": 50.84796773912443, 
      "name": "Brakmaalweg", 
      "lonmin": 5.600867389080421, 
      "sanName": "brakmaalweg", 
      "numOfAddr": 1, 
      "lonmax": 5.600867389080421, 
      "latmin": 50.84796773912443
    }, 
    {
      "latmax": 50.9081619355897, 
      "name": "Bremstraat", 
      "lonmin": 5.485894838918536, 
      "sanName": "bremstraat", 
      "numOfAddr": 8, 
      "lonmax": 5.48765889976932, 
      "latmin": 50.905212907888746
    }, 
    {
      "latmax": 50.864323673317685, 
      "name": "Broek", 
      "lonmin": 5.571548253823362, 
      "sanName": "broek", 
      "numOfAddr": 1, 
      "lonmax": 5.571548253823362, 
      "latmin": 50.864323673317685
    }, 
    {
      "latmax": 50.88250799113202, 
      "name": "Broekem", 
      "lonmin": 5.510795968209167, 
      "sanName": "broekem", 
      "numOfAddr": 32, 
      "lonmax": 5.517154967247647, 
      "latmin": 50.87842433441731
    }, 
    {
      "latmax": 50.880553500773196, 
      "name": "Broekemveldweg", 
      "lonmin": 5.513135191795707, 
      "sanName": "broekemveldweg", 
      "numOfAddr": 53, 
      "lonmax": 5.515194114498361, 
      "latmin": 50.87738353995076
    }, 
    {
      "latmax": 50.869565421771384, 
      "name": "Brugstraat", 
      "lonmin": 5.517235380970395, 
      "sanName": "brugstraat", 
      "numOfAddr": 95, 
      "lonmax": 5.521989259053721, 
      "latmin": 50.8661208931627
    }, 
    {
      "latmax": 50.87528764471821, 
      "name": "Bruulstraat", 
      "lonmin": 5.571322067479412, 
      "sanName": "bruulstraat", 
      "numOfAddr": 14, 
      "lonmax": 5.573814128974119, 
      "latmin": 50.87450190549299
    }, 
    {
      "latmax": 50.883416477133935, 
      "name": "Buissen", 
      "lonmin": 5.5226393506566716, 
      "sanName": "buissen", 
      "numOfAddr": 15, 
      "lonmax": 5.526775909191706, 
      "latmin": 50.88194058908039
    }, 
    {
      "latmax": 50.88635342630854, 
      "name": "Bunderstraat", 
      "lonmin": 5.530282509914121, 
      "sanName": "bunderstraat", 
      "numOfAddr": 19, 
      "lonmax": 5.532172608827671, 
      "latmin": 50.88525859466029
    }, 
    {
      "latmax": 50.865060174116365, 
      "name": "Burgemeester Haffmansplein", 
      "lonmin": 5.500975540517462, 
      "sanName": "burgemeesterhaffmansplein", 
      "numOfAddr": 12, 
      "lonmax": 5.501689737123851, 
      "latmin": 50.86404421281723
    }, 
    {
      "latmax": 50.900803593868154, 
      "name": "Burg. Pieter Petersstraat", 
      "lonmin": 5.5255941847631815, 
      "sanName": "burgpieterpetersstraat", 
      "numOfAddr": 4, 
      "lonmax": 5.526165155936922, 
      "latmin": 50.90042177259402
    }, 
    {
      "latmax": 50.86538785720047, 
      "name": "Cabergstraat", 
      "lonmin": 5.5722803804972, 
      "sanName": "cabergstraat", 
      "numOfAddr": 14, 
      "lonmax": 5.5751307284763465, 
      "latmin": 50.86374356314081
    }, 
    {
      "latmax": 50.91262991813903, 
      "name": "Caetsbeekstraat", 
      "lonmin": 5.5054387752476615, 
      "sanName": "caetsbeekstraat", 
      "numOfAddr": 15, 
      "lonmax": 5.510668602360063, 
      "latmin": 50.910674574917806
    }, 
    {
      "latmax": 50.8708871616872, 
      "name": "Camille Huysmansplein", 
      "lonmin": 5.518582552252537, 
      "sanName": "camillehuysmansplein", 
      "numOfAddr": 9, 
      "lonmax": 5.519416445352201, 
      "latmin": 50.870268817939575
    }, 
    {
      "latmax": 50.88591142531083, 
      "name": "Chrysantenlaan", 
      "lonmin": 5.5332877904149855, 
      "sanName": "chrysantenlaan", 
      "numOfAddr": 42, 
      "lonmax": 5.5397955289616165, 
      "latmin": 50.885177051753615
    }, 
    {
      "latmax": 50.88830809981553, 
      "name": "Cornelstraat", 
      "lonmin": 5.52942370927154, 
      "sanName": "cornelstraat", 
      "numOfAddr": 56, 
      "lonmax": 5.53560257067901, 
      "latmin": 50.88607453063671
    }, 
    {
      "latmax": 50.83474433605891, 
      "name": "Cuvelierstraat", 
      "lonmin": 5.513585417980883, 
      "sanName": "cuvelierstraat", 
      "numOfAddr": 83, 
      "lonmax": 5.523492540274513, 
      "latmin": 50.83081189182197
    }, 
    {
      "latmax": 50.84452700521709, 
      "name": "Daalstraat", 
      "lonmin": 5.57728663263346, 
      "sanName": "daalstraat", 
      "numOfAddr": 52, 
      "lonmax": 5.586234603355107, 
      "latmin": 50.8430304749583
    }, 
    {
      "latmax": 50.88561012780842, 
      "name": "Damerstraat", 
      "lonmin": 5.451612664531519, 
      "sanName": "damerstraat", 
      "numOfAddr": 3, 
      "lonmax": 5.462195739505339, 
      "latmin": 50.88277304239702
    }, 
    {
      "latmax": 50.91335908989263, 
      "name": "Deense Wijersstraat", 
      "lonmin": 5.509306256458759, 
      "sanName": "deensewijersstraat", 
      "numOfAddr": 9, 
      "lonmax": 5.512543968061539, 
      "latmin": 50.91053833174431
    }, 
    {
      "latmax": 50.87099348300764, 
      "name": "Deken Paquayplein", 
      "lonmin": 5.517760785840637, 
      "sanName": "dekenpaquayplein", 
      "numOfAddr": 1, 
      "lonmax": 5.517760785840637, 
      "latmin": 50.87099348300764
    }, 
    {
      "latmax": 50.88376430681555, 
      "name": "Dell", 
      "lonmin": 5.517983117355917, 
      "sanName": "dell", 
      "numOfAddr": 23, 
      "lonmax": 5.521895220984425, 
      "latmin": 50.8827116005221
    }, 
    {
      "latmax": 50.82430502853044, 
      "name": "Demerbronstraat", 
      "lonmin": 5.51954518792843, 
      "sanName": "demerbronstraat", 
      "numOfAddr": 5, 
      "lonmax": 5.520340958621212, 
      "latmin": 50.82380487683933
    }, 
    {
      "latmax": 50.86965905971988, 
      "name": "Demerlaan", 
      "lonmin": 5.5154119383277775, 
      "sanName": "demerlaan", 
      "numOfAddr": 14, 
      "lonmax": 5.5168387114448825, 
      "latmin": 50.86880920659451
    }, 
    {
      "latmax": 50.835481241748056, 
      "name": "Demerplein", 
      "lonmin": 5.512901082982827, 
      "sanName": "demerplein", 
      "numOfAddr": 14, 
      "lonmax": 5.51452179665949, 
      "latmin": 50.83438223504223
    }, 
    {
      "latmax": 50.86964955285301, 
      "name": "Demerwal", 
      "lonmin": 5.51383318050179, 
      "sanName": "demerwal", 
      "numOfAddr": 32, 
      "lonmax": 5.516756544853358, 
      "latmin": 50.86825192190495
    }, 
    {
      "latmax": 50.84755132852248, 
      "name": "Dennebosstraat", 
      "lonmin": 5.542526031962708, 
      "sanName": "dennebosstraat", 
      "numOfAddr": 16, 
      "lonmax": 5.548200651731529, 
      "latmin": 50.846064590603305
    }, 
    {
      "latmax": 50.902994032627944, 
      "name": "Dennenstraat", 
      "lonmin": 5.460708739541344, 
      "sanName": "dennenstraat", 
      "numOfAddr": 46, 
      "lonmax": 5.46574967714773, 
      "latmin": 50.90117110697439
    }, 
    {
      "latmax": 50.84866425977443, 
      "name": "Diepestraat", 
      "lonmin": 5.579373831773293, 
      "sanName": "diepestraat", 
      "numOfAddr": 30, 
      "lonmax": 5.581275346274122, 
      "latmin": 50.84437078433804
    }, 
    {
      "latmax": 50.88389130280506, 
      "name": "Donkstraat", 
      "lonmin": 5.5213359823473125, 
      "sanName": "donkstraat", 
      "numOfAddr": 12, 
      "lonmax": 5.522800829739646, 
      "latmin": 50.88339128144653
    }, 
    {
      "latmax": 50.8449613018856, 
      "name": "Dorpsschoolstraat", 
      "lonmin": 5.609509574864756, 
      "sanName": "dorpsschoolstraat", 
      "numOfAddr": 5, 
      "lonmax": 5.609910641030022, 
      "latmin": 50.844443248305765
    }, 
    {
      "latmax": 50.87674481825053, 
      "name": "Dorpsstraat", 
      "lonmin": 5.574612938109436, 
      "sanName": "dorpsstraat", 
      "numOfAddr": 86, 
      "lonmax": 5.578349539650592, 
      "latmin": 50.8678395472518
    }, 
    {
      "latmax": 50.84705202197868, 
      "name": "Driesstraat", 
      "lonmin": 5.5502670834904775, 
      "sanName": "driesstraat", 
      "numOfAddr": 15, 
      "lonmax": 5.552646733278844, 
      "latmin": 50.84582839999327
    }, 
    {
      "latmax": 50.88774380535747, 
      "name": "Dulgaardstraat", 
      "lonmin": 5.535637644015242, 
      "sanName": "dulgaardstraat", 
      "numOfAddr": 20, 
      "lonmax": 5.539461516607817, 
      "latmin": 50.88577840703235
    }, 
    {
      "latmax": 50.901351150586315, 
      "name": "Echellaan", 
      "lonmin": 5.518487677580182, 
      "sanName": "echellaan", 
      "numOfAddr": 30, 
      "lonmax": 5.521973843051824, 
      "latmin": 50.89840207082504
    }, 
    {
      "latmax": 50.876845158947624, 
      "name": "Eendepoelstraat", 
      "lonmin": 5.577892660081658, 
      "sanName": "eendepoelstraat", 
      "numOfAddr": 16, 
      "lonmax": 5.5789550416751394, 
      "latmin": 50.875470832864345
    }, 
    {
      "latmax": 50.87452423652919, 
      "name": "Eigenbilzerplein", 
      "lonmin": 5.574064507214849, 
      "sanName": "eigenbilzerplein", 
      "numOfAddr": 3, 
      "lonmax": 5.574652729505781, 
      "latmin": 50.87434503010613
    }, 
    {
      "latmax": 50.86067168536819, 
      "name": "Eigenstraat", 
      "lonmin": 5.5793474011325745, 
      "sanName": "eigenstraat", 
      "numOfAddr": 7, 
      "lonmax": 5.580151485600882, 
      "latmin": 50.855409046578366
    }, 
    {
      "latmax": 50.898605007621434, 
      "name": "Eik", 
      "lonmin": 5.504821025935546, 
      "sanName": "eik", 
      "numOfAddr": 50, 
      "lonmax": 5.511702542947474, 
      "latmin": 50.89624207724308
    }, 
    {
      "latmax": 50.86187724346506, 
      "name": "Eikaart", 
      "lonmin": 5.503423558321082, 
      "sanName": "eikaart", 
      "numOfAddr": 5, 
      "lonmax": 5.508278674432339, 
      "latmin": 50.855954304031286
    }, 
    {
      "latmax": 50.87416147519846, 
      "name": "Eikenbeekstraat", 
      "lonmin": 5.575209182634036, 
      "sanName": "eikenbeekstraat", 
      "numOfAddr": 29, 
      "lonmax": 5.581152016931685, 
      "latmin": 50.87344531496738
    }, 
    {
      "latmax": 50.868417249775646, 
      "name": "Eikenlaan", 
      "lonmin": 5.510813842978521, 
      "sanName": "eikenlaan", 
      "numOfAddr": 16, 
      "lonmax": 5.514902781931719, 
      "latmin": 50.86528987882068
    }, 
    {
      "latmax": 50.903420793611346, 
      "name": "Eikerweg", 
      "lonmin": 5.507607455655687, 
      "sanName": "eikerweg", 
      "numOfAddr": 53, 
      "lonmax": 5.513221738612833, 
      "latmin": 50.895983994936444
    }, 
    {
      "latmax": 50.90230161303746, 
      "name": "Elzenstraat", 
      "lonmin": 5.459978582356782, 
      "sanName": "elzenstraat", 
      "numOfAddr": 43, 
      "lonmax": 5.465194180935472, 
      "latmin": 50.90040700540443
    }, 
    {
      "latmax": 50.88704214502726, 
      "name": "Europaplein", 
      "lonmin": 5.525725664689142, 
      "sanName": "europaplein", 
      "numOfAddr": 11, 
      "lonmax": 5.526904474660703, 
      "latmin": 50.88575771463817
    }, 
    {
      "latmax": 50.88062154733326, 
      "name": "Faurenweg", 
      "lonmin": 5.533788049475734, 
      "sanName": "faurenweg", 
      "numOfAddr": 6, 
      "lonmax": 5.534641356353733, 
      "latmin": 50.87999337349714
    }, 
    {
      "latmax": 50.88400486375076, 
      "name": "Fietenstraat", 
      "lonmin": 5.5601421748073045, 
      "sanName": "fietenstraat", 
      "numOfAddr": 39, 
      "lonmax": 5.567014043343913, 
      "latmin": 50.879889523885936
    }, 
    {
      "latmax": 50.848819374260906, 
      "name": "Fonteinstraat", 
      "lonmin": 5.516850714368171, 
      "sanName": "fonteinstraat", 
      "numOfAddr": 10, 
      "lonmax": 5.519895098160227, 
      "latmin": 50.84786092338039
    }, 
    {
      "latmax": 50.831476366450175, 
      "name": "Frans-Ceulemansstraat", 
      "lonmin": 5.553929857975781, 
      "sanName": "fransceulemansstraat", 
      "numOfAddr": 10, 
      "lonmax": 5.55583418823075, 
      "latmin": 50.83031886550927
    }, 
    {
      "latmax": 50.87732706130955, 
      "name": "Gansbeekstraat", 
      "lonmin": 5.512934832199374, 
      "sanName": "gansbeekstraat", 
      "numOfAddr": 128, 
      "lonmax": 5.516844925591244, 
      "latmin": 50.8740778070975
    }, 
    {
      "latmax": 50.842886297247915, 
      "name": "Garenveldstraat", 
      "lonmin": 5.578903967070713, 
      "sanName": "garenveldstraat", 
      "numOfAddr": 2, 
      "lonmax": 5.579059797030122, 
      "latmin": 50.842862103065315
    }, 
    {
      "latmax": 50.88294237744316, 
      "name": "Gellikerweg", 
      "lonmin": 5.585314951445665, 
      "sanName": "gellikerweg", 
      "numOfAddr": 25, 
      "lonmax": 5.588882613568451, 
      "latmin": 50.881794716944704
    }, 
    {
      "latmax": 50.90586462305161, 
      "name": "Genkerbaan", 
      "lonmin": 5.521524544704567, 
      "sanName": "genkerbaan", 
      "numOfAddr": 43, 
      "lonmax": 5.525649736529876, 
      "latmin": 50.898431174822846
    }, 
    {
      "latmax": 50.87221507581224, 
      "name": "Genutstraat", 
      "lonmin": 5.51435809544505, 
      "sanName": "genutstraat", 
      "numOfAddr": 36, 
      "lonmax": 5.515585381071265, 
      "latmin": 50.87090889591575
    }, 
    {
      "latmax": 50.903845939566835, 
      "name": "Graaf de Renessestraat", 
      "lonmin": 5.4811038292660434, 
      "sanName": "graafderenessestraat", 
      "numOfAddr": 38, 
      "lonmax": 5.483584385540221, 
      "latmin": 50.902711431587754
    }, 
    {
      "latmax": 50.829277963715455, 
      "name": "Grammestraat", 
      "lonmin": 5.5499661492015955, 
      "sanName": "grammestraat", 
      "numOfAddr": 2, 
      "lonmax": 5.550217557433533, 
      "latmin": 50.82924975049562
    }, 
    {
      "latmax": 50.920214053958894, 
      "name": "Grensstraat", 
      "lonmin": 5.462901024119509, 
      "sanName": "grensstraat", 
      "numOfAddr": 47, 
      "lonmax": 5.480579978426601, 
      "latmin": 50.911495065605365
    }, 
    {
      "latmax": 50.86694763439971, 
      "name": "Grittelbergstraat", 
      "lonmin": 5.548616291066029, 
      "sanName": "grittelbergstraat", 
      "numOfAddr": 22, 
      "lonmax": 5.550117833926024, 
      "latmin": 50.86420642599265
    }, 
    {
      "latmax": 50.8722525570213, 
      "name": "Groene Grachtlaan", 
      "lonmin": 5.522786826038973, 
      "sanName": "groenegrachtlaan", 
      "numOfAddr": 22, 
      "lonmax": 5.523954880649178, 
      "latmin": 50.870170330439706
    }, 
    {
      "latmax": 50.88729334171978, 
      "name": "Groenendaal", 
      "lonmin": 5.5464755489402275, 
      "sanName": "groenendaal", 
      "numOfAddr": 7, 
      "lonmax": 5.549185241047373, 
      "latmin": 50.8764016609432
    }, 
    {
      "latmax": 50.88905750912166, 
      "name": "Groenkloosterstraat", 
      "lonmin": 5.527186780839, 
      "sanName": "groenkloosterstraat", 
      "numOfAddr": 52, 
      "lonmax": 5.534909151107897, 
      "latmin": 50.88767670235499
    }, 
    {
      "latmax": 50.84815935476263, 
      "name": "Groenstraat", 
      "lonmin": 5.575198604857136, 
      "sanName": "groenstraat", 
      "numOfAddr": 28, 
      "lonmax": 5.579710132007718, 
      "latmin": 50.847234199389526
    }, 
    {
      "latmax": 50.89412246309196, 
      "name": "Grootbeemdstraat", 
      "lonmin": 5.520961440490969, 
      "sanName": "grootbeemdstraat", 
      "numOfAddr": 5, 
      "lonmax": 5.521716558972074, 
      "latmin": 50.89350176549174
    }, 
    {
      "latmax": 50.90707959554336, 
      "name": "Grote Heide", 
      "lonmin": 5.563248175844924, 
      "sanName": "groteheide", 
      "numOfAddr": 6, 
      "lonmax": 5.56712843871956, 
      "latmin": 50.90387569562234
    }, 
    {
      "latmax": 50.874451931339216, 
      "name": "Grote Mereweg", 
      "lonmin": 5.578179224835991, 
      "sanName": "grotemereweg", 
      "numOfAddr": 49, 
      "lonmax": 5.582029095469538, 
      "latmin": 50.867785015018036
    }, 
    {
      "latmax": 50.83301948052226, 
      "name": "Grote Spouwenstraat", 
      "lonmin": 5.554127029725666, 
      "sanName": "grotespouwenstraat", 
      "numOfAddr": 31, 
      "lonmax": 5.5585002262321375, 
      "latmin": 50.831742743495745
    }, 
    {
      "latmax": 50.84773368775414, 
      "name": "Grote Steenstraat", 
      "lonmin": 5.610522043030556, 
      "sanName": "grotesteenstraat", 
      "numOfAddr": 1, 
      "lonmax": 5.610522043030556, 
      "latmin": 50.84773368775414
    }, 
    {
      "latmax": 50.90576856486092, 
      "name": "Grotstraat", 
      "lonmin": 5.47702466713931, 
      "sanName": "grotstraat", 
      "numOfAddr": 55, 
      "lonmax": 5.484805845478021, 
      "latmin": 50.90262546974173
    }, 
    {
      "latmax": 50.8954441610994, 
      "name": "Haagstraat", 
      "lonmin": 5.521332122777285, 
      "sanName": "haagstraat", 
      "numOfAddr": 29, 
      "lonmax": 5.523964602516491, 
      "latmin": 50.893788832706655
    }, 
    {
      "latmax": 50.86792196104961, 
      "name": "Haakstraat", 
      "lonmin": 5.4979702404013935, 
      "sanName": "haakstraat", 
      "numOfAddr": 12, 
      "lonmax": 5.49903976910129, 
      "latmin": 50.86646895400879
    }, 
    {
      "latmax": 50.882739336251625, 
      "name": "Haenenbos", 
      "lonmin": 5.573012703551576, 
      "sanName": "haenenbos", 
      "numOfAddr": 2, 
      "lonmax": 5.5753647168532625, 
      "latmin": 50.881978384825224
    }, 
    {
      "latmax": 50.88604802384649, 
      "name": "Haenenstraat", 
      "lonmin": 5.5718200798297275, 
      "sanName": "haenenstraat", 
      "numOfAddr": 56, 
      "lonmax": 5.574957764386749, 
      "latmin": 50.88118005759904
    }, 
    {
      "latmax": 50.84818659915736, 
      "name": "Hageveldstraat", 
      "lonmin": 5.547127674249723, 
      "sanName": "hageveldstraat", 
      "numOfAddr": 9, 
      "lonmax": 5.548755701103139, 
      "latmin": 50.84740599701259
    }, 
    {
      "latmax": 50.876572005705995, 
      "name": "Hartenberg", 
      "lonmin": 5.573340634166023, 
      "sanName": "hartenberg", 
      "numOfAddr": 14, 
      "lonmax": 5.57433259047089, 
      "latmin": 50.8747435494695
    }, 
    {
      "latmax": 50.83149311477939, 
      "name": "Haspengouwstraat", 
      "lonmin": 5.5381524013216055, 
      "sanName": "haspengouwstraat", 
      "numOfAddr": 1, 
      "lonmax": 5.5381524013216055, 
      "latmin": 50.83149311477939
    }, 
    {
      "latmax": 50.87423451599702, 
      "name": "Hasseltsepoort", 
      "lonmin": 5.512827757676458, 
      "sanName": "hasseltsepoort", 
      "numOfAddr": 31, 
      "lonmax": 5.514759526976684, 
      "latmin": 50.87207594939324
    }, 
    {
      "latmax": 50.88285510803541, 
      "name": "Hasseltsestraat", 
      "lonmin": 5.488977378731283, 
      "sanName": "hasseltsestraat", 
      "numOfAddr": 92, 
      "lonmax": 5.5071118324788575, 
      "latmin": 50.873691965169186
    }, 
    {
      "latmax": 50.84784799685505, 
      "name": "Heesstraat", 
      "lonmin": 5.608156526030223, 
      "sanName": "heesstraat", 
      "numOfAddr": 111, 
      "lonmax": 5.624730160381076, 
      "latmin": 50.846300280375765
    }, 
    {
      "latmax": 50.90422954149751, 
      "name": "Heesveld", 
      "lonmin": 5.492477965464883, 
      "sanName": "heesveld", 
      "numOfAddr": 73, 
      "lonmax": 5.50229284620049, 
      "latmin": 50.89481337075997
    }, 
    {
      "latmax": 50.872574905042924, 
      "name": "Helenaweg", 
      "lonmin": 5.58173884528752, 
      "sanName": "helenaweg", 
      "numOfAddr": 6, 
      "lonmax": 5.582260936944272, 
      "latmin": 50.87145394934778
    }, 
    {
      "latmax": 50.83203136893702, 
      "name": "Hennestraat", 
      "lonmin": 5.556428992957407, 
      "sanName": "hennestraat", 
      "numOfAddr": 13, 
      "lonmax": 5.55735035258082, 
      "latmin": 50.830295755240755
    }, 
    {
      "latmax": 50.83064779387231, 
      "name": "Herderenweg", 
      "lonmin": 5.552981495957043, 
      "sanName": "herderenweg", 
      "numOfAddr": 16, 
      "lonmax": 5.554593355612783, 
      "latmin": 50.828903437730496
    }, 
    {
      "latmax": 50.83983986605354, 
      "name": "Herderstraat", 
      "lonmin": 5.548907947418842, 
      "sanName": "herderstraat", 
      "numOfAddr": 7, 
      "lonmax": 5.550034370688369, 
      "latmin": 50.83912478626286
    }, 
    {
      "latmax": 50.90679729187654, 
      "name": "Hereveld", 
      "lonmin": 5.4644899206151525, 
      "sanName": "hereveld", 
      "numOfAddr": 5, 
      "lonmax": 5.468182406507621, 
      "latmin": 50.90604332764635
    }, 
    {
      "latmax": 50.90210417607687, 
      "name": "Herkebamstraat", 
      "lonmin": 5.528506221941073, 
      "sanName": "herkebamstraat", 
      "numOfAddr": 28, 
      "lonmax": 5.531141944260996, 
      "latmin": 50.899875473419776
    }, 
    {
      "latmax": 50.84340561505267, 
      "name": "Herreweg", 
      "lonmin": 5.542749223657204, 
      "sanName": "herreweg", 
      "numOfAddr": 20, 
      "lonmax": 5.550443193804897, 
      "latmin": 50.84217021615851
    }, 
    {
      "latmax": 50.89640523177925, 
      "name": "Hertenweg", 
      "lonmin": 5.457856452556023, 
      "sanName": "hertenweg", 
      "numOfAddr": 2, 
      "lonmax": 5.458349198150498, 
      "latmin": 50.896202129665575
    }, 
    {
      "latmax": 50.87981637578209, 
      "name": "Heseputterstraat", 
      "lonmin": 5.578634613673634, 
      "sanName": "heseputterstraat", 
      "numOfAddr": 17, 
      "lonmax": 5.5803663875914395, 
      "latmin": 50.87880337934397
    }, 
    {
      "latmax": 50.89813248195832, 
      "name": "Hoefsmidstraat", 
      "lonmin": 5.512693884502344, 
      "sanName": "hoefsmidstraat", 
      "numOfAddr": 30, 
      "lonmax": 5.518668777999681, 
      "latmin": 50.897241846580506
    }, 
    {
      "latmax": 50.901894519433284, 
      "name": "Hoekstraat", 
      "lonmin": 5.484532260017817, 
      "sanName": "hoekstraat", 
      "numOfAddr": 15, 
      "lonmax": 5.485886113695493, 
      "latmin": 50.900371109610816
    }, 
    {
      "latmax": 50.858485792850665, 
      "name": "Hoevelaan", 
      "lonmin": 5.548926158777249, 
      "sanName": "hoevelaan", 
      "numOfAddr": 9, 
      "lonmax": 5.549920358745729, 
      "latmin": 50.85455932442106
    }, 
    {
      "latmax": 50.866425846895716, 
      "name": "Hofakker", 
      "lonmin": 5.54561526774414, 
      "sanName": "hofakker", 
      "numOfAddr": 8, 
      "lonmax": 5.546422043541206, 
      "latmin": 50.8660055504666
    }, 
    {
      "latmax": 50.83309663973758, 
      "name": "Hofberg", 
      "lonmin": 5.5163981077184, 
      "sanName": "hofberg", 
      "numOfAddr": 6, 
      "lonmax": 5.516801894584624, 
      "latmin": 50.832594687470895
    }, 
    {
      "latmax": 50.89004716567864, 
      "name": "Holt", 
      "lonmin": 5.475118146727568, 
      "sanName": "holt", 
      "numOfAddr": 134, 
      "lonmax": 5.488519902650083, 
      "latmin": 50.881994612783025
    }, 
    {
      "latmax": 50.90710985903988, 
      "name": "Hombergstraat", 
      "lonmin": 5.501046532666769, 
      "sanName": "hombergstraat", 
      "numOfAddr": 1, 
      "lonmax": 5.501046532666769, 
      "latmin": 50.90710985903988
    }, 
    {
      "latmax": 50.88722217700678, 
      "name": "Hoogbrugstraat", 
      "lonmin": 5.503043395285442, 
      "sanName": "hoogbrugstraat", 
      "numOfAddr": 33, 
      "lonmax": 5.506858996702984, 
      "latmin": 50.8832773700616
    }, 
    {
      "latmax": 50.85041052498923, 
      "name": "Hoogstraat", 
      "lonmin": 5.564116279987626, 
      "sanName": "hoogstraat", 
      "numOfAddr": 55, 
      "lonmax": 5.5749419511485545, 
      "latmin": 50.847482029842446
    }, 
    {
      "latmax": 50.902006230559664, 
      "name": "Hoogveld", 
      "lonmin": 5.478518537778944, 
      "sanName": "hoogveld", 
      "numOfAddr": 59, 
      "lonmax": 5.485046026504598, 
      "latmin": 50.900012989913925
    }, 
    {
      "latmax": 50.90123160181623, 
      "name": "Hoogvonderstraat", 
      "lonmin": 5.470912286735373, 
      "sanName": "hoogvonderstraat", 
      "numOfAddr": 2, 
      "lonmax": 5.470929291634828, 
      "latmin": 50.90103554208432
    }, 
    {
      "latmax": 50.87200894060222, 
      "name": "Hospitaalstraat", 
      "lonmin": 5.512474859355533, 
      "sanName": "hospitaalstraat", 
      "numOfAddr": 40, 
      "lonmax": 5.513674925935926, 
      "latmin": 50.8701174460078
    }, 
    {
      "latmax": 50.89241748501083, 
      "name": "Hossetstraat", 
      "lonmin": 5.529214995463228, 
      "sanName": "hossetstraat", 
      "numOfAddr": 4, 
      "lonmax": 5.52971590761132, 
      "latmin": 50.89192810547105
    }, 
    {
      "latmax": 50.89851721074824, 
      "name": "Hoveweg", 
      "lonmin": 5.525861094949959, 
      "sanName": "hoveweg", 
      "numOfAddr": 26, 
      "lonmax": 5.528104864549065, 
      "latmin": 50.89622530784951
    }, 
    {
      "latmax": 50.87772033765466, 
      "name": "Hulterhofstraat", 
      "lonmin": 5.496336975497473, 
      "sanName": "hulterhofstraat", 
      "numOfAddr": 9, 
      "lonmax": 5.499102200481568, 
      "latmin": 50.87594210818811
    }, 
    {
      "latmax": 50.89405265155537, 
      "name": "Ida van Bolenstraat", 
      "lonmin": 5.522608326052529, 
      "sanName": "idavanbolenstraat", 
      "numOfAddr": 17, 
      "lonmax": 5.524272028738561, 
      "latmin": 50.89224330985848
    }, 
    {
      "latmax": 50.83962187409761, 
      "name": "Jaak Vandersandenstraat", 
      "lonmin": 5.5420597076159375, 
      "sanName": "jaakvandersandenstraat", 
      "numOfAddr": 58, 
      "lonmax": 5.554521683830416, 
      "latmin": 50.83547324009931
    }, 
    {
      "latmax": 50.882288914682015, 
      "name": "Jachtstraat", 
      "lonmin": 5.483912877605782, 
      "sanName": "jachtstraat", 
      "numOfAddr": 16, 
      "lonmax": 5.486904991334257, 
      "latmin": 50.879572769802245
    }, 
    {
      "latmax": 50.9028487137836, 
      "name": "Jeugdhuispad", 
      "lonmin": 5.46642867645111, 
      "sanName": "jeugdhuispad", 
      "numOfAddr": 3, 
      "lonmax": 5.466969553072317, 
      "latmin": 50.902642957151734
    }, 
    {
      "latmax": 50.89677636257427, 
      "name": "Jeugdstraat", 
      "lonmin": 5.499114203518603, 
      "sanName": "jeugdstraat", 
      "numOfAddr": 16, 
      "lonmax": 5.501195029029508, 
      "latmin": 50.89540854671875
    }, 
    {
      "latmax": 50.90482258315875, 
      "name": "Jonkherenbos", 
      "lonmin": 5.469476763198142, 
      "sanName": "jonkherenbos", 
      "numOfAddr": 79, 
      "lonmax": 5.476927821021588, 
      "latmin": 50.904152698817526
    }, 
    {
      "latmax": 50.85613936209028, 
      "name": "Kaendelweg", 
      "lonmin": 5.529254808660324, 
      "sanName": "kaendelweg", 
      "numOfAddr": 1, 
      "lonmax": 5.529254808660324, 
      "latmin": 50.85613936209028
    }, 
    {
      "latmax": 50.87684135721071, 
      "name": "Kampveldweg", 
      "lonmin": 5.509337758895632, 
      "sanName": "kampveldweg", 
      "numOfAddr": 18, 
      "lonmax": 5.510801382741189, 
      "latmin": 50.87515750136307
    }, 
    {
      "latmax": 50.89369422195666, 
      "name": "Kanaaldijkstraat", 
      "lonmin": 5.573639961706329, 
      "sanName": "kanaaldijkstraat", 
      "numOfAddr": 3, 
      "lonmax": 5.575651479093061, 
      "latmin": 50.89087100252095
    }, 
    {
      "latmax": 50.82900828228514, 
      "name": "Kann. Nulensstraat", 
      "lonmin": 5.534178582067812, 
      "sanName": "kannnulensstraat", 
      "numOfAddr": 23, 
      "lonmax": 5.536880807445122, 
      "latmin": 50.827128093270765
    }, 
    {
      "latmax": 50.87524049272455, 
      "name": "Kapelstraat", 
      "lonmin": 5.5087459139872195, 
      "sanName": "kapelstraat", 
      "numOfAddr": 33, 
      "lonmax": 5.512927280669811, 
      "latmin": 50.873747978273954
    }, 
    {
      "latmax": 50.87284189374687, 
      "name": "Kapittelstraat", 
      "lonmin": 5.529015557087245, 
      "sanName": "kapittelstraat", 
      "numOfAddr": 11, 
      "lonmax": 5.533239078331854, 
      "latmin": 50.870383132540766
    }, 
    {
      "latmax": 50.90304118097567, 
      "name": "Kastanjestraat", 
      "lonmin": 5.461363268438378, 
      "sanName": "kastanjestraat", 
      "numOfAddr": 10, 
      "lonmax": 5.4622638025339585, 
      "latmin": 50.9019800783918
    }, 
    {
      "latmax": 50.84280882892473, 
      "name": "Kasteelstraat", 
      "lonmin": 5.517713528642301, 
      "sanName": "kasteelstraat", 
      "numOfAddr": 13, 
      "lonmax": 5.5229101922085775, 
      "latmin": 50.83994421564489
    }, 
    {
      "latmax": 50.866936498202094, 
      "name": "Kattebroekstraat", 
      "lonmin": 5.517972505919754, 
      "sanName": "kattebroekstraat", 
      "numOfAddr": 8, 
      "lonmax": 5.519196331872417, 
      "latmin": 50.866233287538385
    }, 
    {
      "latmax": 50.88031603873005, 
      "name": "Kattestraat", 
      "lonmin": 5.563486783582133, 
      "sanName": "kattestraat", 
      "numOfAddr": 9, 
      "lonmax": 5.56891613031957, 
      "latmin": 50.87982350605992
    }, 
    {
      "latmax": 50.840131320288734, 
      "name": "Keiberg", 
      "lonmin": 5.529181864068591, 
      "sanName": "keiberg", 
      "numOfAddr": 2, 
      "lonmax": 5.529227123571617, 
      "latmin": 50.839738970674304
    }, 
    {
      "latmax": 50.85022472159936, 
      "name": "Keistraat", 
      "lonmin": 5.545965619113453, 
      "sanName": "keistraat", 
      "numOfAddr": 48, 
      "lonmax": 5.550678223363745, 
      "latmin": 50.84402874831925
    }, 
    {
      "latmax": 50.832949547734806, 
      "name": "Kellerstraat", 
      "lonmin": 5.558638687611097, 
      "sanName": "kellerstraat", 
      "numOfAddr": 22, 
      "lonmax": 5.563017028152954, 
      "latmin": 50.83189074465105
    }, 
    {
      "latmax": 50.919894408769416, 
      "name": "Kempenstraat", 
      "lonmin": 5.480767650459395, 
      "sanName": "kempenstraat", 
      "numOfAddr": 3, 
      "lonmax": 5.483731346480255, 
      "latmin": 50.91822641090279
    }, 
    {
      "latmax": 50.88005370044922, 
      "name": "Kerkhoflaan", 
      "lonmin": 5.569235634620933, 
      "sanName": "kerkhoflaan", 
      "numOfAddr": 36, 
      "lonmax": 5.5734435758946805, 
      "latmin": 50.877211170332934
    }, 
    {
      "latmax": 50.846930418565464, 
      "name": "Kerkstraat", 
      "lonmin": 5.574578799542269, 
      "sanName": "kerkstraat", 
      "numOfAddr": 52, 
      "lonmax": 5.577731308578227, 
      "latmin": 50.84160327835629
    }, 
    {
      "latmax": 50.8652997812072, 
      "name": "Kerktorenstraat", 
      "lonmin": 5.544839840037632, 
      "sanName": "kerktorenstraat", 
      "numOfAddr": 18, 
      "lonmax": 5.54732545907207, 
      "latmin": 50.86428089418919
    }, 
    {
      "latmax": 50.910252850703756, 
      "name": "Kieleberg", 
      "lonmin": 5.503620886148794, 
      "sanName": "kieleberg", 
      "numOfAddr": 29, 
      "lonmax": 5.516934807568593, 
      "latmin": 50.9056353947022
    }, 
    {
      "latmax": 50.89638828272913, 
      "name": "Kievitstraat", 
      "lonmin": 5.526296105408582, 
      "sanName": "kievitstraat", 
      "numOfAddr": 24, 
      "lonmax": 5.5274998149762755, 
      "latmin": 50.8943374116385
    }, 
    {
      "latmax": 50.86313288875216, 
      "name": "Kleehofkensstraat", 
      "lonmin": 5.576215771762226, 
      "sanName": "kleehofkensstraat", 
      "numOfAddr": 54, 
      "lonmax": 5.579322667473287, 
      "latmin": 50.86135811669438
    }, 
    {
      "latmax": 50.8709580965305, 
      "name": "Klein-Bivelenweg", 
      "lonmin": 5.490438016489454, 
      "sanName": "kleinbivelenweg", 
      "numOfAddr": 1, 
      "lonmax": 5.490438016489454, 
      "latmin": 50.8709580965305
    }, 
    {
      "latmax": 50.87433958031651, 
      "name": "Kleine Mereweg", 
      "lonmin": 5.582127508953837, 
      "sanName": "kleinemereweg", 
      "numOfAddr": 4, 
      "lonmax": 5.583257340608424, 
      "latmin": 50.87397564623558
    }, 
    {
      "latmax": 50.86881597481679, 
      "name": "Kleine Wijs", 
      "lonmin": 5.511394161854504, 
      "sanName": "kleinewijs", 
      "numOfAddr": 1, 
      "lonmax": 5.511394161854504, 
      "latmin": 50.86881597481679
    }, 
    {
      "latmax": 50.86308944956197, 
      "name": "Kleinveld", 
      "lonmin": 5.5046465770354, 
      "sanName": "kleinveld", 
      "numOfAddr": 6, 
      "lonmax": 5.5052733690789655, 
      "latmin": 50.86181849265853
    }, 
    {
      "latmax": 50.858022290195244, 
      "name": "Klein Wilder", 
      "lonmin": 5.537938242319713, 
      "sanName": "kleinwilder", 
      "numOfAddr": 2, 
      "lonmax": 5.537983599619385, 
      "latmin": 50.85788715866471
    }, 
    {
      "latmax": 50.889897669256555, 
      "name": "Kleistraat", 
      "lonmin": 5.47228747588912, 
      "sanName": "kleistraat", 
      "numOfAddr": 37, 
      "lonmax": 5.474901958390171, 
      "latmin": 50.88439297191658
    }, 
    {
      "latmax": 50.86627946319927, 
      "name": "Kleyaardestraat", 
      "lonmin": 5.548177410975087, 
      "sanName": "kleyaardestraat", 
      "numOfAddr": 1, 
      "lonmax": 5.548177410975087, 
      "latmin": 50.86627946319927
    }, 
    {
      "latmax": 50.86502015609478, 
      "name": "Klinkstraat", 
      "lonmin": 5.547783547298925, 
      "sanName": "klinkstraat", 
      "numOfAddr": 4, 
      "lonmax": 5.548114242851478, 
      "latmin": 50.86491406629426
    }, 
    {
      "latmax": 50.87130716261544, 
      "name": "Klokkeplein", 
      "lonmin": 5.515988340786845, 
      "sanName": "klokkeplein", 
      "numOfAddr": 3, 
      "lonmax": 5.516365233693211, 
      "latmin": 50.87104168825817
    }, 
    {
      "latmax": 50.8718705128536, 
      "name": "Klokkestraat", 
      "lonmin": 5.516320296377244, 
      "sanName": "klokkestraat", 
      "numOfAddr": 20, 
      "lonmax": 5.517628228763963, 
      "latmin": 50.87085882818543
    }, 
    {
      "latmax": 50.872769852524826, 
      "name": "Kloosterstraat", 
      "lonmin": 5.517980026871763, 
      "sanName": "kloosterstraat", 
      "numOfAddr": 56, 
      "lonmax": 5.5203612699867355, 
      "latmin": 50.87083976871591
    }, 
    {
      "latmax": 50.87255990101144, 
      "name": "Kloosterwal", 
      "lonmin": 5.519408463784991, 
      "sanName": "kloosterwal", 
      "numOfAddr": 7, 
      "lonmax": 5.520158349817971, 
      "latmin": 50.87175599664454
    }, 
    {
      "latmax": 50.89397598238555, 
      "name": "Koekoekstraat", 
      "lonmin": 5.528278242108693, 
      "sanName": "koekoekstraat", 
      "numOfAddr": 29, 
      "lonmax": 5.53035887978516, 
      "latmin": 50.890086814339156
    }, 
    {
      "latmax": 50.875551374177924, 
      "name": "Koestraat", 
      "lonmin": 5.581646963375629, 
      "sanName": "koestraat", 
      "numOfAddr": 6, 
      "lonmax": 5.582732630820128, 
      "latmin": 50.87499943661814
    }, 
    {
      "latmax": 50.839634174353414, 
      "name": "Kogelstraat", 
      "lonmin": 5.517031970955806, 
      "sanName": "kogelstraat", 
      "numOfAddr": 29, 
      "lonmax": 5.519185724658859, 
      "latmin": 50.83663229754482
    }, 
    {
      "latmax": 50.882319396349715, 
      "name": "Koofstraat", 
      "lonmin": 5.530128700724891, 
      "sanName": "koofstraat", 
      "numOfAddr": 2, 
      "lonmax": 5.530427179634576, 
      "latmin": 50.88208266477018
    }, 
    {
      "latmax": 50.870859835821676, 
      "name": "Korenstraat", 
      "lonmin": 5.513542325448888, 
      "sanName": "korenstraat", 
      "numOfAddr": 33, 
      "lonmax": 5.515218875346506, 
      "latmin": 50.86989270485365
    }, 
    {
      "latmax": 50.872026352000034, 
      "name": "Korenwal", 
      "lonmin": 5.513162540505292, 
      "sanName": "korenwal", 
      "numOfAddr": 14, 
      "lonmax": 5.514347703066189, 
      "latmin": 50.87030274541363
    }, 
    {
      "latmax": 50.89520159081698, 
      "name": "Kortebosstraat", 
      "lonmin": 5.459316541581803, 
      "sanName": "kortebosstraat", 
      "numOfAddr": 9, 
      "lonmax": 5.462758164276151, 
      "latmin": 50.892756867816175
    }, 
    {
      "latmax": 50.900319097661786, 
      "name": "Korte Heidestraat", 
      "lonmin": 5.512086323715966, 
      "sanName": "korteheidestraat", 
      "numOfAddr": 22, 
      "lonmax": 5.515233712141322, 
      "latmin": 50.89937116815275
    }, 
    {
      "latmax": 50.89565357270459, 
      "name": "Kraailingenveld", 
      "lonmin": 5.46791552360797, 
      "sanName": "kraailingenveld", 
      "numOfAddr": 23, 
      "lonmax": 5.47102899880829, 
      "latmin": 50.89435617178977
    }, 
    {
      "latmax": 50.86810073120747, 
      "name": "Kromstraat", 
      "lonmin": 5.543626259297946, 
      "sanName": "kromstraat", 
      "numOfAddr": 20, 
      "lonmax": 5.5456017653202005, 
      "latmin": 50.86676553381598
    }, 
    {
      "latmax": 50.9049905567918, 
      "name": "Kruidenberg", 
      "lonmin": 5.502116950051892, 
      "sanName": "kruidenberg", 
      "numOfAddr": 1, 
      "lonmax": 5.502116950051892, 
      "latmin": 50.9049905567918
    }, 
    {
      "latmax": 50.91198060783733, 
      "name": "Kruisbosstraat", 
      "lonmin": 5.520596445002358, 
      "sanName": "kruisbosstraat", 
      "numOfAddr": 2, 
      "lonmax": 5.525923175835516, 
      "latmin": 50.908602256378956
    }, 
    {
      "latmax": 50.89745136131736, 
      "name": "Kuilenweg", 
      "lonmin": 5.504990449415886, 
      "sanName": "kuilenweg", 
      "numOfAddr": 42, 
      "lonmax": 5.511860425588021, 
      "latmin": 50.89420778850793
    }, 
    {
      "latmax": 50.88139662034691, 
      "name": "Laakstraat", 
      "lonmin": 5.50772819813118, 
      "sanName": "laakstraat", 
      "numOfAddr": 25, 
      "lonmax": 5.5118221064578385, 
      "latmin": 50.87992290171801
    }, 
    {
      "latmax": 50.891348087035986, 
      "name": "Laarstraat", 
      "lonmin": 5.48294234745331, 
      "sanName": "laarstraat", 
      "numOfAddr": 82, 
      "lonmax": 5.493907747009712, 
      "latmin": 50.88683626280397
    }, 
    {
      "latmax": 50.841305271784854, 
      "name": "Lafelderberg", 
      "lonmin": 5.610361937262514, 
      "sanName": "lafelderberg", 
      "numOfAddr": 1, 
      "lonmax": 5.610361937262514, 
      "latmin": 50.841305271784854
    }, 
    {
      "latmax": 50.87029592833897, 
      "name": "Lanakerdij", 
      "lonmin": 5.521905190472503, 
      "sanName": "lanakerdij", 
      "numOfAddr": 8, 
      "lonmax": 5.524134128160798, 
      "latmin": 50.869651636085
    }, 
    {
      "latmax": 50.899495488255724, 
      "name": "Langblookstraat", 
      "lonmin": 5.526137437706658, 
      "sanName": "langblookstraat", 
      "numOfAddr": 22, 
      "lonmax": 5.530156792907655, 
      "latmin": 50.898197297928064
    }, 
    {
      "latmax": 50.84108124783927, 
      "name": "Langeweg", 
      "lonmin": 5.513166310546199, 
      "sanName": "langeweg", 
      "numOfAddr": 3, 
      "lonmax": 5.517554654961775, 
      "latmin": 50.83984022351132
    }, 
    {
      "latmax": 50.90568068048283, 
      "name": "Langheidestraat", 
      "lonmin": 5.483899854530584, 
      "sanName": "langheidestraat", 
      "numOfAddr": 36, 
      "lonmax": 5.4901573035648505, 
      "latmin": 50.90399906267314
    }, 
    {
      "latmax": 50.87577151783407, 
      "name": "Langstraat", 
      "lonmin": 5.5455210307895735, 
      "sanName": "langstraat", 
      "numOfAddr": 74, 
      "lonmax": 5.548325213342005, 
      "latmin": 50.86347623546455
    }, 
    {
      "latmax": 50.862715242357865, 
      "name": "Lauwerkransdreef", 
      "lonmin": 5.5797868467119285, 
      "sanName": "lauwerkransdreef", 
      "numOfAddr": 9, 
      "lonmax": 5.581283008790273, 
      "latmin": 50.86203673883927
    }, 
    {
      "latmax": 50.903545783179744, 
      "name": "Leenveldstraat", 
      "lonmin": 5.461147007691744, 
      "sanName": "leenveldstraat", 
      "numOfAddr": 57, 
      "lonmax": 5.467204535610565, 
      "latmin": 50.902322333327824
    }, 
    {
      "latmax": 50.866621967935444, 
      "name": "Leeuwerikstraat", 
      "lonmin": 5.4947583302815985, 
      "sanName": "leeuwerikstraat", 
      "numOfAddr": 11, 
      "lonmax": 5.499211222233185, 
      "latmin": 50.865670938333786
    }, 
    {
      "latmax": 50.90149900273829, 
      "name": "Lenaarshof", 
      "lonmin": 5.476155720938725, 
      "sanName": "lenaarshof", 
      "numOfAddr": 11, 
      "lonmax": 5.477211276257602, 
      "latmin": 50.90040583753693
    }, 
    {
      "latmax": 50.88322978786807, 
      "name": "Lentelaan", 
      "lonmin": 5.570583088579128, 
      "sanName": "lentelaan", 
      "numOfAddr": 11, 
      "lonmax": 5.571881826820182, 
      "latmin": 50.882687498340424
    }, 
    {
      "latmax": 50.857418062533924, 
      "name": "Leten", 
      "lonmin": 5.510967853552198, 
      "sanName": "leten", 
      "numOfAddr": 33, 
      "lonmax": 5.52324719016943, 
      "latmin": 50.85429117382885
    }, 
    {
      "latmax": 50.86592236124525, 
      "name": "Leterweg", 
      "lonmin": 5.51616954449086, 
      "sanName": "leterweg", 
      "numOfAddr": 72, 
      "lonmax": 5.520920630595477, 
      "latmin": 50.85606747092475
    }, 
    {
      "latmax": 50.851141475327005, 
      "name": "Lethenstraat", 
      "lonmin": 5.516252458347388, 
      "sanName": "lethenstraat", 
      "numOfAddr": 10, 
      "lonmax": 5.520235730549164, 
      "latmin": 50.8481948322809
    }, 
    {
      "latmax": 50.83773670048547, 
      "name": "Lindestraat", 
      "lonmin": 5.51306042676039, 
      "sanName": "lindestraat", 
      "numOfAddr": 22, 
      "lonmax": 5.5149856606706145, 
      "latmin": 50.83549897620648
    }, 
    {
      "latmax": 50.88730975675539, 
      "name": "Litsebeek", 
      "lonmin": 5.566747124781547, 
      "sanName": "litsebeek", 
      "numOfAddr": 65, 
      "lonmax": 5.5743865728229425, 
      "latmin": 50.884987529220986
    }, 
    {
      "latmax": 50.8843338762954, 
      "name": "Lochtstraat", 
      "lonmin": 5.567038046895907, 
      "sanName": "lochtstraat", 
      "numOfAddr": 98, 
      "lonmax": 5.574308683754467, 
      "latmin": 50.877237455749835
    }, 
    {
      "latmax": 50.8660570119675, 
      "name": "Maastrichterpoort", 
      "lonmin": 5.5221935536285605, 
      "sanName": "maastrichterpoort", 
      "numOfAddr": 18, 
      "lonmax": 5.523642548974232, 
      "latmin": 50.86544738204927
    }, 
    {
      "latmax": 50.86563927241219, 
      "name": "Maastrichterstraat", 
      "lonmin": 5.52433721368646, 
      "sanName": "maastrichterstraat", 
      "numOfAddr": 284, 
      "lonmax": 5.588727034326483, 
      "latmin": 50.86009956573776
    }, 
    {
      "latmax": 50.88354777804728, 
      "name": "Marebeekstraat", 
      "lonmin": 5.4880505344274075, 
      "sanName": "marebeekstraat", 
      "numOfAddr": 5, 
      "lonmax": 5.489593660189258, 
      "latmin": 50.8832223855425
    }, 
    {
      "latmax": 50.870785617615695, 
      "name": "Markt", 
      "lonmin": 5.516278788329821, 
      "sanName": "markt", 
      "numOfAddr": 35, 
      "lonmax": 5.51845952846503, 
      "latmin": 50.86965721736093
    }, 
    {
      "latmax": 50.86311443699947, 
      "name": "Mathijsestraat", 
      "lonmin": 5.57918321569335, 
      "sanName": "mathijsestraat", 
      "numOfAddr": 14, 
      "lonmax": 5.579929499420674, 
      "latmin": 50.86126049242069
    }, 
    {
      "latmax": 50.866243612226874, 
      "name": "Meerbeemdlaan", 
      "lonmin": 5.501667449412549, 
      "sanName": "meerbeemdlaan", 
      "numOfAddr": 22, 
      "lonmax": 5.503763927806274, 
      "latmin": 50.86514002924048
    }, 
    {
      "latmax": 50.88126260234701, 
      "name": "Meershoven", 
      "lonmin": 5.521924587038957, 
      "sanName": "meershoven", 
      "numOfAddr": 115, 
      "lonmax": 5.528253267542539, 
      "latmin": 50.87291229389133
    }, 
    {
      "latmax": 50.86610935140262, 
      "name": "Meidoornstraat", 
      "lonmin": 5.57725394608293, 
      "sanName": "meidoornstraat", 
      "numOfAddr": 19, 
      "lonmax": 5.578751730158339, 
      "latmin": 50.86471094504667
    }, 
    {
      "latmax": 50.87288853336677, 
      "name": "Melkerijwal", 
      "lonmin": 5.515021681060304, 
      "sanName": "melkerijwal", 
      "numOfAddr": 13, 
      "lonmax": 5.517234827128719, 
      "latmin": 50.872261610906236
    }, 
    {
      "latmax": 50.89564304193654, 
      "name": "Merelstraat", 
      "lonmin": 5.525195473923944, 
      "sanName": "merelstraat", 
      "numOfAddr": 19, 
      "lonmax": 5.525999471177535, 
      "latmin": 50.89453414038657
    }, 
    {
      "latmax": 50.867050473852814, 
      "name": "Merem", 
      "lonmin": 5.498921748617235, 
      "sanName": "merem", 
      "numOfAddr": 52, 
      "lonmax": 5.502507955038405, 
      "latmin": 50.86281919437909
    }, 
    {
      "latmax": 50.86822952196675, 
      "name": "Meremweg", 
      "lonmin": 5.502544692677029, 
      "sanName": "meremweg", 
      "numOfAddr": 49, 
      "lonmax": 5.5085314192587, 
      "latmin": 50.86712764723133
    }, 
    {
      "latmax": 50.894039337117725, 
      "name": "Merodestraat", 
      "lonmin": 5.4647229016867325, 
      "sanName": "merodestraat", 
      "numOfAddr": 8, 
      "lonmax": 5.46636323346795, 
      "latmin": 50.892683660907515
    }, 
    {
      "latmax": 50.847506917561276, 
      "name": "Merovingershof", 
      "lonmin": 5.577821161953898, 
      "sanName": "merovingershof", 
      "numOfAddr": 17, 
      "lonmax": 5.58009899793575, 
      "latmin": 50.84694328276665
    }, 
    {
      "latmax": 50.84378423140704, 
      "name": "Messeweg", 
      "lonmin": 5.550360983569139, 
      "sanName": "messeweg", 
      "numOfAddr": 1, 
      "lonmax": 5.550360983569139, 
      "latmin": 50.84378423140704
    }, 
    {
      "latmax": 50.86108288169264, 
      "name": "Michel Moorsplein", 
      "lonmin": 5.57465667141734, 
      "sanName": "michelmoorsplein", 
      "numOfAddr": 2, 
      "lonmax": 5.574902142149872, 
      "latmin": 50.86100547976372
    }, 
    {
      "latmax": 50.881520449775785, 
      "name": "Molendriesstraat", 
      "lonmin": 5.568940430122, 
      "sanName": "molendriesstraat", 
      "numOfAddr": 27, 
      "lonmax": 5.571284242581564, 
      "latmin": 50.880105481065335
    }, 
    {
      "latmax": 50.90263290966153, 
      "name": "Molenstraat", 
      "lonmin": 5.462392191379425, 
      "sanName": "molenstraat", 
      "numOfAddr": 51, 
      "lonmax": 5.46903645641305, 
      "latmin": 50.89758788248104
    }, 
    {
      "latmax": 50.90384538292309, 
      "name": "Mondeostraat", 
      "lonmin": 5.47541369627546, 
      "sanName": "mondeostraat", 
      "numOfAddr": 51, 
      "lonmax": 5.479256633432273, 
      "latmin": 50.9024089777623
    }, 
    {
      "latmax": 50.84733587754711, 
      "name": "Monnikenhof", 
      "lonmin": 5.573187720505972, 
      "sanName": "monnikenhof", 
      "numOfAddr": 4, 
      "lonmax": 5.574612375942974, 
      "latmin": 50.84651169424578
    }, 
    {
      "latmax": 50.869246372346716, 
      "name": "Mooi Uitzichtlaan", 
      "lonmin": 5.519690101377965, 
      "sanName": "mooiuitzichtlaan", 
      "numOfAddr": 39, 
      "lonmax": 5.522910517150616, 
      "latmin": 50.86696276480877
    }, 
    {
      "latmax": 50.86723957793996, 
      "name": "Mopertingenstraat", 
      "lonmin": 5.5748029003208, 
      "sanName": "mopertingenstraat", 
      "numOfAddr": 71, 
      "lonmax": 5.578124818744915, 
      "latmin": 50.860819468901575
    }, 
    {
      "latmax": 50.88788364866281, 
      "name": "Muggenstraat", 
      "lonmin": 5.525345965087169, 
      "sanName": "muggenstraat", 
      "numOfAddr": 6, 
      "lonmax": 5.526195521279134, 
      "latmin": 50.88724282396168
    }, 
    {
      "latmax": 50.83530125027898, 
      "name": "Munieckstraat", 
      "lonmin": 5.5541477776193915, 
      "sanName": "munieckstraat", 
      "numOfAddr": 15, 
      "lonmax": 5.558472513950587, 
      "latmin": 50.83471109151535
    }, 
    {
      "latmax": 50.88783645852246, 
      "name": "Munsterbilzenstraat", 
      "lonmin": 5.526663090012683, 
      "sanName": "munsterbilzenstraat", 
      "numOfAddr": 53, 
      "lonmax": 5.530200954964791, 
      "latmin": 50.88482924419195
    }, 
    {
      "latmax": 50.83638696449548, 
      "name": "Nachtegaalstraat", 
      "lonmin": 5.54754997498165, 
      "sanName": "nachtegaalstraat", 
      "numOfAddr": 10, 
      "lonmax": 5.548924845843929, 
      "latmin": 50.83600847950408
    }, 
    {
      "latmax": 50.863590811746064, 
      "name": "Natveld", 
      "lonmin": 5.50468205296549, 
      "sanName": "natveld", 
      "numOfAddr": 12, 
      "lonmax": 5.507111748341172, 
      "latmin": 50.86064091861036
    }, 
    {
      "latmax": 50.90577276120874, 
      "name": "Nieuwe Ervenstraat", 
      "lonmin": 5.493666106249913, 
      "sanName": "nieuweervenstraat", 
      "numOfAddr": 1, 
      "lonmax": 5.493666106249913, 
      "latmin": 50.90577276120874
    }, 
    {
      "latmax": 50.90253932406592, 
      "name": "Nieuwe Heidestraat", 
      "lonmin": 5.516241044219904, 
      "sanName": "nieuweheidestraat", 
      "numOfAddr": 23, 
      "lonmax": 5.518857943539198, 
      "latmin": 50.900019451781745
    }, 
    {
      "latmax": 50.87333986533254, 
      "name": "Nieuwstraat", 
      "lonmin": 5.508127905570908, 
      "sanName": "nieuwstraat", 
      "numOfAddr": 38, 
      "lonmax": 5.508995425612643, 
      "latmin": 50.86790266882682
    }, 
    {
      "latmax": 50.89579460128998, 
      "name": "Nijverheidsstraat", 
      "lonmin": 5.470244568756468, 
      "sanName": "nijverheidsstraat", 
      "numOfAddr": 30, 
      "lonmax": 5.47383502726191, 
      "latmin": 50.893522301843824
    }, 
    {
      "latmax": 50.84534469617535, 
      "name": "Noppenstraat", 
      "lonmin": 5.604769050922257, 
      "sanName": "noppenstraat", 
      "numOfAddr": 39, 
      "lonmax": 5.609827718063865, 
      "latmin": 50.84185950536086
    }, 
    {
      "latmax": 50.902693908950575, 
      "name": "Olmenstraat", 
      "lonmin": 5.46293766013315, 
      "sanName": "olmenstraat", 
      "numOfAddr": 14, 
      "lonmax": 5.463967391342269, 
      "latmin": 50.90156604115869
    }, 
    {
      "latmax": 50.872933898379856, 
      "name": "Omstraat", 
      "lonmin": 5.515561729697259, 
      "sanName": "omstraat", 
      "numOfAddr": 61, 
      "lonmax": 5.518090819154246, 
      "latmin": 50.87165236870412
    }, 
    {
      "latmax": 50.88755699078732, 
      "name": "Onderwijsstraat", 
      "lonmin": 5.524270571874328, 
      "sanName": "onderwijsstraat", 
      "numOfAddr": 6, 
      "lonmax": 5.525060001620403, 
      "latmin": 50.88662008411285
    }, 
    {
      "latmax": 50.894241083028135, 
      "name": "Ons Verlangenstraat", 
      "lonmin": 5.472037286759799, 
      "sanName": "onsverlangenstraat", 
      "numOfAddr": 21, 
      "lonmax": 5.4747083380143495, 
      "latmin": 50.892388353544106
    }, 
    {
      "latmax": 50.87104255969569, 
      "name": "Onze Lieve Vrouwstraat", 
      "lonmin": 5.515380910904797, 
      "sanName": "onzelievevrouwstraat", 
      "numOfAddr": 26, 
      "lonmax": 5.516405113506214, 
      "latmin": 50.870278761016756
    }, 
    {
      "latmax": 50.8300124109703, 
      "name": "Op De Meer", 
      "lonmin": 5.536695335183461, 
      "sanName": "opdemeer", 
      "numOfAddr": 20, 
      "lonmax": 5.539304773662226, 
      "latmin": 50.827303072810054
    }, 
    {
      "latmax": 50.82925029129219, 
      "name": "Op De Steeg", 
      "lonmin": 5.535549459895567, 
      "sanName": "opdesteeg", 
      "numOfAddr": 23, 
      "lonmax": 5.537857262574322, 
      "latmin": 50.82702293684647
    }, 
    {
      "latmax": 50.88494845179802, 
      "name": "Op Kom", 
      "lonmin": 5.468938708058246, 
      "sanName": "opkom", 
      "numOfAddr": 2, 
      "lonmax": 5.469872742929383, 
      "latmin": 50.8843970242141
    }, 
    {
      "latmax": 50.8945623704685, 
      "name": "Oude Beekstraat", 
      "lonmin": 5.525270057566101, 
      "sanName": "oudebeekstraat", 
      "numOfAddr": 33, 
      "lonmax": 5.529024128493293, 
      "latmin": 50.889997714264
    }, 
    {
      "latmax": 50.90767639458282, 
      "name": "Oude Heidestraat", 
      "lonmin": 5.51162198655836, 
      "sanName": "oudeheidestraat", 
      "numOfAddr": 39, 
      "lonmax": 5.519937031651724, 
      "latmin": 50.900028554236
    }, 
    {
      "latmax": 50.88951287858911, 
      "name": "Oude Kluisweg", 
      "lonmin": 5.535746261345734, 
      "sanName": "oudekluisweg", 
      "numOfAddr": 21, 
      "lonmax": 5.539780201675498, 
      "latmin": 50.88779692658981
    }, 
    {
      "latmax": 50.89860327252846, 
      "name": "Oude Siemerstraat", 
      "lonmin": 5.51908770602153, 
      "sanName": "oudesiemerstraat", 
      "numOfAddr": 27, 
      "lonmax": 5.5248426751547735, 
      "latmin": 50.89748026835939
    }, 
    {
      "latmax": 50.897301652948315, 
      "name": "Oudestraat", 
      "lonmin": 5.45931644543741, 
      "sanName": "oudestraat", 
      "numOfAddr": 53, 
      "lonmax": 5.468494020486637, 
      "latmin": 50.89416970207977
    }, 
    {
      "latmax": 50.876274895408635, 
      "name": "Oude Tongersestraat", 
      "lonmin": 5.503582354302158, 
      "sanName": "oudetongersestraat", 
      "numOfAddr": 17, 
      "lonmax": 5.50780253571135, 
      "latmin": 50.87393047285124
    }, 
    {
      "latmax": 50.90433281365481, 
      "name": "Oude Tramweg", 
      "lonmin": 5.521759609530856, 
      "sanName": "oudetramweg", 
      "numOfAddr": 95, 
      "lonmax": 5.5293487094637985, 
      "latmin": 50.89461644282413
    }, 
    {
      "latmax": 50.83617904506251, 
      "name": "Overslagstraat", 
      "lonmin": 5.545369699804568, 
      "sanName": "overslagstraat", 
      "numOfAddr": 14, 
      "lonmax": 5.548250973254966, 
      "latmin": 50.83413288142933
    }, 
    {
      "latmax": 50.88414832077354, 
      "name": "Overwegstraat", 
      "lonmin": 5.525959692133831, 
      "sanName": "overwegstraat", 
      "numOfAddr": 21, 
      "lonmax": 5.527820553215865, 
      "latmin": 50.88247217979223
    }, 
    {
      "latmax": 50.87913788463501, 
      "name": "Paardskerkhofstraat", 
      "lonmin": 5.5117084729840204, 
      "sanName": "paardskerkhofstraat", 
      "numOfAddr": 42, 
      "lonmax": 5.5135812161708575, 
      "latmin": 50.87765098538064
    }, 
    {
      "latmax": 50.91280368566598, 
      "name": "Palsbosstraat", 
      "lonmin": 5.463672142180451, 
      "sanName": "palsbosstraat", 
      "numOfAddr": 30, 
      "lonmax": 5.474840767606035, 
      "latmin": 50.907844626367805
    }, 
    {
      "latmax": 50.88955964355439, 
      "name": "Panisstraat", 
      "lonmin": 5.527632812487775, 
      "sanName": "panisstraat", 
      "numOfAddr": 17, 
      "lonmax": 5.531208948988807, 
      "latmin": 50.88867311949213
    }, 
    {
      "latmax": 50.886879604441155, 
      "name": "Pannenovenstraat", 
      "lonmin": 5.478275449755471, 
      "sanName": "pannenovenstraat", 
      "numOfAddr": 13, 
      "lonmax": 5.4805806446756655, 
      "latmin": 50.88590478809219
    }, 
    {
      "latmax": 50.83684114880751, 
      "name": "Papestraat", 
      "lonmin": 5.554344819543555, 
      "sanName": "papestraat", 
      "numOfAddr": 58, 
      "lonmax": 5.5583471214480396, 
      "latmin": 50.832244900363925
    }, 
    {
      "latmax": 50.86854653983441, 
      "name": "Parklaan", 
      "lonmin": 5.511801977530535, 
      "sanName": "parklaan", 
      "numOfAddr": 29, 
      "lonmax": 5.514717287841784, 
      "latmin": 50.86769745344616
    }, 
    {
      "latmax": 50.87130289236101, 
      "name": "Passage", 
      "lonmin": 5.515625436541357, 
      "sanName": "passage", 
      "numOfAddr": 4, 
      "lonmax": 5.516874543467385, 
      "latmin": 50.8708106651795
    }, 
    {
      "latmax": 50.83616972219531, 
      "name": "Pastorijstraat", 
      "lonmin": 5.550676857365754, 
      "sanName": "pastorijstraat", 
      "numOfAddr": 49, 
      "lonmax": 5.553835119611052, 
      "latmin": 50.83233675873273
    }, 
    {
      "latmax": 50.866350663099595, 
      "name": "Pasweg", 
      "lonmin": 5.502157489665442, 
      "sanName": "pasweg", 
      "numOfAddr": 25, 
      "lonmax": 5.506421976110773, 
      "latmin": 50.864449921917426
    }, 
    {
      "latmax": 50.86864600705723, 
      "name": "Pater Damiaanstraat", 
      "lonmin": 5.498816455907819, 
      "sanName": "paterdamiaanstraat", 
      "numOfAddr": 29, 
      "lonmax": 5.502265593463197, 
      "latmin": 50.867225358849964
    }, 
    {
      "latmax": 50.88974589646044, 
      "name": "Perronstraat", 
      "lonmin": 5.5262926210373156, 
      "sanName": "perronstraat", 
      "numOfAddr": 19, 
      "lonmax": 5.527629281576006, 
      "latmin": 50.88758483530734
    }, 
    {
      "latmax": 50.874178125624745, 
      "name": "Pijpenhof", 
      "lonmin": 5.5182998763464655, 
      "sanName": "pijpenhof", 
      "numOfAddr": 40, 
      "lonmax": 5.5211916976245865, 
      "latmin": 50.873028865808806
    }, 
    {
      "latmax": 50.87311656979399, 
      "name": "Pijpenpoort", 
      "lonmin": 5.519625620958037, 
      "sanName": "pijpenpoort", 
      "numOfAddr": 14, 
      "lonmax": 5.521585777564404, 
      "latmin": 50.87227267840793
    }, 
    {
      "latmax": 50.899676039128906, 
      "name": "Plankenbergstraat", 
      "lonmin": 5.512176703677424, 
      "sanName": "plankenbergstraat", 
      "numOfAddr": 24, 
      "lonmax": 5.516367390152182, 
      "latmin": 50.89814569504238
    }, 
    {
      "latmax": 50.83639383927271, 
      "name": "Pleinstraat", 
      "lonmin": 5.514757345738351, 
      "sanName": "pleinstraat", 
      "numOfAddr": 33, 
      "lonmax": 5.519244765397193, 
      "latmin": 50.834582012401185
    }, 
    {
      "latmax": 50.90400437800454, 
      "name": "Populierenstraat", 
      "lonmin": 5.459751834975968, 
      "sanName": "populierenstraat", 
      "numOfAddr": 22, 
      "lonmax": 5.4615309024583425, 
      "latmin": 50.902230259347135
    }, 
    {
      "latmax": 50.89750169600515, 
      "name": "Processiestraat", 
      "lonmin": 5.517538970740446, 
      "sanName": "processiestraat", 
      "numOfAddr": 42, 
      "lonmax": 5.52427128718609, 
      "latmin": 50.89224205849447
    }, 
    {
      "latmax": 50.903268091932375, 
      "name": "Pruinveld", 
      "lonmin": 5.452729685389977, 
      "sanName": "pruinveld", 
      "numOfAddr": 2, 
      "lonmax": 5.455486750938313, 
      "latmin": 50.90276736199152
    }, 
    {
      "latmax": 50.88804034803166, 
      "name": "Raafstraat", 
      "lonmin": 5.463011992658052, 
      "sanName": "raafstraat", 
      "numOfAddr": 19, 
      "lonmax": 5.468080525560191, 
      "latmin": 50.88758695183897
    }, 
    {
      "latmax": 50.85974849430892, 
      "name": "Rademakerstraat", 
      "lonmin": 5.573529804390973, 
      "sanName": "rademakerstraat", 
      "numOfAddr": 8, 
      "lonmax": 5.574229783409485, 
      "latmin": 50.85871772714779
    }, 
    {
      "latmax": 50.866852947347944, 
      "name": "Redemptiestraat", 
      "lonmin": 5.578920566239913, 
      "sanName": "redemptiestraat", 
      "numOfAddr": 38, 
      "lonmax": 5.584086011927453, 
      "latmin": 50.861916059731826
    }, 
    {
      "latmax": 50.85446354258703, 
      "name": "Reekstraat", 
      "lonmin": 5.519727316078988, 
      "sanName": "reekstraat", 
      "numOfAddr": 59, 
      "lonmax": 5.523662806927949, 
      "latmin": 50.84463751651949
    }, 
    {
      "latmax": 50.89679655105312, 
      "name": "Reepveldstraat", 
      "lonmin": 5.464291037856989, 
      "sanName": "reepveldstraat", 
      "numOfAddr": 8, 
      "lonmax": 5.46515002393515, 
      "latmin": 50.8963508634718
    }, 
    {
      "latmax": 50.88715289243308, 
      "name": "Rehagestraat", 
      "lonmin": 5.492645107763177, 
      "sanName": "rehagestraat", 
      "numOfAddr": 19, 
      "lonmax": 5.497105824730655, 
      "latmin": 50.882587687552075
    }, 
    {
      "latmax": 50.89484319523935, 
      "name": "Rentfortstraat", 
      "lonmin": 5.497353744053619, 
      "sanName": "rentfortstraat", 
      "numOfAddr": 13, 
      "lonmax": 5.498638003711318, 
      "latmin": 50.89017341033152
    }, 
    {
      "latmax": 50.88552493347373, 
      "name": "Ribusstraat", 
      "lonmin": 5.5062815173883966, 
      "sanName": "ribusstraat", 
      "numOfAddr": 31, 
      "lonmax": 5.508946311811234, 
      "latmin": 50.88247146640785
    }, 
    {
      "latmax": 50.8729345352484, 
      "name": "Ridderstraat", 
      "lonmin": 5.518215420592958, 
      "sanName": "ridderstraat", 
      "numOfAddr": 13, 
      "lonmax": 5.518730647787115, 
      "latmin": 50.872436216479514
    }, 
    {
      "latmax": 50.865411261389184, 
      "name": "Riemsterweg", 
      "lonmin": 5.523296746943076, 
      "sanName": "riemsterweg", 
      "numOfAddr": 193, 
      "lonmax": 5.565076827145839, 
      "latmin": 50.83211170473851
    }, 
    {
      "latmax": 50.8866683086385, 
      "name": "Rietveldstraat", 
      "lonmin": 5.524919371457044, 
      "sanName": "rietveldstraat", 
      "numOfAddr": 12, 
      "lonmax": 5.526037473260005, 
      "latmin": 50.88514925493102
    }, 
    {
      "latmax": 50.83421037222517, 
      "name": "Rijkhovenstraat", 
      "lonmin": 5.514258704142414, 
      "sanName": "rijkhovenstraat", 
      "numOfAddr": 18, 
      "lonmax": 5.5163838215490895, 
      "latmin": 50.83327204938097
    }, 
    {
      "latmax": 50.860182543016315, 
      "name": "Rode Kruislaan", 
      "lonmin": 5.518833735622342, 
      "sanName": "rodekruislaan", 
      "numOfAddr": 97, 
      "lonmax": 5.575759804191874, 
      "latmin": 50.82304325316992
    }, 
    {
      "latmax": 50.84593966418352, 
      "name": "Roelants du Vivierlaan", 
      "lonmin": 5.50669436778284, 
      "sanName": "roelantsduvivierlaan", 
      "numOfAddr": 17, 
      "lonmax": 5.511170031472448, 
      "latmin": 50.844287258974134
    }, 
    {
      "latmax": 50.870261051882196, 
      "name": "Romboutstraat", 
      "lonmin": 5.514597319160889, 
      "sanName": "romboutstraat", 
      "numOfAddr": 22, 
      "lonmax": 5.51710699869058, 
      "latmin": 50.86891714136044
    }, 
    {
      "latmax": 50.8629180225479, 
      "name": "Romeinsestraat", 
      "lonmin": 5.547692852819584, 
      "sanName": "romeinsestraat", 
      "numOfAddr": 28, 
      "lonmax": 5.548928129431114, 
      "latmin": 50.85924971055114
    }, 
    {
      "latmax": 50.88479296236316, 
      "name": "Rooi", 
      "lonmin": 5.5011378321423505, 
      "sanName": "rooi", 
      "numOfAddr": 74, 
      "lonmax": 5.506477968952932, 
      "latmin": 50.87924257248759
    }, 
    {
      "latmax": 50.879283989394054, 
      "name": "Rooierweg", 
      "lonmin": 5.502724560493083, 
      "sanName": "rooierweg", 
      "numOfAddr": 34, 
      "lonmax": 5.506862602916144, 
      "latmin": 50.876258389103846
    }, 
    {
      "latmax": 50.846666622933505, 
      "name": "Rosmeerstraat", 
      "lonmin": 5.575307942781292, 
      "sanName": "rosmeerstraat", 
      "numOfAddr": 44, 
      "lonmax": 5.580414025321219, 
      "latmin": 50.84589948474248
    }, 
    {
      "latmax": 50.84354545502088, 
      "name": "Rotenweg", 
      "lonmin": 5.549948299987906, 
      "sanName": "rotenweg", 
      "numOfAddr": 3, 
      "lonmax": 5.551063709098015, 
      "latmin": 50.84337661930177
    }, 
    {
      "latmax": 50.87856291710554, 
      "name": "Royerveld", 
      "lonmin": 5.506169932265155, 
      "sanName": "royerveld", 
      "numOfAddr": 13, 
      "lonmax": 5.507112767858364, 
      "latmin": 50.87686106820943
    }, 
    {
      "latmax": 50.90365597726585, 
      "name": "Rozenstraat", 
      "lonmin": 5.528622465509868, 
      "sanName": "rozenstraat", 
      "numOfAddr": 8, 
      "lonmax": 5.52949876643563, 
      "latmin": 50.90320086845035
    }, 
    {
      "latmax": 50.832281952955164, 
      "name": "Sapstraat", 
      "lonmin": 5.548665418886847, 
      "sanName": "sapstraat", 
      "numOfAddr": 42, 
      "lonmax": 5.553353859812373, 
      "latmin": 50.829962772068235
    }, 
    {
      "latmax": 50.889225458731175, 
      "name": "Scapulierstraat", 
      "lonmin": 5.528885892338621, 
      "sanName": "scapulierstraat", 
      "numOfAddr": 9, 
      "lonmax": 5.529582529770778, 
      "latmin": 50.88831639769036
    }, 
    {
      "latmax": 50.877610104233376, 
      "name": "Schaaienbosstraat", 
      "lonmin": 5.574233704842101, 
      "sanName": "schaaienbosstraat", 
      "numOfAddr": 21, 
      "lonmax": 5.58233362213957, 
      "latmin": 50.877252326627485
    }, 
    {
      "latmax": 50.863720007257434, 
      "name": "Scheepveldweg", 
      "lonmin": 5.58195343989577, 
      "sanName": "scheepveldweg", 
      "numOfAddr": 3, 
      "lonmax": 5.5823646356772665, 
      "latmin": 50.86370046768877
    }, 
    {
      "latmax": 50.88632606618007, 
      "name": "Scherpenberg", 
      "lonmin": 5.583387694232717, 
      "sanName": "scherpenberg", 
      "numOfAddr": 1, 
      "lonmax": 5.583387694232717, 
      "latmin": 50.88632606618007
    }, 
    {
      "latmax": 50.88409279614589, 
      "name": "Schietboomstraat", 
      "lonmin": 5.529298334728279, 
      "sanName": "schietboomstraat", 
      "numOfAddr": 42, 
      "lonmax": 5.5356094203251125, 
      "latmin": 50.881920473394025
    }, 
    {
      "latmax": 50.84715481285601, 
      "name": "Schijvenstraat", 
      "lonmin": 5.581900192184907, 
      "sanName": "schijvenstraat", 
      "numOfAddr": 6, 
      "lonmax": 5.582546571143176, 
      "latmin": 50.84673948091648
    }, 
    {
      "latmax": 50.847331141992, 
      "name": "Schildstraat", 
      "lonmin": 5.551875303266032, 
      "sanName": "schildstraat", 
      "numOfAddr": 2, 
      "lonmax": 5.551988356754702, 
      "latmin": 50.84722445048445
    }, 
    {
      "latmax": 50.83220181215546, 
      "name": "Schoolsteeg", 
      "lonmin": 5.552861685722664, 
      "sanName": "schoolsteeg", 
      "numOfAddr": 17, 
      "lonmax": 5.554164274131805, 
      "latmin": 50.83072226958483
    }, 
    {
      "latmax": 50.903419862090765, 
      "name": "Schoolstraat", 
      "lonmin": 5.469784669717624, 
      "sanName": "schoolstraat", 
      "numOfAddr": 41, 
      "lonmax": 5.476272143399478, 
      "latmin": 50.902312862335506
    }, 
    {
      "latmax": 50.90252934346344, 
      "name": "Schoonbeekstraat", 
      "lonmin": 5.469173518226105, 
      "sanName": "schoonbeekstraat", 
      "numOfAddr": 53, 
      "lonmax": 5.4785390576377, 
      "latmin": 50.90128299286712
    }, 
    {
      "latmax": 50.904536173351424, 
      "name": "Schoonhofstraat", 
      "lonmin": 5.478078438529559, 
      "sanName": "schoonhofstraat", 
      "numOfAddr": 13, 
      "lonmax": 5.47979453656214, 
      "latmin": 50.903775296244
    }, 
    {
      "latmax": 50.875344094872695, 
      "name": "Schureveld", 
      "lonmin": 5.518125625536647, 
      "sanName": "schureveld", 
      "numOfAddr": 10, 
      "lonmax": 5.5208107990626685, 
      "latmin": 50.87420186214032
    }, 
    {
      "latmax": 50.86562854906862, 
      "name": "Schuthaaglaan", 
      "lonmin": 5.50149475340477, 
      "sanName": "schuthaaglaan", 
      "numOfAddr": 24, 
      "lonmax": 5.502889606483763, 
      "latmin": 50.86491378803052
    }, 
    {
      "latmax": 50.865354963429105, 
      "name": "Schutterijstraat", 
      "lonmin": 5.541217727621298, 
      "sanName": "schutterijstraat", 
      "numOfAddr": 20, 
      "lonmax": 5.544049431958599, 
      "latmin": 50.86393227610005
    }, 
    {
      "latmax": 50.87318693236017, 
      "name": "Schuurhoven", 
      "lonmin": 5.517844787556412, 
      "sanName": "schuurhoven", 
      "numOfAddr": 3, 
      "lonmax": 5.518358805784203, 
      "latmin": 50.87308789856977
    }, 
    {
      "latmax": 50.858223190392756, 
      "name": "Sinckestraat", 
      "lonmin": 5.5734036524916934, 
      "sanName": "sinckestraat", 
      "numOfAddr": 21, 
      "lonmax": 5.574881410345116, 
      "latmin": 50.849254504659754
    }, 
    {
      "latmax": 50.840887065108866, 
      "name": "Sint-Aldegondisstraat", 
      "lonmin": 5.543130619275799, 
      "sanName": "sintaldegondisstraat", 
      "numOfAddr": 25, 
      "lonmax": 5.5475955064833125, 
      "latmin": 50.8382890560003
    }, 
    {
      "latmax": 50.88185352073569, 
      "name": "Sint Antoniusstraat", 
      "lonmin": 5.522579798314675, 
      "sanName": "sintantoniusstraat", 
      "numOfAddr": 5, 
      "lonmax": 5.525029672733693, 
      "latmin": 50.88062066330358
    }, 
    {
      "latmax": 50.897997456633234, 
      "name": "Sint Jozefstraat", 
      "lonmin": 5.49881550964137, 
      "sanName": "sintjozefstraat", 
      "numOfAddr": 38, 
      "lonmax": 5.503555276247958, 
      "latmin": 50.89425299440471
    }, 
    {
      "latmax": 50.87372656480229, 
      "name": "Sint Lambertuslaan", 
      "lonmin": 5.5092267078722115, 
      "sanName": "sintlambertuslaan", 
      "numOfAddr": 41, 
      "lonmax": 5.513842326558711, 
      "latmin": 50.87239210565202
    }, 
    {
      "latmax": 50.87136626516348, 
      "name": "Sint Martinusstraat", 
      "lonmin": 5.50982465506423, 
      "sanName": "sintmartinusstraat", 
      "numOfAddr": 18, 
      "lonmax": 5.512259955141765, 
      "latmin": 50.868928710890934
    }, 
    {
      "latmax": 50.845874968436775, 
      "name": "Sint-Quintinussteeg", 
      "lonmin": 5.609348452278866, 
      "sanName": "sintquintinussteeg", 
      "numOfAddr": 2, 
      "lonmax": 5.60953422137271, 
      "latmin": 50.84558923028513
    }, 
    {
      "latmax": 50.886755128721575, 
      "name": "Slagmolen", 
      "lonmin": 5.509753781092756, 
      "sanName": "slagmolen", 
      "numOfAddr": 1, 
      "lonmax": 5.509753781092756, 
      "latmin": 50.886755128721575
    }, 
    {
      "latmax": 50.849910366469764, 
      "name": "Slakkenstraat", 
      "lonmin": 5.570479190147558, 
      "sanName": "slakkenstraat", 
      "numOfAddr": 2, 
      "lonmax": 5.573204137233323, 
      "latmin": 50.84863999076809
    }, 
    {
      "latmax": 50.90221581028153, 
      "name": "Sluisstraat", 
      "lonmin": 5.538617484233158, 
      "sanName": "sluisstraat", 
      "numOfAddr": 1, 
      "lonmax": 5.538617484233158, 
      "latmin": 50.90221581028153
    }, 
    {
      "latmax": 50.845029949288325, 
      "name": "Smisstraat", 
      "lonmin": 5.6102003794967255, 
      "sanName": "smisstraat", 
      "numOfAddr": 7, 
      "lonmax": 5.610901857353313, 
      "latmin": 50.84460398684825
    }, 
    {
      "latmax": 50.869935216154246, 
      "name": "Solveldstraat", 
      "lonmin": 5.505821240654246, 
      "sanName": "solveldstraat", 
      "numOfAddr": 37, 
      "lonmax": 5.5089033906104365, 
      "latmin": 50.86813733142247
    }, 
    {
      "latmax": 50.83955578139236, 
      "name": "Souwveld", 
      "lonmin": 5.512227676953149, 
      "sanName": "souwveld", 
      "numOfAddr": 24, 
      "lonmax": 5.517222719940818, 
      "latmin": 50.83597404045777
    }, 
    {
      "latmax": 50.88635355421779, 
      "name": "Speelbosweg", 
      "lonmin": 5.48004314360945, 
      "sanName": "speelbosweg", 
      "numOfAddr": 11, 
      "lonmax": 5.4815345724674, 
      "latmin": 50.88526266935355
    }, 
    {
      "latmax": 50.8746458132082, 
      "name": "Spelverstraat", 
      "lonmin": 5.5270295446824464, 
      "sanName": "spelverstraat", 
      "numOfAddr": 44, 
      "lonmax": 5.528384749159675, 
      "latmin": 50.8655636209521
    }, 
    {
      "latmax": 50.84335200086552, 
      "name": "Spetsteeg", 
      "lonmin": 5.610389473249316, 
      "sanName": "spetsteeg", 
      "numOfAddr": 3, 
      "lonmax": 5.612069540507483, 
      "latmin": 50.84252672765671
    }, 
    {
      "latmax": 50.87835888396797, 
      "name": "Spoorstraat", 
      "lonmin": 5.508391121741174, 
      "sanName": "spoorstraat", 
      "numOfAddr": 17, 
      "lonmax": 5.510237639869519, 
      "latmin": 50.877100550714495
    }, 
    {
      "latmax": 50.89313162600409, 
      "name": "Spoorwegstraat", 
      "lonmin": 5.475116008596351, 
      "sanName": "spoorwegstraat", 
      "numOfAddr": 56, 
      "lonmax": 5.480685030726478, 
      "latmin": 50.89072271743518
    }, 
    {
      "latmax": 50.87697526295697, 
      "name": "Sporthalstraat", 
      "lonmin": 5.5761755330755145, 
      "sanName": "sporthalstraat", 
      "numOfAddr": 11, 
      "lonmax": 5.58029445073942, 
      "latmin": 50.87667284879702
    }, 
    {
      "latmax": 50.86324231627646, 
      "name": "Sportveldstraat", 
      "lonmin": 5.541903263480721, 
      "sanName": "sportveldstraat", 
      "numOfAddr": 11, 
      "lonmax": 5.546141425351827, 
      "latmin": 50.86080136371071
    }, 
    {
      "latmax": 50.84215686729088, 
      "name": "Spouwerveldstraat", 
      "lonmin": 5.576612264488482, 
      "sanName": "spouwerveldstraat", 
      "numOfAddr": 1, 
      "lonmax": 5.576612264488482, 
      "latmin": 50.84215686729088
    }, 
    {
      "latmax": 50.890029907697176, 
      "name": "Spurk", 
      "lonmin": 5.497598249558138, 
      "sanName": "spurk", 
      "numOfAddr": 69, 
      "lonmax": 5.505111815661403, 
      "latmin": 50.88595832132256
    }, 
    {
      "latmax": 50.88590573726157, 
      "name": "Spurkerweg", 
      "lonmin": 5.506254944629917, 
      "sanName": "spurkerweg", 
      "numOfAddr": 97, 
      "lonmax": 5.513474121021379, 
      "latmin": 50.87456270507566
    }, 
    {
      "latmax": 50.885302755336724, 
      "name": "St.Amelbergastraat", 
      "lonmin": 5.527791512601078, 
      "sanName": "stamelbergastraat", 
      "numOfAddr": 3, 
      "lonmax": 5.528381472726259, 
      "latmin": 50.88509001716818
    }, 
    {
      "latmax": 50.87019092456847, 
      "name": "Stationlaan", 
      "lonmin": 5.50994567607893, 
      "sanName": "stationlaan", 
      "numOfAddr": 50, 
      "lonmax": 5.5136444514791, 
      "latmin": 50.86820757717624
    }, 
    {
      "latmax": 50.848723626387056, 
      "name": "St.Bertiliastraat", 
      "lonmin": 5.576848056814927, 
      "sanName": "stbertiliastraat", 
      "numOfAddr": 6, 
      "lonmax": 5.578543859276105, 
      "latmin": 50.84791125628933
    }, 
    {
      "latmax": 50.863577635748904, 
      "name": "St.Catarinastraat", 
      "lonmin": 5.573765612207342, 
      "sanName": "stcatarinastraat", 
      "numOfAddr": 18, 
      "lonmax": 5.574860565565578, 
      "latmin": 50.86182988124271
    }, 
    {
      "latmax": 50.84584390921881, 
      "name": "Steegstraat", 
      "lonmin": 5.579188587702125, 
      "sanName": "steegstraat", 
      "numOfAddr": 15, 
      "lonmax": 5.58712730967632, 
      "latmin": 50.84473185222306
    }, 
    {
      "latmax": 50.82644319998489, 
      "name": "Steegveld", 
      "lonmin": 5.557177374947783, 
      "sanName": "steegveld", 
      "numOfAddr": 1, 
      "lonmax": 5.557177374947783, 
      "latmin": 50.82644319998489
    }, 
    {
      "latmax": 50.86372041272126, 
      "name": "Steenbeemdlaan", 
      "lonmin": 5.500569762407863, 
      "sanName": "steenbeemdlaan", 
      "numOfAddr": 8, 
      "lonmax": 5.501847349646921, 
      "latmin": 50.86350729712381
    }, 
    {
      "latmax": 50.87151396869341, 
      "name": "Steenveldstraat", 
      "lonmin": 5.57668279952213, 
      "sanName": "steenveldstraat", 
      "numOfAddr": 14, 
      "lonmax": 5.580541928117939, 
      "latmin": 50.86985975992883
    }, 
    {
      "latmax": 50.89219078411364, 
      "name": "St.Gertrudisplein", 
      "lonmin": 5.47381301920826, 
      "sanName": "stgertrudisplein", 
      "numOfAddr": 15, 
      "lonmax": 5.475812220805514, 
      "latmin": 50.89109184949853
    }, 
    {
      "latmax": 50.884033874387406, 
      "name": "St. Jorisstraat", 
      "lonmin": 5.526920716090855, 
      "sanName": "stjorisstraat", 
      "numOfAddr": 14, 
      "lonmax": 5.529172055935577, 
      "latmin": 50.88164957570824
    }, 
    {
      "latmax": 50.88493723423607, 
      "name": "St.Landradastraat", 
      "lonmin": 5.524587449063252, 
      "sanName": "stlandradastraat", 
      "numOfAddr": 12, 
      "lonmax": 5.528579411746513, 
      "latmin": 50.884801918769426
    }, 
    {
      "latmax": 50.90392545530381, 
      "name": "St-Lodewijkstraat", 
      "lonmin": 5.479973780468212, 
      "sanName": "stlodewijkstraat", 
      "numOfAddr": 89, 
      "lonmax": 5.493501934908716, 
      "latmin": 50.90163432010954
    }, 
    {
      "latmax": 50.89396280776717, 
      "name": "St-Maertensgrachtstraat", 
      "lonmin": 5.473491970308216, 
      "sanName": "stmaertensgrachtstraat", 
      "numOfAddr": 9, 
      "lonmax": 5.475063005233483, 
      "latmin": 50.89331229284247
    }, 
    {
      "latmax": 50.87588935241716, 
      "name": "St.Niklaasstraat", 
      "lonmin": 5.574519654881052, 
      "sanName": "stniklaasstraat", 
      "numOfAddr": 2, 
      "lonmax": 5.574617510168265, 
      "latmin": 50.875786247093274
    }, 
    {
      "latmax": 50.86278055922051, 
      "name": "St.Remigiusstraat", 
      "lonmin": 5.545125392464734, 
      "sanName": "stremigiusstraat", 
      "numOfAddr": 27, 
      "lonmax": 5.547691441462028, 
      "latmin": 50.859564772503006
    }, 
    {
      "latmax": 50.84657458605038, 
      "name": "Striekestraat", 
      "lonmin": 5.604722822683576, 
      "sanName": "striekestraat", 
      "numOfAddr": 20, 
      "lonmax": 5.607698042480693, 
      "latmin": 50.845692798732415
    }, 
    {
      "latmax": 50.884410642690376, 
      "name": "St.Rochusstraat", 
      "lonmin": 5.529438143291997, 
      "sanName": "strochusstraat", 
      "numOfAddr": 25, 
      "lonmax": 5.53297024240254, 
      "latmin": 50.883166340904275
    }, 
    {
      "latmax": 50.87669767264224, 
      "name": "St.Ursulastraat", 
      "lonmin": 5.574092339524649, 
      "sanName": "stursulastraat", 
      "numOfAddr": 7, 
      "lonmax": 5.5747162868919355, 
      "latmin": 50.87610759626902
    }, 
    {
      "latmax": 50.87348581786894, 
      "name": "Tabaartstraat", 
      "lonmin": 5.522043777843448, 
      "sanName": "tabaartstraat", 
      "numOfAddr": 59, 
      "lonmax": 5.525272158347143, 
      "latmin": 50.866175752798036
    }, 
    {
      "latmax": 50.834244337629926, 
      "name": "Tarweveldweg", 
      "lonmin": 5.521749231140686, 
      "sanName": "tarweveldweg", 
      "numOfAddr": 2, 
      "lonmax": 5.522070577042089, 
      "latmin": 50.83370374699947
    }, 
    {
      "latmax": 50.91282391251753, 
      "name": "Taunusweg", 
      "lonmin": 5.502319578606432, 
      "sanName": "taunusweg", 
      "numOfAddr": 14, 
      "lonmax": 5.5313709936717785, 
      "latmin": 50.90462127003575
    }, 
    {
      "latmax": 50.865960899945016, 
      "name": "Terfakkerstraat", 
      "lonmin": 5.496534688379705, 
      "sanName": "terfakkerstraat", 
      "numOfAddr": 15, 
      "lonmax": 5.498142305678575, 
      "latmin": 50.86456005730932
    }, 
    {
      "latmax": 50.83443002003013, 
      "name": "Teutonenstraat", 
      "lonmin": 5.515441599257467, 
      "sanName": "teutonenstraat", 
      "numOfAddr": 7, 
      "lonmax": 5.516681894608187, 
      "latmin": 50.83363314124037
    }, 
    {
      "latmax": 50.87131145982165, 
      "name": "Tielemanstraat", 
      "lonmin": 5.525134530497919, 
      "sanName": "tielemanstraat", 
      "numOfAddr": 6, 
      "lonmax": 5.527183395045676, 
      "latmin": 50.871155930088
    }, 
    {
      "latmax": 50.8991126382318, 
      "name": "Tipstraat", 
      "lonmin": 5.450648751979149, 
      "sanName": "tipstraat", 
      "numOfAddr": 118, 
      "lonmax": 5.466725577093587, 
      "latmin": 50.89436765451977
    }, 
    {
      "latmax": 50.846811868549096, 
      "name": "Toekomststraat", 
      "lonmin": 5.610608005718868, 
      "sanName": "toekomststraat", 
      "numOfAddr": 77, 
      "lonmax": 5.6203636432812445, 
      "latmin": 50.843078984980544
    }, 
    {
      "latmax": 50.85205527290688, 
      "name": "Tombestraat", 
      "lonmin": 5.601416318461204, 
      "sanName": "tombestraat", 
      "numOfAddr": 45, 
      "lonmax": 5.607841753823609, 
      "latmin": 50.846317057624155
    }, 
    {
      "latmax": 50.867805516203155, 
      "name": "Tongersestraat", 
      "lonmin": 5.501003747523384, 
      "sanName": "tongersestraat", 
      "numOfAddr": 77, 
      "lonmax": 5.50882787003563, 
      "latmin": 50.8590389751044
    }, 
    {
      "latmax": 50.84621980067002, 
      "name": "Torenstraat", 
      "lonmin": 5.608016227937601, 
      "sanName": "torenstraat", 
      "numOfAddr": 12, 
      "lonmax": 5.6095399828762575, 
      "latmin": 50.84537134901944
    }, 
    {
      "latmax": 50.83852115942587, 
      "name": "Troffelstraat", 
      "lonmin": 5.542591604987582, 
      "sanName": "troffelstraat", 
      "numOfAddr": 35, 
      "lonmax": 5.547757941140304, 
      "latmin": 50.836066400146
    }, 
    {
      "latmax": 50.88310365199559, 
      "name": "Tuinweg", 
      "lonmin": 5.509730965118466, 
      "sanName": "tuinweg", 
      "numOfAddr": 23, 
      "lonmax": 5.513886776634607, 
      "latmin": 50.88158446909493
    }, 
    {
      "latmax": 50.86999673095588, 
      "name": "Tweevoetjesweg", 
      "lonmin": 5.520810109406616, 
      "sanName": "tweevoetjesweg", 
      "numOfAddr": 14, 
      "lonmax": 5.523069707500265, 
      "latmin": 50.86878843395841
    }, 
    {
      "latmax": 50.89700665979683, 
      "name": "Veldhof", 
      "lonmin": 5.508211013384095, 
      "sanName": "veldhof", 
      "numOfAddr": 19, 
      "lonmax": 5.510319503303011, 
      "latmin": 50.89606318902773
    }, 
    {
      "latmax": 50.87931643265787, 
      "name": "Veldstraat", 
      "lonmin": 5.573694627771602, 
      "sanName": "veldstraat", 
      "numOfAddr": 29, 
      "lonmax": 5.578068250569425, 
      "latmin": 50.87853100743671
    }, 
    {
      "latmax": 50.867154242625986, 
      "name": "Verbindingsstraat", 
      "lonmin": 5.544407150982291, 
      "sanName": "verbindingsstraat", 
      "numOfAddr": 19, 
      "lonmax": 5.546018498266338, 
      "latmin": 50.86532136413287
    }, 
    {
      "latmax": 50.88836701062313, 
      "name": "Vereveldstraat", 
      "lonmin": 5.485408157752684, 
      "sanName": "vereveldstraat", 
      "numOfAddr": 9, 
      "lonmax": 5.492449900910986, 
      "latmin": 50.88622072996967
    }, 
    {
      "latmax": 50.89207933096733, 
      "name": "Vijverstraat", 
      "lonmin": 5.477329831619023, 
      "sanName": "vijverstraat", 
      "numOfAddr": 25, 
      "lonmax": 5.479055659564882, 
      "latmin": 50.88952553578034
    }, 
    {
      "latmax": 50.89588161135468, 
      "name": "Vinkenstraat", 
      "lonmin": 5.526061157243659, 
      "sanName": "vinkenstraat", 
      "numOfAddr": 14, 
      "lonmax": 5.5266706631496225, 
      "latmin": 50.89517042585083
    }, 
    {
      "latmax": 50.88682328877294, 
      "name": "Violierenstraat", 
      "lonmin": 5.532407582491176, 
      "sanName": "violierenstraat", 
      "numOfAddr": 20, 
      "lonmax": 5.535567571089332, 
      "latmin": 50.88559405979848
    }, 
    {
      "latmax": 50.884892865662266, 
      "name": "Vlasstraat", 
      "lonmin": 5.575251460147922, 
      "sanName": "vlasstraat", 
      "numOfAddr": 3, 
      "lonmax": 5.575935527269311, 
      "latmin": 50.88452287714695
    }, 
    {
      "latmax": 50.88371308603146, 
      "name": "Vlekkert", 
      "lonmin": 5.525308152105241, 
      "sanName": "vlekkert", 
      "numOfAddr": 3, 
      "lonmax": 5.526555167278946, 
      "latmin": 50.88341424559687
    }, 
    {
      "latmax": 50.833357497427365, 
      "name": "Vlijtingerstraat", 
      "lonmin": 5.563856645101706, 
      "sanName": "vlijtingerstraat", 
      "numOfAddr": 7, 
      "lonmax": 5.56478432511657, 
      "latmin": 50.832977319248975
    }, 
    {
      "latmax": 50.87731125393817, 
      "name": "Vlinderhof", 
      "lonmin": 5.512642691091309, 
      "sanName": "vlinderhof", 
      "numOfAddr": 1, 
      "lonmax": 5.512642691091309, 
      "latmin": 50.87731125393817
    }, 
    {
      "latmax": 50.89127483958265, 
      "name": "Vogelzangstraat", 
      "lonmin": 5.476288617977517, 
      "sanName": "vogelzangstraat", 
      "numOfAddr": 24, 
      "lonmax": 5.480369392720556, 
      "latmin": 50.89012686090205
    }, 
    {
      "latmax": 50.880541733510306, 
      "name": "Vossenkuilstraat", 
      "lonmin": 5.576173987056121, 
      "sanName": "vossenkuilstraat", 
      "numOfAddr": 19, 
      "lonmax": 5.578744051461234, 
      "latmin": 50.877273956555996
    }, 
    {
      "latmax": 50.8627005274164, 
      "name": "Vrankrijk", 
      "lonmin": 5.506810274206172, 
      "sanName": "vrankrijk", 
      "numOfAddr": 20, 
      "lonmax": 5.511659060418673, 
      "latmin": 50.85876644108435
    }, 
    {
      "latmax": 50.89653847338894, 
      "name": "Vrijweide", 
      "lonmin": 5.505914237766533, 
      "sanName": "vrijweide", 
      "numOfAddr": 23, 
      "lonmax": 5.508198873347213, 
      "latmin": 50.89541664409932
    }, 
    {
      "latmax": 50.90443332418093, 
      "name": "Vroentestraat", 
      "lonmin": 5.529462854517632, 
      "sanName": "vroentestraat", 
      "numOfAddr": 6, 
      "lonmax": 5.530235989735911, 
      "latmin": 50.903942347224095
    }, 
    {
      "latmax": 50.869436852724014, 
      "name": "Wagenstraat", 
      "lonmin": 5.4972299158392595, 
      "sanName": "wagenstraat", 
      "numOfAddr": 13, 
      "lonmax": 5.498352130105011, 
      "latmin": 50.867897346171524
    }, 
    {
      "latmax": 50.86748754856238, 
      "name": "Waltwilderstraat", 
      "lonmin": 5.542795024234422, 
      "sanName": "waltwilderstraat", 
      "numOfAddr": 25, 
      "lonmax": 5.545532934081449, 
      "latmin": 50.86380296168038
    }, 
    {
      "latmax": 50.83997859360838, 
      "name": "Wanhofstraat", 
      "lonmin": 5.566917301969082, 
      "sanName": "wanhofstraat", 
      "numOfAddr": 1, 
      "lonmax": 5.566917301969082, 
      "latmin": 50.83997859360838
    }, 
    {
      "latmax": 50.90491447256467, 
      "name": "Waterkasteelstraat", 
      "lonmin": 5.478211904414981, 
      "sanName": "waterkasteelstraat", 
      "numOfAddr": 28, 
      "lonmax": 5.48124575138308, 
      "latmin": 50.90008210082803
    }, 
    {
      "latmax": 50.89805624620293, 
      "name": "Waterstraat", 
      "lonmin": 5.524095086697846, 
      "sanName": "waterstraat", 
      "numOfAddr": 81, 
      "lonmax": 5.526395830240289, 
      "latmin": 50.889890688613235
    }, 
    {
      "latmax": 50.83194388832277, 
      "name": "Weerterstraat", 
      "lonmin": 5.5360985761404615, 
      "sanName": "weerterstraat", 
      "numOfAddr": 2, 
      "lonmax": 5.536393230861727, 
      "latmin": 50.82940441640953
    }, 
    {
      "latmax": 50.83227455816811, 
      "name": "Weerterveldweg", 
      "lonmin": 5.517772708749359, 
      "sanName": "weerterveldweg", 
      "numOfAddr": 4, 
      "lonmax": 5.518821189146349, 
      "latmin": 50.8321407824761
    },