{
  "streets": [
    {
      "latmax": 50.72996477370444, 
      "name": "Billen", 
      "lonmin": 5.876476977480502, 
      "sanName": "billen", 
      "numOfAddr": 5, 
      "lonmax": 5.878318280583707, 
      "latmin": 50.729585241433796
    }, 
    {
      "latmax": 50.73122591036518, 
      "name": "Born", 
      "lonmin": 5.877169869662334, 
      "sanName": "born", 
      "numOfAddr": 9, 
      "lonmax": 5.879024142639979, 
      "latmin": 50.730466865288925
    }, 
    {
      "latmax": 50.73468666588868, 
      "name": "Bounder", 
      "lonmin": 5.897589768888363, 
      "sanName": "bounder", 
      "numOfAddr": 3, 
      "lonmax": 5.898060188496605, 
      "latmin": 50.734480671301085
    }, 
    {
      "latmax": 50.73245409709911, 
      "name": "Clermontshof", 
      "lonmin": 5.8787288489714165, 
      "sanName": "clermontshof", 
      "numOfAddr": 4, 
      "lonmax": 5.879996479694851, 
      "latmin": 50.73211959587928
    }, 
    {
      "latmax": 50.730173946121894, 
      "name": "Cobus", 
      "lonmin": 5.8738306243500435, 
      "sanName": "cobus", 
      "numOfAddr": 3, 
      "lonmax": 5.874067717011267, 
      "latmin": 50.7300352929637
    }, 
    {
      "latmax": 50.726649295915266, 
      "name": "Driesschen", 
      "lonmin": 5.894434885809094, 
      "sanName": "driesschen", 
      "numOfAddr": 3, 
      "lonmax": 5.894877547239666, 
      "latmin": 50.726504057292026
    }, 
    {
      "latmax": 50.73380995529402, 
      "name": "Graef", 
      "lonmin": 5.877460341883467, 
      "sanName": "graef", 
      "numOfAddr": 3, 
      "lonmax": 5.877905264628901, 
      "latmin": 50.73304815235129
    }, 
    {
      "latmax": 50.71807568837053, 
      "name": "Hagelstein", 
      "lonmin": 5.865483034812349, 
      "sanName": "hagelstein", 
      "numOfAddr": 6, 
      "lonmax": 5.874266226535916, 
      "latmin": 50.7140156430099
    }, 
    {
      "latmax": 50.72880220995185, 
      "name": "Kultjen", 
      "lonmin": 5.8689956549900355, 
      "sanName": "kultjen", 
      "numOfAddr": 9, 
      "lonmax": 5.876495162899379, 
      "latmin": 50.724531612867146
    }, 
    {
      "latmax": 50.722953924352176, 
      "name": "Mabrouck", 
      "lonmin": 5.888240849380941, 
      "sanName": "mabrouck", 
      "numOfAddr": 11, 
      "lonmax": 5.891614045777231, 
      "latmin": 50.718882387981665
    }, 
    {
      "latmax": 50.722728912118896, 
      "name": "Magnebos", 
      "lonmin": 5.866419585555114, 
      "sanName": "magnebos", 
      "numOfAddr": 1, 
      "lonmax": 5.866419585555114, 
      "latmin": 50.722728912118896
    }, 
    {
      "latmax": 50.73688236856405, 
      "name": "Middelhof", 
      "lonmin": 5.894751682882549, 
      "sanName": "middelhof", 
      "numOfAddr": 2, 
      "lonmax": 5.894899755015494, 
      "latmin": 50.736821270996636
    }, 
    {
      "latmax": 50.732539788478114, 
      "name": "Neubau", 
      "lonmin": 5.889952846577953, 
      "sanName": "neubau", 
      "numOfAddr": 1, 
      "lonmax": 5.889952846577953, 
      "latmin": 50.732539788478114
    }, 
    {
      "latmax": 50.745065299575856, 
      "name": "Obsinnich", 
      "lonmin": 5.886044948901069, 
      "sanName": "obsinnich", 
      "numOfAddr": 7, 
      "lonmax": 5.8908798321608895, 
      "latmin": 50.74096016954842
    }, 
    {
      "latmax": 50.73178040459116, 
      "name": "Pontus", 
      "lonmin": 5.875895399670922, 
      "sanName": "pontus", 
      "numOfAddr": 1, 
      "lonmax": 5.875895399670922, 
      "latmin": 50.73178040459116
    }, 
    {
      "latmax": 50.73024853153293, 
      "name": "Popelpoel", 
      "lonmin": 5.875816203578754, 
      "sanName": "popelpoel", 
      "numOfAddr": 1, 
      "lonmax": 5.875816203578754, 
      "latmin": 50.73024853153293
    }, 
    {
      "latmax": 50.71814527957263, 
      "name": "Reesberg", 
      "lonmin": 5.878726266311411, 
      "sanName": "reesberg", 
      "numOfAddr": 3, 
      "lonmax": 5.88346667286076, 
      "latmin": 50.716129508759664
    }, 
    {
      "latmax": 50.73152969160119, 
      "name": "Remersdaal-Dorp", 
      "lonmin": 5.87703472877267, 
      "sanName": "remersdaaldorp", 
      "numOfAddr": 21, 
      "lonmax": 5.880980128922696, 
      "latmin": 50.728961400895486
    }, 
    {
      "latmax": 50.73620745424548, 
      "name": "Roodbos", 
      "lonmin": 5.862805001003527, 
      "sanName": "roodbos", 
      "numOfAddr": 34, 
      "lonmax": 5.869279319230212, 
      "latmin": 50.72728642443184
    }, 
    {
      "latmax": 50.73113413740641, 
      "name": "Rozengaerden", 
      "lonmin": 5.871787014935382, 
      "sanName": "rozengaerden", 
      "numOfAddr": 3, 
      "lonmax": 5.8722107392852045, 
      "latmin": 50.730735321656034
    }, 
    {
      "latmax": 50.7316333880034, 
      "name": "Smidt", 
      "lonmin": 5.881228650562805, 
      "sanName": "smidt", 
      "numOfAddr": 5, 
      "lonmax": 5.882615091911348, 
      "latmin": 50.73040464240686
    }, 
    {
      "latmax": 50.731787314839686, 
      "name": "Vrijthof", 
      "lonmin": 5.873480891025906, 
      "sanName": "vrijthof", 
      "numOfAddr": 1, 
      "lonmax": 5.873480891025906, 
      "latmin": 50.731787314839686
    }
  ]
}