{
  "streets": [
    {
      "latmax": 50.754965449936755, 
      "name": "Driesschen", 
      "lonmin": 5.889166809124609, 
      "sanName": "driesschen", 
      "numOfAddr": 1, 
      "lonmax": 5.889166809124609, 
      "latmin": 50.754965449936755
    }, 
    {
      "latmax": 50.76503007993397, 
      "name": "Gieveldstraat", 
      "lonmin": 5.876171658172827, 
      "sanName": "gieveldstraat", 
      "numOfAddr": 40, 
      "lonmax": 5.885233691349474, 
      "latmin": 50.7518361399724
    }, 
    {
      "latmax": 50.75595591160919, 
      "name": "Hoofstraat", 
      "lonmin": 5.871889110624045, 
      "sanName": "hoofstraat", 
      "numOfAddr": 9, 
      "lonmax": 5.8753265122991625, 
      "latmin": 50.75426493551921
    }, 
    {
      "latmax": 50.75985939687854, 
      "name": "I gen Treut", 
      "lonmin": 5.867336087370699, 
      "sanName": "igentreut", 
      "numOfAddr": 4, 
      "lonmax": 5.869984458449943, 
      "latmin": 50.7590234303726
    }, 
    {
      "latmax": 50.750293990524185, 
      "name": "Kasteelstraat", 
      "lonmin": 5.882555234075894, 
      "sanName": "kasteelstraat", 
      "numOfAddr": 5, 
      "lonmax": 5.885740700064394, 
      "latmin": 50.74769385433819
    }, 
    {
      "latmax": 50.74789344496694, 
      "name": "Kloosterhofstraat", 
      "lonmin": 5.866458031823764, 
      "sanName": "kloosterhofstraat", 
      "numOfAddr": 22, 
      "lonmax": 5.8807161349255885, 
      "latmin": 50.73736137170022
    }, 
    {
      "latmax": 50.75111219083885, 
      "name": "Mostert", 
      "lonmin": 5.8716016275145115, 
      "sanName": "mostert", 
      "numOfAddr": 7, 
      "lonmax": 5.87394705883986, 
      "latmin": 50.75013797861077
    }, 
    {
      "latmax": 50.763136065452024, 
      "name": "Nurop", 
      "lonmin": 5.865746911607373, 
      "sanName": "nurop", 
      "numOfAddr": 19, 
      "lonmax": 5.870004689267289, 
      "latmin": 50.75517354462227
    }, 
    {
      "latmax": 50.76052285667538, 
      "name": "Nuroperveld", 
      "lonmin": 5.863645450645876, 
      "sanName": "nuroperveld", 
      "numOfAddr": 4, 
      "lonmax": 5.865432871919981, 
      "latmin": 50.75925837263169
    }, 
    {
      "latmax": 50.76056881442253, 
      "name": "Plankerweg", 
      "lonmin": 5.849226081540443, 
      "sanName": "plankerweg", 
      "numOfAddr": 29, 
      "lonmax": 5.865424782445648, 
      "latmin": 50.7515920293648
    }, 
    {
      "latmax": 50.75027955624938, 
      "name": "Sinnich", 
      "lonmin": 5.877814237959721, 
      "sanName": "sinnich", 
      "numOfAddr": 35, 
      "lonmax": 5.885103780555958, 
      "latmin": 50.74587847952434
    }, 
    {
      "latmax": 50.75422005616328, 
      "name": "Teuven-Dorp", 
      "lonmin": 5.871491078981467, 
      "sanName": "teuvendorp", 
      "numOfAddr": 40, 
      "lonmax": 5.8780319647836015, 
      "latmin": 50.75061195386487
    }, 
    {
      "latmax": 50.75493254067098, 
      "name": "Teuvener-Driesen", 
      "lonmin": 5.889429678032841, 
      "sanName": "teuvenerdriesen", 
      "numOfAddr": 1, 
      "lonmax": 5.889429678032841, 
      "latmin": 50.75493254067098
    }, 
    {
      "latmax": 50.754209496424295, 
      "name": "Varnstraat", 
      "lonmin": 5.85582924730456, 
      "sanName": "varnstraat", 
      "numOfAddr": 15, 
      "lonmax": 5.87117025113443, 
      "latmin": 50.748336163270366
    }
  ]
}