{
  "streets": [
    {
      "latmax": 50.78084794265848, 
      "name": "Attenhovenstraat", 
      "lonmin": 5.113265750294025, 
      "sanName": "attenhovenstraat", 
      "numOfAddr": 74, 
      "lonmax": 5.125724926289786, 
      "latmin": 50.775438683392586
    }, 
    {
      "latmax": 50.7753278182815, 
      "name": "Battelestraat", 
      "lonmin": 5.134349131752975, 
      "sanName": "battelestraat", 
      "numOfAddr": 21, 
      "lonmax": 5.135937023871823, 
      "latmin": 50.77425389106119
    }, 
    {
      "latmax": 50.782189607534285, 
      "name": "Begijnenstraat", 
      "lonmin": 5.1324357045548545, 
      "sanName": "begijnenstraat", 
      "numOfAddr": 7, 
      "lonmax": 5.132933336306309, 
      "latmin": 50.781490007518876
    }, 
    {
      "latmax": 50.7783675208564, 
      "name": "Bornstraat", 
      "lonmin": 5.127456834552598, 
      "sanName": "bornstraat", 
      "numOfAddr": 36, 
      "lonmax": 5.130108527068022, 
      "latmin": 50.77368466602707
    }, 
    {
      "latmax": 50.780931046935, 
      "name": "Davidstraat", 
      "lonmin": 5.124257712969875, 
      "sanName": "davidstraat", 
      "numOfAddr": 25, 
      "lonmax": 5.13101175510562, 
      "latmin": 50.779644623943284
    }, 
    {
      "latmax": 50.78409653873517, 
      "name": "Dijkstraat", 
      "lonmin": 5.136375964406976, 
      "sanName": "dijkstraat", 
      "numOfAddr": 5, 
      "lonmax": 5.136983611739722, 
      "latmin": 50.78351748244866
    }, 
    {
      "latmax": 50.779336554715194, 
      "name": "Gemeenteplein", 
      "lonmin": 5.130201119866235, 
      "sanName": "gemeenteplein", 
      "numOfAddr": 19, 
      "lonmax": 5.1318908705122155, 
      "latmin": 50.77781733158069
    }, 
    {
      "latmax": 50.77460479085679, 
      "name": "Glimmerberg", 
      "lonmin": 5.130761182102352, 
      "sanName": "glimmerberg", 
      "numOfAddr": 12, 
      "lonmax": 5.132681440002813, 
      "latmin": 50.7738308585678
    }, 
    {
      "latmax": 50.77999900429997, 
      "name": "Grashoven", 
      "lonmin": 5.127011718836959, 
      "sanName": "grashoven", 
      "numOfAddr": 8, 
      "lonmax": 5.128086413919058, 
      "latmin": 50.779333376240636
    }, 
    {
      "latmax": 50.77807217037322, 
      "name": "Halingenstraat", 
      "lonmin": 5.13491109101622, 
      "sanName": "halingenstraat", 
      "numOfAddr": 50, 
      "lonmax": 5.146308460256623, 
      "latmin": 50.770202816517234
    }, 
    {
      "latmax": 50.79217206626231, 
      "name": "Halleweg", 
      "lonmin": 5.12411437308433, 
      "sanName": "halleweg", 
      "numOfAddr": 5, 
      "lonmax": 5.126603020771078, 
      "latmin": 50.78638062178196
    }, 
    {
      "latmax": 50.77365652763867, 
      "name": "Jufferstraat", 
      "lonmin": 5.1291508659212335, 
      "sanName": "jufferstraat", 
      "numOfAddr": 30, 
      "lonmax": 5.13122539957767, 
      "latmin": 50.771481491618715
    }, 
    {
      "latmax": 50.77909841984406, 
      "name": "Kruisstraat", 
      "lonmin": 5.123686609136091, 
      "sanName": "kruisstraat", 
      "numOfAddr": 10, 
      "lonmax": 5.12542401659579, 
      "latmin": 50.77805559405509
    }, 
    {
      "latmax": 50.78878958027491, 
      "name": "Langstraat", 
      "lonmin": 5.136133820525136, 
      "sanName": "langstraat", 
      "numOfAddr": 64, 
      "lonmax": 5.142517443316511, 
      "latmin": 50.78105769480081
    }, 
    {
      "latmax": 50.7794307990646, 
      "name": "Loorstraat", 
      "lonmin": 5.128416117327799, 
      "sanName": "loorstraat", 
      "numOfAddr": 8, 
      "lonmax": 5.129469646515837, 
      "latmin": 50.77884438491489
    }, 
    {
      "latmax": 50.78578344065725, 
      "name": "L. Van Pouckestraat", 
      "lonmin": 5.126287214915918, 
      "sanName": "lvanpouckestraat", 
      "numOfAddr": 48, 
      "lonmax": 5.130432691631975, 
      "latmin": 50.77997593139109
    }, 
    {
      "latmax": 50.77572651094206, 
      "name": "Marie Popelinstraat", 
      "lonmin": 5.133657069513341, 
      "sanName": "mariepopelinstraat", 
      "numOfAddr": 11, 
      "lonmax": 5.135031014645242, 
      "latmin": 50.77461186029814
    }, 
    {
      "latmax": 50.791634494455764, 
      "name": "Meersenstraat", 
      "lonmin": 5.13397988416296, 
      "sanName": "meersenstraat", 
      "numOfAddr": 18, 
      "lonmax": 5.138807515818043, 
      "latmin": 50.78679983280239
    }, 
    {
      "latmax": 50.77121827714448, 
      "name": "Naamsesteenweg", 
      "lonmin": 5.143693993592479, 
      "sanName": "naamsesteenweg", 
      "numOfAddr": 6, 
      "lonmax": 5.1479394617078755, 
      "latmin": 50.765654047639465
    }, 
    {
      "latmax": 50.78238305908617, 
      "name": "Nieuwstraat", 
      "lonmin": 5.1269255816827854, 
      "sanName": "nieuwstraat", 
      "numOfAddr": 11, 
      "lonmax": 5.1280381731974085, 
      "latmin": 50.78194478242991
    }, 
    {
      "latmax": 50.78923498380221, 
      "name": "Nijssemstraat", 
      "lonmin": 5.141781042652373, 
      "sanName": "nijssemstraat", 
      "numOfAddr": 6, 
      "lonmax": 5.14287374491731, 
      "latmin": 50.78885954521141
    }, 
    {
      "latmax": 50.778248754512404, 
      "name": "Oudekerkstraat", 
      "lonmin": 5.1319811491482135, 
      "sanName": "oudekerkstraat", 
      "numOfAddr": 27, 
      "lonmax": 5.134280201336479, 
      "latmin": 50.776303745492086
    }, 
    {
      "latmax": 50.78379571601795, 
      "name": "Oudestationsstraat", 
      "lonmin": 5.125155353749276, 
      "sanName": "oudestationsstraat", 
      "numOfAddr": 21, 
      "lonmax": 5.127346159779179, 
      "latmin": 50.78133861397031
    }, 
    {
      "latmax": 50.774472679778825, 
      "name": "Pomphuisstraat", 
      "lonmin": 5.130321393801104, 
      "sanName": "pomphuisstraat", 
      "numOfAddr": 19, 
      "lonmax": 5.133539118380084, 
      "latmin": 50.773058527916305
    }, 
    {
      "latmax": 50.79208738841318, 
      "name": "Romeinseweg-Velm", 
      "lonmin": 5.136583655938791, 
      "sanName": "romeinsewegvelm", 
      "numOfAddr": 21, 
      "lonmax": 5.1421023760560445, 
      "latmin": 50.791524919274366
    }, 
    {
      "latmax": 50.776475476418454, 
      "name": "R. Schrijversstraat", 
      "lonmin": 5.130411970683502, 
      "sanName": "rschrijversstraat", 
      "numOfAddr": 28, 
      "lonmax": 5.135321794054324, 
      "latmin": 50.775526810645
    }, 
    {
      "latmax": 50.78800617149742, 
      "name": "Schoorbroekstraat", 
      "lonmin": 5.127072691383415, 
      "sanName": "schoorbroekstraat", 
      "numOfAddr": 72, 
      "lonmax": 5.135995745379574, 
      "latmin": 50.78433806203674
    }, 
    {
      "latmax": 50.77953234383753, 
      "name": "Sint-Martinusstraat", 
      "lonmin": 5.131782168409147, 
      "sanName": "sintmartinusstraat", 
      "numOfAddr": 24, 
      "lonmax": 5.135938734999697, 
      "latmin": 50.778174303866514
    }, 
    {
      "latmax": 50.77609574811139, 
      "name": "Steenbergstraat", 
      "lonmin": 5.131087467419508, 
      "sanName": "steenbergstraat", 
      "numOfAddr": 26, 
      "lonmax": 5.132786228365617, 
      "latmin": 50.77435257091006
    }, 
    {
      "latmax": 50.78573005033121, 
      "name": "Uilstraat", 
      "lonmin": 5.134945065274375, 
      "sanName": "uilstraat", 
      "numOfAddr": 21, 
      "lonmax": 5.136812574853956, 
      "latmin": 50.78352416340891
    }, 
    {
      "latmax": 50.79646224833452, 
      "name": "Velmerlaan", 
      "lonmin": 2.306689562140502, 
      "sanName": "velmerlaan", 
      "numOfAddr": 166, 
      "lonmax": 5.146101848911208, 
      "latmin": 49.293335165093566
    }, 
    {
      "latmax": 50.775666829773364, 
      "name": "Waalhovenstraat", 
      "lonmin": 5.124443639112135, 
      "sanName": "waalhovenstraat", 
      "numOfAddr": 17, 
      "lonmax": 5.128305370721836, 
      "latmin": 50.775092910001064
    }, 
    {
      "latmax": 50.77490818716109, 
      "name": "Waterstraat", 
      "lonmin": 5.12928157575994, 
      "sanName": "waterstraat", 
      "numOfAddr": 9, 
      "lonmax": 5.1301918643107625, 
      "latmin": 50.77444616207872
    }
  ]
}