{
  "streets": [
    {
      "latmax": 51.22564072473054, 
      "name": "Acaciastraat", 
      "lonmin": 5.409541829337685, 
      "sanName": "acaciastraat", 
      "numOfAddr": 13, 
      "lonmax": 5.411410808853276, 
      "latmin": 51.22469915254073
    }, 
    {
      "latmax": 51.20627940571834, 
      "name": "Akkerstraat", 
      "lonmin": 5.42931203162362, 
      "sanName": "akkerstraat", 
      "numOfAddr": 9, 
      "lonmax": 5.43099470142119, 
      "latmin": 51.20551617889529
    }, 
    {
      "latmax": 51.21553691361455, 
      "name": "A Lapidestraat", 
      "lonmin": 5.427668893075397, 
      "sanName": "alapidestraat", 
      "numOfAddr": 7, 
      "lonmax": 5.429433817542474, 
      "latmin": 51.215167553732215
    }, 
    {
      "latmax": 51.21787533510428, 
      "name": "Astridlaan", 
      "lonmin": 5.365478681542126, 
      "sanName": "astridlaan", 
      "numOfAddr": 143, 
      "lonmax": 5.417795563010854, 
      "latmin": 51.20913219986641
    }, 
    {
      "latmax": 51.19568679529361, 
      "name": "Bakenhofweg", 
      "lonmin": 5.4060935130884245, 
      "sanName": "bakenhofweg", 
      "numOfAddr": 1, 
      "lonmax": 5.4060935130884245, 
      "latmin": 51.19568679529361
    }, 
    {
      "latmax": 51.19575162691761, 
      "name": "Ballaststraat", 
      "lonmin": 5.421091926758359, 
      "sanName": "ballaststraat", 
      "numOfAddr": 28, 
      "lonmax": 5.4287010457955205, 
      "latmin": 51.18131164071717
    }, 
    {
      "latmax": 51.20954632752706, 
      "name": "Beekstraat", 
      "lonmin": 5.400369688707644, 
      "sanName": "beekstraat", 
      "numOfAddr": 21, 
      "lonmax": 5.403358977087227, 
      "latmin": 51.20855708976926
    }, 
    {
      "latmax": 51.21527217157677, 
      "name": "Begijnenbroek", 
      "lonmin": 5.430639134192079, 
      "sanName": "begijnenbroek", 
      "numOfAddr": 18, 
      "lonmax": 5.433269068891866, 
      "latmin": 51.21434412994112
    }, 
    {
      "latmax": 51.213831738720174, 
      "name": "Bemvaartstraat", 
      "lonmin": 5.424208577746015, 
      "sanName": "bemvaartstraat", 
      "numOfAddr": 91, 
      "lonmax": 5.439130001420419, 
      "latmin": 51.21213741086146
    }, 
    {
      "latmax": 51.22772889134271, 
      "name": "Bergeykseweg", 
      "lonmin": 5.413598997376027, 
      "sanName": "bergeykseweg", 
      "numOfAddr": 14, 
      "lonmax": 5.420895423646876, 
      "latmin": 51.224430803928385
    }, 
    {
      "latmax": 51.23263846700039, 
      "name": "Berkenlaan", 
      "lonmin": 5.393107425599995, 
      "sanName": "berkenlaan", 
      "numOfAddr": 42, 
      "lonmax": 5.402935150654086, 
      "latmin": 51.231798011990485
    }, 
    {
      "latmax": 51.18644510085706, 
      "name": "Beugelstraat", 
      "lonmin": 5.405304880357194, 
      "sanName": "beugelstraat", 
      "numOfAddr": 1, 
      "lonmax": 5.405304880357194, 
      "latmin": 51.18644510085706
    }, 
    {
      "latmax": 51.1985416096198, 
      "name": "Beukenlaan", 
      "lonmin": 5.404559784980523, 
      "sanName": "beukenlaan", 
      "numOfAddr": 24, 
      "lonmax": 5.407936488978616, 
      "latmin": 51.19721073340467
    }, 
    {
      "latmax": 51.21173285093524, 
      "name": "Biezenstraat", 
      "lonmin": 5.38279458083414, 
      "sanName": "biezenstraat", 
      "numOfAddr": 13, 
      "lonmax": 5.383922428369616, 
      "latmin": 51.21094023478398
    }, 
    {
      "latmax": 51.189224544550584, 
      "name": "Bikkelstraat", 
      "lonmin": 5.40590067038191, 
      "sanName": "bikkelstraat", 
      "numOfAddr": 11, 
      "lonmax": 5.407379378379479, 
      "latmin": 51.18855928245369
    }, 
    {
      "latmax": 51.2109037417273, 
      "name": "Binnenweg", 
      "lonmin": 5.41845770632716, 
      "sanName": "binnenweg", 
      "numOfAddr": 1, 
      "lonmax": 5.41845770632716, 
      "latmin": 51.2109037417273
    }, 
    {
      "latmax": 51.195973971390906, 
      "name": "Blaasstraat", 
      "lonmin": 5.407273396433998, 
      "sanName": "blaasstraat", 
      "numOfAddr": 19, 
      "lonmax": 5.410760705172903, 
      "latmin": 51.19467429732722
    }, 
    {
      "latmax": 51.21282133326214, 
      "name": "Bleekveldstraat", 
      "lonmin": 5.433123577292613, 
      "sanName": "bleekveldstraat", 
      "numOfAddr": 8, 
      "lonmax": 5.434695189435911, 
      "latmin": 51.2077263766963
    }, 
    {
      "latmax": 51.21873420689216, 
      "name": "Boekweitstraat", 
      "lonmin": 5.4234473508183525, 
      "sanName": "boekweitstraat", 
      "numOfAddr": 1, 
      "lonmax": 5.4234473508183525, 
      "latmin": 51.21873420689216
    }, 
    {
      "latmax": 51.20839324001839, 
      "name": "Boelenstraat", 
      "lonmin": 5.419484267038301, 
      "sanName": "boelenstraat", 
      "numOfAddr": 16, 
      "lonmax": 5.420505375537106, 
      "latmin": 51.20619939823611
    }, 
    {
      "latmax": 51.1923747793158, 
      "name": "Boemerangstraat", 
      "lonmin": 5.388167785387516, 
      "sanName": "boemerangstraat", 
      "numOfAddr": 14, 
      "lonmax": 5.390612409254869, 
      "latmin": 51.19027916023162
    }, 
    {
      "latmax": 51.191026881863934, 
      "name": "Boerenkrijgstraat", 
      "lonmin": 5.392315006991912, 
      "sanName": "boerenkrijgstraat", 
      "numOfAddr": 16, 
      "lonmax": 5.39724380206517, 
      "latmin": 51.19032362886468
    }, 
    {
      "latmax": 51.194859366959605, 
      "name": "Bokkerijdersweg", 
      "lonmin": 5.391851507213257, 
      "sanName": "bokkerijdersweg", 
      "numOfAddr": 11, 
      "lonmax": 5.392647577858464, 
      "latmin": 51.19247733226707
    }, 
    {
      "latmax": 51.20503019191695, 
      "name": "Bolakkerstraat", 
      "lonmin": 5.407311841293985, 
      "sanName": "bolakkerstraat", 
      "numOfAddr": 49, 
      "lonmax": 5.413695245371387, 
      "latmin": 51.20353724867278
    }, 
    {
      "latmax": 51.1935445055714, 
      "name": "Bosstraat", 
      "lonmin": 5.369886979048971, 
      "sanName": "bosstraat", 
      "numOfAddr": 2, 
      "lonmax": 5.369900377422327, 
      "latmin": 51.19332235628191
    }, 
    {
      "latmax": 51.210694105142245, 
      "name": "Bremstraat", 
      "lonmin": 5.381527277706397, 
      "sanName": "bremstraat", 
      "numOfAddr": 19, 
      "lonmax": 5.385647561493906, 
      "latmin": 51.20887832600916
    }, 
    {
      "latmax": 51.20682166869266, 
      "name": "Breugelweg", 
      "lonmin": 5.427494376470844, 
      "sanName": "breugelweg", 
      "numOfAddr": 96, 
      "lonmax": 5.436490711337275, 
      "latmin": 51.18135702319951
    }, 
    {
      "latmax": 51.22266941437741, 
      "name": "Broekstraat", 
      "lonmin": 5.432346626035476, 
      "sanName": "broekstraat", 
      "numOfAddr": 2, 
      "lonmax": 5.432600840536645, 
      "latmin": 51.222649506789864
    }, 
    {
      "latmax": 51.21217993306974, 
      "name": "Buntgrasstraat", 
      "lonmin": 5.38062468848255, 
      "sanName": "buntgrasstraat", 
      "numOfAddr": 20, 
      "lonmax": 5.3838949765293735, 
      "latmin": 51.21128981724954
    }, 
    {
      "latmax": 51.212660334143024, 
      "name": "Burgemeester Laenenstraat", 
      "lonmin": 5.420197417153168, 
      "sanName": "burgemeesterlaenenstraat", 
      "numOfAddr": 3, 
      "lonmax": 5.420696548022444, 
      "latmin": 51.21239690829807
    }, 
    {
      "latmax": 51.21380440144199, 
      "name": "Burgemeester Missottenstraat", 
      "lonmin": 5.420996062242026, 
      "sanName": "burgemeestermissottenstraat", 
      "numOfAddr": 4, 
      "lonmax": 5.4220061635783745, 
      "latmin": 51.212458604318776
    }, 
    {
      "latmax": 51.21244989604148, 
      "name": "Burgemeester Valentijnsstraat", 
      "lonmin": 5.4210250623511635, 
      "sanName": "burgemeestervalentijnsstraat", 
      "numOfAddr": 1, 
      "lonmax": 5.4210250623511635, 
      "latmin": 51.21244989604148
    }, 
    {
      "latmax": 51.21223024426478, 
      "name": "Burgemeester Van Gaalstraat", 
      "lonmin": 5.421439576109777, 
      "sanName": "burgemeestervangaalstraat", 
      "numOfAddr": 7, 
      "lonmax": 5.421816711861375, 
      "latmin": 51.21131094158253
    }, 
    {
      "latmax": 51.21428972884768, 
      "name": "Burgemeester Van Lindtstraat", 
      "lonmin": 5.419778690690245, 
      "sanName": "burgemeestervanlindtstraat", 
      "numOfAddr": 18, 
      "lonmax": 5.421752613800964, 
      "latmin": 51.210980688005456
    }, 
    {
      "latmax": 51.2063470201173, 
      "name": "Dahliastraat", 
      "lonmin": 5.369058734427888, 
      "sanName": "dahliastraat", 
      "numOfAddr": 8, 
      "lonmax": 5.370598863585374, 
      "latmin": 51.205683452427756
    }, 
    {
      "latmax": 51.201457951130116, 
      "name": "Dalakkerstraat", 
      "lonmin": 5.4296822730842464, 
      "sanName": "dalakkerstraat", 
      "numOfAddr": 4, 
      "lonmax": 5.430774373169639, 
      "latmin": 51.20122461598982
    }, 
    {
      "latmax": 51.21257212221397, 
      "name": "De Heuf", 
      "lonmin": 5.421818426931676, 
      "sanName": "deheuf", 
      "numOfAddr": 12, 
      "lonmax": 5.4227187572202835, 
      "latmin": 51.21203845792741
    }, 
    {
      "latmax": 51.227744971811575, 
      "name": "Dennenstraat", 
      "lonmin": 5.407178865399218, 
      "sanName": "dennenstraat", 
      "numOfAddr": 7, 
      "lonmax": 5.408358942512434, 
      "latmin": 51.22709487485765
    }, 
    {
      "latmax": 51.225058465009624, 
      "name": "Dommelweg", 
      "lonmin": 5.424759604136665, 
      "sanName": "dommelweg", 
      "numOfAddr": 12, 
      "lonmax": 5.427086970790811, 
      "latmin": 51.22294886320874
    }, 
    {
      "latmax": 51.21646520420838, 
      "name": "Donkerstraat", 
      "lonmin": 5.433332093721761, 
      "sanName": "donkerstraat", 
      "numOfAddr": 23, 
      "lonmax": 5.435457469950099, 
      "latmin": 51.21389235392182
    }, 
    {
      "latmax": 51.19825933748439, 
      "name": "Doornstraat", 
      "lonmin": 5.402714185775286, 
      "sanName": "doornstraat", 
      "numOfAddr": 2, 
      "lonmax": 5.402848273968069, 
      "latmin": 51.198041160804095
    }, 
    {
      "latmax": 51.22445704830514, 
      "name": "Dorperheidestraat", 
      "lonmin": 5.402935935784819, 
      "sanName": "dorperheidestraat", 
      "numOfAddr": 39, 
      "lonmax": 5.409122165290607, 
      "latmin": 51.22243698202771
    }, 
    {
      "latmax": 51.21557041842647, 
      "name": "Dorpsstraat", 
      "lonmin": 5.418078851057498, 
      "sanName": "dorpsstraat", 
      "numOfAddr": 108, 
      "lonmax": 5.426090676407014, 
      "latmin": 51.20906332645454
    }, 
    {
      "latmax": 51.21055315554826, 
      "name": "Driehoekstraat", 
      "lonmin": 5.411938854037156, 
      "sanName": "driehoekstraat", 
      "numOfAddr": 8, 
      "lonmax": 5.413531877799087, 
      "latmin": 51.21023403484734
    }, 
    {
      "latmax": 51.222419356706084, 
      "name": "Driesstraat", 
      "lonmin": 5.416464548873763, 
      "sanName": "driesstraat", 
      "numOfAddr": 10, 
      "lonmax": 5.417565096962814, 
      "latmin": 51.22149876799662
    }, 
    {
      "latmax": 51.19107551439612, 
      "name": "Drossaard Clercxstraat", 
      "lonmin": 5.393914711252345, 
      "sanName": "drossaardclercxstraat", 
      "numOfAddr": 26, 
      "lonmax": 5.4016597535303, 
      "latmin": 51.187718131758864
    }, 
    {
      "latmax": 51.227924398436556, 
      "name": "Duinenstraat", 
      "lonmin": 5.410117428808315, 
      "sanName": "duinenstraat", 
      "numOfAddr": 14, 
      "lonmax": 5.412439966518569, 
      "latmin": 51.225781829645754
    }, 
    {
      "latmax": 51.231075672654896, 
      "name": "Eikelweg", 
      "lonmin": 5.4023013134127496, 
      "sanName": "eikelweg", 
      "numOfAddr": 2, 
      "lonmax": 5.4023156146087725, 
      "latmin": 51.23058597501536
    }, 
    {
      "latmax": 51.22495033780743, 
      "name": "Eindestraat", 
      "lonmin": 5.420129835541661, 
      "sanName": "eindestraat", 
      "numOfAddr": 3, 
      "lonmax": 5.420417350474829, 
      "latmin": 51.22458798131055
    }, 
    {
      "latmax": 51.19400846274448, 
      "name": "Engstraat", 
      "lonmin": 5.3980155499201725, 
      "sanName": "engstraat", 
      "numOfAddr": 5, 
      "lonmax": 5.398427372492901, 
      "latmin": 51.19231582491556
    }, 
    {
      "latmax": 51.20803470013433, 
      "name": "Esstraat", 
      "lonmin": 5.3732299580187695, 
      "sanName": "esstraat", 
      "numOfAddr": 12, 
      "lonmax": 5.379584275442132, 
      "latmin": 51.20536596888295
    }, 
    {
      "latmax": 51.22211346703168, 
      "name": "Europalaan", 
      "lonmin": 5.37575345795581, 
      "sanName": "europalaan", 
      "numOfAddr": 3, 
      "lonmax": 5.400075911179912, 
      "latmin": 51.216120432579515
    }, 
    {
      "latmax": 51.235728678970894, 
      "name": "Fabrieksstraat", 
      "lonmin": 5.387365065976939, 
      "sanName": "fabrieksstraat", 
      "numOfAddr": 75, 
      "lonmax": 5.414879109617049, 
      "latmin": 51.22322428669618
    }, 
    {
      "latmax": 51.21264324130325, 
      "name": "Gagelweg", 
      "lonmin": 5.380743942587443, 
      "sanName": "gagelweg", 
      "numOfAddr": 40, 
      "lonmax": 5.387508313641977, 
      "latmin": 51.20977012252444
    }, 
    {
      "latmax": 51.221282508507876, 
      "name": "Gaston Eyskenslaan", 
      "lonmin": 5.381290992072517, 
      "sanName": "gastoneyskenslaan", 
      "numOfAddr": 2, 
      "lonmax": 5.3826469111262645, 
      "latmin": 51.21913384573727
    }, 
    {
      "latmax": 51.19693818084226, 
      "name": "Gortenstraat", 
      "lonmin": 5.364348021047006, 
      "sanName": "gortenstraat", 
      "numOfAddr": 48, 
      "lonmax": 5.402651833508422, 
      "latmin": 51.19199182429802
    }, 
    {
      "latmax": 51.20803348634327, 
      "name": "Grachtstraat", 
      "lonmin": 5.4077100191271015, 
      "sanName": "grachtstraat", 
      "numOfAddr": 8, 
      "lonmax": 5.410136458045418, 
      "latmin": 51.20687350196414
    }, 
    {
      "latmax": 51.20762769887847, 
      "name": "Grasstraat", 
      "lonmin": 5.401323804748897, 
      "sanName": "grasstraat", 
      "numOfAddr": 11, 
      "lonmax": 5.403397406006286, 
      "latmin": 51.20680211028608
    }, 
    {
      "latmax": 51.18339658504277, 
      "name": "Groenstraat", 
      "lonmin": 5.3951706904908665, 
      "sanName": "groenstraat", 
      "numOfAddr": 4, 
      "lonmax": 5.398962176695326, 
      "latmin": 51.179292377272105
    }, 
    {
      "latmax": 51.22994748222634, 
      "name": "Haagdoorndijk", 
      "lonmin": 5.420840297788157, 
      "sanName": "haagdoorndijk", 
      "numOfAddr": 1, 
      "lonmax": 5.420840297788157, 
      "latmin": 51.22994748222634
    }, 
    {
      "latmax": 51.19151800290542, 
      "name": "Haasbosstraat", 
      "lonmin": 5.403652268863892, 
      "sanName": "haasbosstraat", 
      "numOfAddr": 15, 
      "lonmax": 5.408176223485882, 
      "latmin": 51.189873065845426
    }, 
    {
      "latmax": 51.23183094331426, 
      "name": "Haltstraat", 
      "lonmin": 5.383788861888469, 
      "sanName": "haltstraat", 
      "numOfAddr": 16, 
      "lonmax": 5.3925567507015515, 
      "latmin": 51.21898566398396
    }, 
    {
      "latmax": 51.22497562313274, 
      "name": "Haspershovenstraat", 
      "lonmin": 5.4294667048013, 
      "sanName": "haspershovenstraat", 
      "numOfAddr": 62, 
      "lonmax": 5.4339660509623675, 
      "latmin": 51.21713996343326
    }, 
    {
      "latmax": 51.20695614062208, 
      "name": "Hasseltstraat", 
      "lonmin": 5.4125358983398835, 
      "sanName": "hasseltstraat", 
      "numOfAddr": 27, 
      "lonmax": 5.4147475347169065, 
      "latmin": 51.20448846081482
    }, 
    {
      "latmax": 51.21243624862675, 
      "name": "Heesakkerstraat", 
      "lonmin": 5.430605720890168, 
      "sanName": "heesakkerstraat", 
      "numOfAddr": 99, 
      "lonmax": 5.436909976284609, 
      "latmin": 51.19530037397795
    }, 
    {
      "latmax": 51.216583744535534, 
      "name": "Heggestraat", 
      "lonmin": 5.411185740176253, 
      "sanName": "heggestraat", 
      "numOfAddr": 25, 
      "lonmax": 5.419605607963563, 
      "latmin": 51.215631632920235
    }, 
    {
      "latmax": 51.20656736058916, 
      "name": "Heidestraat", 
      "lonmin": 5.404907727508648, 
      "sanName": "heidestraat", 
      "numOfAddr": 17, 
      "lonmax": 5.407925557322906, 
      "latmin": 51.20544200386899
    }, 
    {
      "latmax": 51.20368809910691, 
      "name": "Herenterdijk", 
      "lonmin": 5.436833687058159, 
      "sanName": "herenterdijk", 
      "numOfAddr": 2, 
      "lonmax": 5.436955594714033, 
      "latmin": 51.20322013587286
    }, 
    {
      "latmax": 51.18539843092611, 
      "name": "Het Hobos", 
      "lonmin": 5.384134225383614, 
      "sanName": "hethobos", 
      "numOfAddr": 1, 
      "lonmax": 5.384134225383614, 
      "latmin": 51.18539843092611
    }, 
    {
      "latmax": 51.2275188556534, 
      "name": "Heuvelstraat", 
      "lonmin": 5.416538582787075, 
      "sanName": "heuvelstraat", 
      "numOfAddr": 3, 
      "lonmax": 5.417867413046206, 
      "latmin": 51.227088194170165
    }, 
    {
      "latmax": 51.18737242642462, 
      "name": "Hobosstraat", 
      "lonmin": 5.383643128071407, 
      "sanName": "hobosstraat", 
      "numOfAddr": 29, 
      "lonmax": 5.403863449804494, 
      "latmin": 51.18266524610271
    }, 
    {
      "latmax": 51.22883670106577, 
      "name": "Hoekstraat", 
      "lonmin": 5.4150565697653406, 
      "sanName": "hoekstraat", 
      "numOfAddr": 47, 
      "lonmax": 5.428576859283691, 
      "latmin": 51.224945638018475
    }, 
    {
      "latmax": 51.20389189964343, 
      "name": "Hoevenstraat", 
      "lonmin": 5.404067367868995, 
      "sanName": "hoevenstraat", 
      "numOfAddr": 148, 
      "lonmax": 5.415200415237304, 
      "latmin": 51.18053455804168
    }, 
    {
      "latmax": 51.21646411034217, 
      "name": "Hofweg", 
      "lonmin": 5.423024404902054, 
      "sanName": "hofweg", 
      "numOfAddr": 8, 
      "lonmax": 5.425035272089083, 
      "latmin": 51.21589694216642
    }, 
    {
      "latmax": 51.20655883848312, 
      "name": "Hoge Wegel", 
      "lonmin": 5.423530733621887, 
      "sanName": "hogewegel", 
      "numOfAddr": 26, 
      "lonmax": 5.4276265004050765, 
      "latmin": 51.2057016390205
    }, 
    {
      "latmax": 51.211982457899076, 
      "name": "Holvenstraat", 
      "lonmin": 5.36466051681414, 
      "sanName": "holvenstraat", 
      "numOfAddr": 117, 
      "lonmax": 5.391344672721603, 
      "latmin": 51.20062398082883
    }, 
    {
      "latmax": 51.23156821110081, 
      "name": "Hospitaalstraat", 
      "lonmin": 5.397581715118745, 
      "sanName": "hospitaalstraat", 
      "numOfAddr": 16, 
      "lonmax": 5.399147707056842, 
      "latmin": 51.231028644990516
    }, 
    {
      "latmax": 51.23317679146336, 
      "name": "Hotelstraat", 
      "lonmin": 5.3948031463274395, 
      "sanName": "hotelstraat", 
      "numOfAddr": 29, 
      "lonmax": 5.395910338830535, 
      "latmin": 51.23010031153902
    }, 
    {
      "latmax": 51.22328522545934, 
      "name": "Houtmolenstraat", 
      "lonmin": 5.4143747366871535, 
      "sanName": "houtmolenstraat", 
      "numOfAddr": 101, 
      "lonmax": 5.423757700011446, 
      "latmin": 51.21389882216335
    }, 
    {
      "latmax": 51.21976782180059, 
      "name": "Hoverseinde", 
      "lonmin": 5.4239982316098825, 
      "sanName": "hoverseinde", 
      "numOfAddr": 2, 
      "lonmax": 5.424082932727375, 
      "latmin": 51.219627012005
    }, 
    {
      "latmax": 51.206512313497115, 
      "name": "Huisveldstraat", 
      "lonmin": 5.424536316947615, 
      "sanName": "huisveldstraat", 
      "numOfAddr": 7, 
      "lonmax": 5.425094510998476, 
      "latmin": 51.20545054331321
    }, 
    {
      "latmax": 51.19574390958249, 
      "name": "Hunnebergstraat", 
      "lonmin": 5.388420139796947, 
      "sanName": "hunnebergstraat", 
      "numOfAddr": 11, 
      "lonmax": 5.388788493930972, 
      "latmin": 51.19388785913194
    }, 
    {
      "latmax": 51.21766800651798, 
      "name": "Industrielaan", 
      "lonmin": 5.3704996028993595, 
      "sanName": "industrielaan", 
      "numOfAddr": 1, 
      "lonmax": 5.3704996028993595, 
      "latmin": 51.21766800651798
    }, 
    {
      "latmax": 51.213761542398764, 
      "name": "Jeneverbeslaan", 
      "lonmin": 5.380133757272404, 
      "sanName": "jeneverbeslaan", 
      "numOfAddr": 33, 
      "lonmax": 5.3817768745163965, 
      "latmin": 51.20999798018829
    }, 
    {
      "latmax": 51.21328046917228, 
      "name": "Jeugdlaan", 
      "lonmin": 5.426575910380399, 
      "sanName": "jeugdlaan", 
      "numOfAddr": 18, 
      "lonmax": 5.431390682509668, 
      "latmin": 51.21139085147299
    }, 
    {
      "latmax": 51.21622970072906, 
      "name": "Juffrouwkensveld", 
      "lonmin": 5.431841891434274, 
      "sanName": "juffrouwkensveld", 
      "numOfAddr": 10, 
      "lonmax": 5.434246448691512, 
      "latmin": 51.2153171915505
    }, 
    {
      "latmax": 51.20989116463465, 
      "name": "Juliaan De Vriendtstraat", 
      "lonmin": 5.424175034326613, 
      "sanName": "juliaandevriendtstraat", 
      "numOfAddr": 20, 
      "lonmax": 5.42552148416273, 
      "latmin": 51.20834205876591
    }, 
    {
      "latmax": 51.21476027623898, 
      "name": "Kadijk", 
      "lonmin": 5.407848899200552, 
      "sanName": "kadijk", 
      "numOfAddr": 23, 
      "lonmax": 5.4142373791869565, 
      "latmin": 51.210324591912226
    }, 
    {
      "latmax": 51.20848077302935, 
      "name": "Kaemerveldstraat", 
      "lonmin": 5.434206940107655, 
      "sanName": "kaemerveldstraat", 
      "numOfAddr": 16, 
      "lonmax": 5.435163668463758, 
      "latmin": 51.20698325773384
    }, 
    {
      "latmax": 51.23314819596092, 
      "name": "Kanaalstraat", 
      "lonmin": 5.396428850902219, 
      "sanName": "kanaalstraat", 
      "numOfAddr": 30, 
      "lonmax": 5.397427005300616, 
      "latmin": 51.230082373783254
    }, 
    {
      "latmax": 51.19606785974823, 
      "name": "Kapelstraat", 
      "lonmin": 5.403788379788579, 
      "sanName": "kapelstraat", 
      "numOfAddr": 48, 
      "lonmax": 5.420941881210945, 
      "latmin": 51.18694636272985
    }, 
    {
      "latmax": 51.199807387316696, 
      "name": "Kastanjelaan", 
      "lonmin": 5.404311278160184, 
      "sanName": "kastanjelaan", 
      "numOfAddr": 22, 
      "lonmax": 5.408212057704771, 
      "latmin": 51.19846980114983
    }, 
    {
      "latmax": 51.2046406022111, 
      "name": "Kattestraat", 
      "lonmin": 5.425204068754379, 
      "sanName": "kattestraat", 
      "numOfAddr": 23, 
      "lonmax": 5.428252153485478, 
      "latmin": 51.20316466031183
    }, 
    {
      "latmax": 51.189668217646265, 
      "name": "Kegelstraat", 
      "lonmin": 5.4044770415865, 
      "sanName": "kegelstraat", 
      "numOfAddr": 44, 
      "lonmax": 5.40626688721184, 
      "latmin": 51.18496300242634
    }, 
    {
      "latmax": 51.21081525063337, 
      "name": "Kerkdijk", 
      "lonmin": 5.425699233368845, 
      "sanName": "kerkdijk", 
      "numOfAddr": 21, 
      "lonmax": 5.43059304010734, 
      "latmin": 51.20807140353553
    }, 
    {
      "latmax": 51.232953988404674, 
      "name": "Kerkstraat", 
      "lonmin": 5.397685416471126, 
      "sanName": "kerkstraat", 
      "numOfAddr": 7, 
      "lonmax": 5.3990510715787465, 
      "latmin": 51.23244411058116
    }, 
    {
      "latmax": 51.209405220828494, 
      "name": "Klaverstraat", 
      "lonmin": 5.380539916693042, 
      "sanName": "klaverstraat", 
      "numOfAddr": 11, 
      "lonmax": 5.3878963167650875, 
      "latmin": 51.20564356234979
    }, 
    {
      "latmax": 51.19265897366914, 
      "name": "Kleine Boemerangstraat", 
      "lonmin": 5.385947551334377, 
      "sanName": "kleineboemerangstraat", 
      "numOfAddr": 5, 
      "lonmax": 5.387618861315839, 
      "latmin": 51.190077210043235
    }, 
    {
      "latmax": 51.19303595545683, 
      "name": "Kleine Gortenstraat", 
      "lonmin": 5.385827604014556, 
      "sanName": "kleinegortenstraat", 
      "numOfAddr": 27, 
      "lonmax": 5.388025579557694, 
      "latmin": 51.19226256701131
    }, 
    {
      "latmax": 51.18743513072167, 
      "name": "Klein-Hobosstraat", 
      "lonmin": 5.392739233833926, 
      "sanName": "kleinhobosstraat", 
      "numOfAddr": 11, 
      "lonmax": 5.395175536084483, 
      "latmin": 51.1851304474634
    }, 
    {
      "latmax": 51.18270709337588, 
      "name": "Kleinmolenstraat", 
      "lonmin": 5.40426172252983, 
      "sanName": "kleinmolenstraat", 
      "numOfAddr": 59, 
      "lonmax": 5.43655309600171, 
      "latmin": 51.17201733685928
    }, 
    {
      "latmax": 51.22663620023194, 
      "name": "Klein Siberi\u0089straat", 
      "lonmin": 5.3742066779091235, 
      "sanName": "kleinsiberistraat", 
      "numOfAddr": 7, 
      "lonmax": 5.37643788057561, 
      "latmin": 51.22478554388967
    }, 
    {
      "latmax": 51.21147634754414, 
      "name": "Kloosterstraat", 
      "lonmin": 2.306689562140502, 
      "sanName": "kloosterstraat", 
      "numOfAddr": 33, 
      "lonmax": 5.428565392102584, 
      "latmin": 49.293335165093566
    }, 
    {
      "latmax": 51.18993681720542, 
      "name": "Knikkerstraat", 
      "lonmin": 5.4057108457396295, 
      "sanName": "knikkerstraat", 
      "numOfAddr": 14, 
      "lonmax": 5.407020833904954, 
      "latmin": 51.189121539281594
    }, 
    {
      "latmax": 51.206975801706314, 
      "name": "Koksakker", 
      "lonmin": 5.434714505536012, 
      "sanName": "koksakker", 
      "numOfAddr": 3, 
      "lonmax": 5.435093861655045, 
      "latmin": 51.206943881321074
    }, 
    {
      "latmax": 51.22593931117085, 
      "name": "Koning Albertlaan", 
      "lonmin": 5.429602110459796, 
      "sanName": "koningalbertlaan", 
      "numOfAddr": 2, 
      "lonmax": 5.429883236152363, 
      "latmin": 51.22532129049843
    }, 
    {
      "latmax": 51.20435042951102, 
      "name": "Koningsstraat", 
      "lonmin": 5.404363900758734, 
      "sanName": "koningsstraat", 
      "numOfAddr": 59, 
      "lonmax": 5.414469155306611, 
      "latmin": 51.200491905527024
    }, 
    {
      "latmax": 51.179968524108645, 
      "name": "Kooiveldstraat", 
      "lonmin": 5.418549255287728, 
      "sanName": "kooiveldstraat", 
      "numOfAddr": 4, 
      "lonmax": 5.419952486745648, 
      "latmin": 51.179413688521834
    }, 
    {
      "latmax": 51.19710578966009, 
      "name": "Korenbloemstraat", 
      "lonmin": 5.411782399149527, 
      "sanName": "korenbloemstraat", 
      "numOfAddr": 8, 
      "lonmax": 5.413464383961593, 
      "latmin": 51.19585368759364
    }, 
    {
      "latmax": 51.22482315692249, 
      "name": "Korte Hoekstraat", 
      "lonmin": 5.426549851647526, 
      "sanName": "kortehoekstraat", 
      "numOfAddr": 6, 
      "lonmax": 5.428043887953661, 
      "latmin": 51.22433301389004
    }, 
    {
      "latmax": 51.18085075474713, 
      "name": "Kortestraat", 
      "lonmin": 5.404109392530212, 
      "sanName": "kortestraat", 
      "numOfAddr": 8, 
      "lonmax": 5.404942098247, 
      "latmin": 51.17869747455799
    }, 
    {
      "latmax": 51.19313970531391, 
      "name": "Korte Vrenenstraat", 
      "lonmin": 5.389428988555876, 
      "sanName": "kortevrenenstraat", 
      "numOfAddr": 4, 
      "lonmax": 5.390504183149106, 
      "latmin": 51.19280436335584
    }, 
    {
      "latmax": 51.18032522976289, 
      "name": "Kraaibosstraat", 
      "lonmin": 5.403960888871965, 
      "sanName": "kraaibosstraat", 
      "numOfAddr": 37, 
      "lonmax": 5.411477429997617, 
      "latmin": 51.17868134278211
    }, 
    {
      "latmax": 51.19268682675354, 
      "name": "Kraanstraat", 
      "lonmin": 5.404090771164783, 
      "sanName": "kraanstraat", 
      "numOfAddr": 17, 
      "lonmax": 5.408734751994974, 
      "latmin": 51.19078818209047
    }, 
    {
      "latmax": 51.225980992560295, 
      "name": "Kremersstraat", 
      "lonmin": 5.422333892550282, 
      "sanName": "kremersstraat", 
      "numOfAddr": 21, 
      "lonmax": 5.42543000390346, 
      "latmin": 51.22406615489672
    }, 
    {
      "latmax": 51.18940470319601, 
      "name": "Kroonstraat", 
      "lonmin": 5.398747888219801, 
      "sanName": "kroonstraat", 
      "numOfAddr": 5, 
      "lonmax": 5.398882511290442, 
      "latmin": 51.18876429518698
    }, 
    {
      "latmax": 51.207449524056045, 
      "name": "Kruisstraat", 
      "lonmin": 5.414784743983206, 
      "sanName": "kruisstraat", 
      "numOfAddr": 16, 
      "lonmax": 5.415988255250057, 
      "latmin": 51.20578417974158
    }, 
    {
      "latmax": 51.188879610344706, 
      "name": "Laagstraat", 
      "lonmin": 5.396724169072429, 
      "sanName": "laagstraat", 
      "numOfAddr": 10, 
      "lonmax": 5.398930092857554, 
      "latmin": 51.18828528566329
    }, 
    {
      "latmax": 51.188329497585485, 
      "name": "Langstraat", 
      "lonmin": 5.405036479681945, 
      "sanName": "langstraat", 
      "numOfAddr": 38, 
      "lonmax": 5.420476427540656, 
      "latmin": 51.18411208983209
    }, 
    {
      "latmax": 51.22315665233326, 
      "name": "Leenzaalstraat", 
      "lonmin": 5.428576697100406, 
      "sanName": "leenzaalstraat", 
      "numOfAddr": 3, 
      "lonmax": 5.430035211839348, 
      "latmin": 51.222631734010804
    }, 
    {
      "latmax": 51.205607854486566, 
      "name": "Leliestraat", 
      "lonmin": 5.368670995623022, 
      "sanName": "leliestraat", 
      "numOfAddr": 6, 
      "lonmax": 5.369384727571645, 
      "latmin": 51.204712390111744
    }, 
    {
      "latmax": 51.22369598213948, 
      "name": "Leon Bekaertlaan", 
      "lonmin": 5.369506403433038, 
      "sanName": "leonbekaertlaan", 
      "numOfAddr": 6, 
      "lonmax": 5.374703479789682, 
      "latmin": 51.2182421150253
    }, 
    {
      "latmax": 51.22824700836066, 
      "name": "Leopoldlaan", 
      "lonmin": 5.425384449637787, 
      "sanName": "leopoldlaan", 
      "numOfAddr": 111, 
      "lonmax": 5.429840566063337, 
      "latmin": 51.21580353373544
    }, 
    {
      "latmax": 51.23051264962058, 
      "name": "Leukenstraat", 
      "lonmin": 5.396677188627229, 
      "sanName": "leukenstraat", 
      "numOfAddr": 23, 
      "lonmax": 5.40399390763134, 
      "latmin": 51.229164302624625
    }, 
    {
      "latmax": 51.222578195019146, 
      "name": "Lieven Bauwenslaan", 
      "lonmin": 5.395925560355824, 
      "sanName": "lievenbauwenslaan", 
      "numOfAddr": 5, 
      "lonmax": 5.398870961406868, 
      "latmin": 51.220879979678195
    }, 
    {
      "latmax": 51.22170202577673, 
      "name": "Lieven Gevaertlaan", 
      "lonmin": 5.377480934145647, 
      "sanName": "lievengevaertlaan", 
      "numOfAddr": 1, 
      "lonmax": 5.377480934145647, 
      "latmin": 51.22170202577673
    }, 
    {
      "latmax": 51.222670273606255, 
      "name": "Lijsterbesstraat", 
      "lonmin": 5.405253934013869, 
      "sanName": "lijsterbesstraat", 
      "numOfAddr": 6, 
      "lonmax": 5.406018183233074, 
      "latmin": 51.222054942964085
    }, 
    {
      "latmax": 51.1998866089427, 
      "name": "Lindelheidestraat", 
      "lonmin": 5.388690473036181, 
      "sanName": "lindelheidestraat", 
      "numOfAddr": 17, 
      "lonmax": 5.390315300136031, 
      "latmin": 51.19359591276492
    }, 
    {
      "latmax": 51.20908109774319, 
      "name": "Lindelsebaan", 
      "lonmin": 5.396252982563482, 
      "sanName": "lindelsebaan", 
      "numOfAddr": 250, 
      "lonmax": 5.418418568315978, 
      "latmin": 51.16527120990221
    }, 
    {
      "latmax": 51.22421828767344, 
      "name": "Lodewijk De Raetlaan", 
      "lonmin": 5.372847386409075, 
      "sanName": "lodewijkderaetlaan", 
      "numOfAddr": 7, 
      "lonmax": 5.377900569059023, 
      "latmin": 51.223079814524
    }, 
    {
      "latmax": 51.21254837976908, 
      "name": "Lod Lavkistraat", 
      "lonmin": 5.424666295643994, 
      "sanName": "lodlavkistraat", 
      "numOfAddr": 2, 
      "lonmax": 5.425265858024205, 
      "latmin": 51.212486386376185
    }, 
    {
      "latmax": 51.20939623637424, 
      "name": "Loksvaartdijk", 
      "lonmin": 5.399022675546378, 
      "sanName": "loksvaartdijk", 
      "numOfAddr": 38, 
      "lonmax": 5.407454388072329, 
      "latmin": 51.20619304722494
    }, 
    {
      "latmax": 51.203829774008675, 
      "name": "Lookstraat", 
      "lonmin": 5.40619860534836, 
      "sanName": "lookstraat", 
      "numOfAddr": 23, 
      "lonmax": 5.408191463498989, 
      "latmin": 51.201440161125404
    }, 
    {
      "latmax": 51.2296368185407, 
      "name": "Lorkstraat", 
      "lonmin": 5.406970432082271, 
      "sanName": "lorkstraat", 
      "numOfAddr": 9, 
      "lonmax": 5.409063240789739, 
      "latmin": 51.22742463672492
    }, 
    {
      "latmax": 51.21299777114695, 
      "name": "Maesensveld", 
      "lonmin": 5.414640415108174, 
      "sanName": "maesensveld", 
      "numOfAddr": 2, 
      "lonmax": 5.415688641067356, 
      "latmin": 51.21278730534287
    }, 
    {
      "latmax": 51.216057884478666, 
      "name": "Magdaleentjeshof", 
      "lonmin": 5.432356331761122, 
      "sanName": "magdaleentjeshof", 
      "numOfAddr": 14, 
      "lonmax": 5.434669063395506, 
      "latmin": 51.21491383119021
    }, 
    {
      "latmax": 51.21164543545663, 
      "name": "Masensstraat", 
      "lonmin": 5.413145362018513, 
      "sanName": "masensstraat", 
      "numOfAddr": 13, 
      "lonmax": 5.417311051638319, 
      "latmin": 51.21118971779272
    }, 
    {
      "latmax": 51.197089703894754, 
      "name": "Meerstraat", 
      "lonmin": 5.40420653736263, 
      "sanName": "meerstraat", 
      "numOfAddr": 25, 
      "lonmax": 5.407811591349056, 
      "latmin": 51.19627386605489
    }, 
    {
      "latmax": 51.1964144881588, 
      "name": "Meerveldstraat", 
      "lonmin": 5.40247425619765, 
      "sanName": "meerveldstraat", 
      "numOfAddr": 1, 
      "lonmax": 5.40247425619765, 
      "latmin": 51.1964144881588
    }, 
    {
      "latmax": 51.20505524294586, 
      "name": "Meistraat", 
      "lonmin": 5.408828139960183, 
      "sanName": "meistraat", 
      "numOfAddr": 7, 
      "lonmax": 5.409699881038097, 
      "latmin": 51.204632356776486
    }, 
    {
      "latmax": 51.18696891403582, 
      "name": "Melkerijstraat", 
      "lonmin": 5.401762986738939, 
      "sanName": "melkerijstraat", 
      "numOfAddr": 15, 
      "lonmax": 5.403915730060728, 
      "latmin": 51.18606811624651
    }, 
    {
      "latmax": 51.17942339221409, 
      "name": "Moldershoevenstraat", 
      "lonmin": 5.403935171314806, 
      "sanName": "moldershoevenstraat", 
      "numOfAddr": 53, 
      "lonmax": 5.420267454802697, 
      "latmin": 51.17595047332918
    }, 
    {
      "latmax": 51.21448662708865, 
      "name": "Molenbroek", 
      "lonmin": 5.434688659085487, 
      "sanName": "molenbroek", 
      "numOfAddr": 7, 
      "lonmax": 5.435097995180161, 
      "latmin": 51.213295307456896
    }, 
    {
      "latmax": 51.22410872474174, 
      "name": "Molenheidestraat", 
      "lonmin": 5.40544955280853, 
      "sanName": "molenheidestraat", 
      "numOfAddr": 52, 
      "lonmax": 5.410089073810628, 
      "latmin": 51.22066222853086
    }, 
    {
      "latmax": 51.22142429327747, 
      "name": "Mulkensstraat", 
      "lonmin": 5.412469842514412, 
      "sanName": "mulkensstraat", 
      "numOfAddr": 34, 
      "lonmax": 5.415543740503898, 
      "latmin": 51.21545288826232
    }, 
    {
      "latmax": 51.201865745110744, 
      "name": "Napoleonweg", 
      "lonmin": 5.360434940975727, 
      "sanName": "napoleonweg", 
      "numOfAddr": 18, 
      "lonmax": 5.363777143626725, 
      "latmin": 51.18653810779824
    }, 
    {
      "latmax": 51.20816428809777, 
      "name": "Neuserdijk", 
      "lonmin": 5.402695308618428, 
      "sanName": "neuserdijk", 
      "numOfAddr": 32, 
      "lonmax": 5.405800465432591, 
      "latmin": 51.20444286977822
    }, 
    {
      "latmax": 51.210819373400255, 
      "name": "Nieuwe Markt", 
      "lonmin": 5.4235993174467305, 
      "sanName": "nieuwemarkt", 
      "numOfAddr": 13, 
      "lonmax": 5.424592454369604, 
      "latmin": 51.20950916002745
    }, 
    {
      "latmax": 51.207817945052184, 
      "name": "Nieuwstraat", 
      "lonmin": 5.424840685120685, 
      "sanName": "nieuwstraat", 
      "numOfAddr": 7, 
      "lonmax": 5.425722457805825, 
      "latmin": 51.20709803604093
    }, 
    {
      "latmax": 51.1985352380741, 
      "name": "Olmenstraat", 
      "lonmin": 5.404332230528394, 
      "sanName": "olmenstraat", 
      "numOfAddr": 4, 
      "lonmax": 5.405853040465146, 
      "latmin": 51.19793407777304
    }, 
    {
      "latmax": 51.220287054819586, 
      "name": "Opgenomenstraat", 
      "lonmin": 5.419877557129298, 
      "sanName": "opgenomenstraat", 
      "numOfAddr": 16, 
      "lonmax": 5.422848938761632, 
      "latmin": 51.21913513642455
    }, 
    {
      "latmax": 51.21216962734709, 
      "name": "Oude Markt", 
      "lonmin": 5.423011741824842, 
      "sanName": "oudemarkt", 
      "numOfAddr": 15, 
      "lonmax": 5.424564336075504, 
      "latmin": 51.211039646515005
    }, 
    {
      "latmax": 51.224175009293795, 
      "name": "Over 't Waterstraat", 
      "lonmin": 5.39709631246264, 
      "sanName": "overtwaterstraat", 
      "numOfAddr": 53, 
      "lonmax": 5.412771082211139, 
      "latmin": 51.21144104542722
    }, 
    {
      "latmax": 51.20867545614323, 
      "name": "Paardenkerkhof", 
      "lonmin": 5.421273534815201, 
      "sanName": "paardenkerkhof", 
      "numOfAddr": 7, 
      "lonmax": 5.422979652923064, 
      "latmin": 51.20830472152596
    }, 
    {
      "latmax": 51.20152554552049, 
      "name": "Palisstraat", 
      "lonmin": 5.366763431323922, 
      "sanName": "palisstraat", 
      "numOfAddr": 7, 
      "lonmax": 5.3674867299041304, 
      "latmin": 51.200687566279534
    }, 
    {
      "latmax": 51.17630316467786, 
      "name": "Panhofstraat", 
      "lonmin": 5.405633068455366, 
      "sanName": "panhofstraat", 
      "numOfAddr": 3, 
      "lonmax": 5.408805264472959, 
      "latmin": 51.166841559747354
    }, 
    {
      "latmax": 51.19427682128442, 
      "name": "Parkstraat", 
      "lonmin": 5.403235657957232, 
      "sanName": "parkstraat", 
      "numOfAddr": 19, 
      "lonmax": 5.407201115352678, 
      "latmin": 51.19292987042127
    }, 
    {
      "latmax": 51.19232178152075, 
      "name": "Pater Schildermansstraat", 
      "lonmin": 5.403761028060588, 
      "sanName": "paterschildermansstraat", 
      "numOfAddr": 6, 
      "lonmax": 5.404791685594072, 
      "latmin": 51.191311518699095
    }, 
    {
      "latmax": 51.21960778375369, 
      "name": "Pater Vandaelstraat", 
      "lonmin": 5.420545076860983, 
      "sanName": "patervandaelstraat", 
      "numOfAddr": 24, 
      "lonmax": 5.424732357404909, 
      "latmin": 51.21867049414868
    }, 
    {
      "latmax": 51.193559726112895, 
      "name": "Pater Vanduffelstraat", 
      "lonmin": 5.405690306903271, 
      "sanName": "patervanduffelstraat", 
      "numOfAddr": 10, 
      "lonmax": 5.407251641915769, 
      "latmin": 51.1911387863973
    }, 
    {
      "latmax": 51.2112479382287, 
      "name": "Peltanusstraat", 
      "lonmin": 5.422955608358603, 
      "sanName": "peltanusstraat", 
      "numOfAddr": 22, 
      "lonmax": 5.423907373429226, 
      "latmin": 51.20799349640552
    }, 
    {
      "latmax": 51.188474648875356, 
      "name": "Pieter Breugelplein", 
      "lonmin": 5.405854391033812, 
      "sanName": "pieterbreugelplein", 
      "numOfAddr": 16, 
      "lonmax": 5.406411859524063, 
      "latmin": 51.188056791645266
    }, 
    {
      "latmax": 51.20809737038244, 
      "name": "Pijpenstraat", 
      "lonmin": 5.416727363510001, 
      "sanName": "pijpenstraat", 
      "numOfAddr": 5, 
      "lonmax": 5.417278332140978, 
      "latmin": 51.2073477355009
    }, 
    {
      "latmax": 51.20741860246207, 
      "name": "Ploegstraat", 
      "lonmin": 5.430354954646974, 
      "sanName": "ploegstraat", 
      "numOfAddr": 11, 
      "lonmax": 5.431729484725174, 
      "latmin": 51.20659849733913
    }, 
    {
      "latmax": 51.22315750662022, 
      "name": "Populierenstraat", 
      "lonmin": 5.4092538728944435, 
      "sanName": "populierenstraat", 
      "numOfAddr": 33, 
      "lonmax": 5.413934685954754, 
      "latmin": 51.22066469388798
    }, 
    {
      "latmax": 51.21273098923019, 
      "name": "Ravotterkespad", 
      "lonmin": 5.430469897699022, 
      "sanName": "ravotterkespad", 
      "numOfAddr": 2, 
      "lonmax": 5.431129255869698, 
      "latmin": 51.21263704551496
    }, 
    {
      "latmax": 51.19402188678495, 
      "name": "Rekkerstraat", 
      "lonmin": 5.404081409416302, 
      "sanName": "rekkerstraat", 
      "numOfAddr": 15, 
      "lonmax": 5.409514762783373, 
      "latmin": 51.192640701991365
    }, 
    {
      "latmax": 51.19446119224175, 
      "name": "Reyenstraat", 
      "lonmin": 5.397358129841737, 
      "sanName": "reyenstraat", 
      "numOfAddr": 4, 
      "lonmax": 5.402289178373592, 
      "latmin": 51.193807626604254
    }, 
    {
      "latmax": 51.2068444973766, 
      "name": "Rietstraat", 
      "lonmin": 5.4209101027405895, 
      "sanName": "rietstraat", 
      "numOfAddr": 48, 
      "lonmax": 5.423411985682278, 
      "latmin": 51.199248654910186
    }, 
    {
      "latmax": 51.2093657965373, 
      "name": "Rijmenstraat", 
      "lonmin": 5.413983415166084, 
      "sanName": "rijmenstraat", 
      "numOfAddr": 13, 
      "lonmax": 5.415915969011635, 
      "latmin": 51.20847104783669
    }, 
    {
      "latmax": 51.21550042653308, 
      "name": "Ringlaan", 
      "lonmin": 5.419556549523792, 
      "sanName": "ringlaan", 
      "numOfAddr": 123, 
      "lonmax": 5.432956282316348, 
      "latmin": 51.20645516956119
    }, 
    {
      "latmax": 51.21305697903574, 
      "name": "Rodenbachlaan", 
      "lonmin": 5.424846463652884, 
      "sanName": "rodenbachlaan", 
      "numOfAddr": 19, 
      "lonmax": 5.4266424231358075, 
      "latmin": 51.211266081336404
    }, 
    {
      "latmax": 51.209241808480016, 
      "name": "Rootstraat", 
      "lonmin": 5.411302423099767, 
      "sanName": "rootstraat", 
      "numOfAddr": 14, 
      "lonmax": 5.412568586404076, 
      "latmin": 51.207675725580316
    }, 
    {
      "latmax": 51.20653606912132, 
      "name": "Rozenstraat", 
      "lonmin": 5.37093735604675, 
      "sanName": "rozenstraat", 
      "numOfAddr": 13, 
      "lonmax": 5.373037590335217, 
      "latmin": 51.20507401738128
    }, 
    {
      "latmax": 51.21117220068538, 
      "name": "Schaapsdijk", 
      "lonmin": 5.404898289968696, 
      "sanName": "schaapsdijk", 
      "numOfAddr": 8, 
      "lonmax": 5.407729827769062, 
      "latmin": 51.209953295862825
    }, 
    {
      "latmax": 51.2188938433915, 
      "name": "Schansbeemd", 
      "lonmin": 5.433713292410902, 
      "sanName": "schansbeemd", 
      "numOfAddr": 5, 
      "lonmax": 5.435050350005488, 
      "latmin": 51.21837325837703
    }, 
    {
      "latmax": 51.20482185438756, 
      "name": "Schansstraat", 
      "lonmin": 5.373617162415527, 
      "sanName": "schansstraat", 
      "numOfAddr": 44, 
      "lonmax": 5.4023948103763155, 
      "latmin": 51.199469163433065
    }, 
    {
      "latmax": 51.233153723791084, 
      "name": "Schoolstraat", 
      "lonmin": 5.39899919479265, 
      "sanName": "schoolstraat", 
      "numOfAddr": 4, 
      "lonmax": 5.399936897518468, 
      "latmin": 51.231810664373384
    }, 
    {
      "latmax": 51.191793141864636, 
      "name": "Schoutstraat", 
      "lonmin": 5.402078869807223, 
      "sanName": "schoutstraat", 
      "numOfAddr": 8, 
      "lonmax": 5.402926987948204, 
      "latmin": 51.19145366945529
    }, 
    {
      "latmax": 51.20540481250348, 
      "name": "Schouwveldstraat", 
      "lonmin": 5.410917414805979, 
      "sanName": "schouwveldstraat", 
      "numOfAddr": 12, 
      "lonmax": 5.412367004174433, 
      "latmin": 51.204646094662564
    }, 
    {
      "latmax": 51.209618817756485, 
      "name": "Schuttersboomstraat", 
      "lonmin": 5.420251623263464, 
      "sanName": "schuttersboomstraat", 
      "numOfAddr": 7, 
      "lonmax": 5.42078067689245, 
      "latmin": 51.20921433415271
    }, 
    {
      "latmax": 51.21864002063378, 
      "name": "Sellekaertsstraat", 
      "lonmin": 5.426677723620255, 
      "sanName": "sellekaertsstraat", 
      "numOfAddr": 65, 
      "lonmax": 5.435838750661866, 
      "latmin": 51.21591931912509
    }, 
    {
      "latmax": 51.22865431623813, 
      "name": "Siberi\u0089straat", 
      "lonmin": 5.373381497523996, 
      "sanName": "siberistraat", 
      "numOfAddr": 27, 
      "lonmax": 5.3861372001238585, 
      "latmin": 51.223709184562885
    }, 
    {
      "latmax": 51.204261958908354, 
      "name": "Sint-Annastraat", 
      "lonmin": 5.428036288873838, 
      "sanName": "sintannastraat", 
      "numOfAddr": 25, 
      "lonmax": 5.429125447978288, 
      "latmin": 51.20054479793248
    }, 
    {
      "latmax": 51.22614696920295, 
      "name": "Sint-Jansstraat", 
      "lonmin": 5.419259848527461, 
      "sanName": "sintjansstraat", 
      "numOfAddr": 70, 
      "lonmax": 5.425750277233142, 
      "latmin": 51.21754510652502
    }, 
    {
      "latmax": 51.223061124655715, 
      "name": "Sint-Jorisstraat", 
      "lonmin": 5.427735983022408, 
      "sanName": "sintjorisstraat", 
      "numOfAddr": 32, 
      "lonmax": 5.430902410569969, 
      "latmin": 51.220340078906425
    }, 
    {
      "latmax": 51.22466597277625, 
      "name": "Sint-Lutgardstraat", 
      "lonmin": 5.423720833516961, 
      "sanName": "sintlutgardstraat", 
      "numOfAddr": 30, 
      "lonmax": 5.4283303541937835, 
      "latmin": 51.22286495779909
    }, 
    {
      "latmax": 51.222887728912035, 
      "name": "Sint-Maartenstraat", 
      "lonmin": 5.424184903449065, 
      "sanName": "sintmaartenstraat", 
      "numOfAddr": 12, 
      "lonmax": 5.427094754294855, 
      "latmin": 51.22189805557289
    }, 
    {
      "latmax": 51.214518633957375, 
      "name": "Sint-Willebrordusstraat", 
      "lonmin": 5.428624337902416, 
      "sanName": "sintwillebrordusstraat", 
      "numOfAddr": 5, 
      "lonmax": 5.429389523060007, 
      "latmin": 51.214064053012876
    }, 
    {
      "latmax": 51.22241116180805, 
      "name": "Slagmolenstraat", 
      "lonmin": 5.432766073077028, 
      "sanName": "slagmolenstraat", 
      "numOfAddr": 12, 
      "lonmax": 5.434348335096506, 
      "latmin": 51.2217941557298
    }, 
    {
      "latmax": 51.20159632015297, 
      "name": "Sleebroekstraat", 
      "lonmin": 5.394088193603185, 
      "sanName": "sleebroekstraat", 
      "numOfAddr": 6, 
      "lonmax": 5.394419456435987, 
      "latmin": 51.200593831824314
    }, 
    {
      "latmax": 51.22149850883457, 
      "name": "Snoepluststraat", 
      "lonmin": 5.418719828517443, 
      "sanName": "snoepluststraat", 
      "numOfAddr": 31, 
      "lonmax": 5.4236785530526275, 
      "latmin": 51.21942161197269
    }, 
    {
      "latmax": 51.218310260626296, 
      "name": "Speltstraat", 
      "lonmin": 5.423571304321944, 
      "sanName": "speltstraat", 
      "numOfAddr": 2, 
      "lonmax": 5.423790879696773, 
      "latmin": 51.21830395104021
    }, 
    {
      "latmax": 51.20530793823835, 
      "name": "Spoorwegstraat", 
      "lonmin": 5.429648319378134, 
      "sanName": "spoorwegstraat", 
      "numOfAddr": 41, 
      "lonmax": 5.4359093642006355, 
      "latmin": 51.20402135310783
    }, 
    {
      "latmax": 51.20016679218674, 
      "name": "Staakstraat", 
      "lonmin": 5.409160775886139, 
      "sanName": "staakstraat", 
      "numOfAddr": 8, 
      "lonmax": 5.413062634463516, 
      "latmin": 51.19638543196036
    }, 
    {
      "latmax": 51.20616188568287, 
      "name": "Stalmanstraat", 
      "lonmin": 5.409721700816994, 
      "sanName": "stalmanstraat", 
      "numOfAddr": 25, 
      "lonmax": 5.410736218596962, 
      "latmin": 51.203900323880475
    }, 
    {
      "latmax": 51.19636050047858, 
      "name": "Steenovenstraat", 
      "lonmin": 5.426016222031703, 
      "sanName": "steenovenstraat", 
      "numOfAddr": 8, 
      "lonmax": 5.4281604791178335, 
      "latmin": 51.19613012633701
    }, 
    {
      "latmax": 51.20197994356923, 
      "name": "Steenvaartdijk", 
      "lonmin": 5.39739054375187, 
      "sanName": "steenvaartdijk", 
      "numOfAddr": 8, 
      "lonmax": 5.399379261826717, 
      "latmin": 51.20028839830251
    }, 
    {
      "latmax": 51.211978380129764, 
      "name": "Stekelbremstraat", 
      "lonmin": 5.386952458052429, 
      "sanName": "stekelbremstraat", 
      "numOfAddr": 8, 
      "lonmax": 5.387614400010689, 
      "latmin": 51.2109520302478
    }, 
    {
      "latmax": 51.18879164059359, 
      "name": "Steltstraat", 
      "lonmin": 5.406493865220092, 
      "sanName": "steltstraat", 
      "numOfAddr": 8, 
      "lonmax": 5.407107604106102, 
      "latmin": 51.18807638222606
    }, 
    {
      "latmax": 51.18994456972763, 
      "name": "Stokerijstraat", 
      "lonmin": 5.393513971509646, 
      "sanName": "stokerijstraat", 
      "numOfAddr": 1, 
      "lonmax": 5.393513971509646, 
      "latmin": 51.18994456972763
    }, 
    {
      "latmax": 51.22835876898262, 
      "name": "Stuifzandstraat", 
      "lonmin": 5.405405472672327, 
      "sanName": "stuifzandstraat", 
      "numOfAddr": 14, 
      "lonmax": 5.40783036329299, 
      "latmin": 51.227199509304164
    }, 
    {
      "latmax": 51.20643501076436, 
      "name": "Swillenstraat", 
      "lonmin": 5.411001495167876, 
      "sanName": "swillenstraat", 
      "numOfAddr": 10, 
      "lonmax": 5.412904658143361, 
      "latmin": 51.205563949433156
    }, 
    {
      "latmax": 51.21837764955915, 
      "name": "Tarwestraat", 
      "lonmin": 5.422260526375647, 
      "sanName": "tarwestraat", 
      "numOfAddr": 3, 
      "lonmax": 5.42257557668466, 
      "latmin": 51.217940756199475
    }, 
    {
      "latmax": 51.23286589892868, 
      "name": "Tennislaan", 
      "lonmin": 5.40194282506795, 
      "sanName": "tennislaan", 
      "numOfAddr": 9, 
      "lonmax": 5.4049270289573155, 
      "latmin": 51.23071693597235
    }, 
    {
      "latmax": 51.2147041907997, 
      "name": "Teunenstraat", 
      "lonmin": 5.425791979410674, 
      "sanName": "teunenstraat", 
      "numOfAddr": 11, 
      "lonmax": 5.4269935295701295, 
      "latmin": 51.213508905236125
    }, 
    {
      "latmax": 51.183783482162035, 
      "name": "Tielenstraat", 
      "lonmin": 5.404592628432996, 
      "sanName": "tielenstraat", 
      "numOfAddr": 23, 
      "lonmax": 5.410352200713044, 
      "latmin": 51.18239680197408
    }, 
    {
      "latmax": 51.21337972979838, 
      "name": "Tijmstraat", 
      "lonmin": 5.382298230786314, 
      "sanName": "tijmstraat", 
      "numOfAddr": 3, 
      "lonmax": 5.382969317883444, 
      "latmin": 51.21281458212809
    }, 
    {
      "latmax": 51.18749291273781, 
      "name": "Tolstraat", 
      "lonmin": 5.4060163207952465, 
      "sanName": "tolstraat", 
      "numOfAddr": 3, 
      "lonmax": 5.406593114096617, 
      "latmin": 51.18743973032077
    }, 
    {
      "latmax": 51.20568550773146, 
      "name": "Tulpenstraat", 
      "lonmin": 5.369650073253635, 
      "sanName": "tulpenstraat", 
      "numOfAddr": 11, 
      "lonmax": 5.371868796197634, 
      "latmin": 51.20509953461443
    }, 
    {
      "latmax": 51.202703081934324, 
      "name": "Turfstraat", 
      "lonmin": 5.367895893308324, 
      "sanName": "turfstraat", 
      "numOfAddr": 8, 
      "lonmax": 5.369541413801485, 
      "latmin": 51.20142519452994
    }, 
    {
      "latmax": 51.20900691067577, 
      "name": "'t Weike", 
      "lonmin": 5.4124226110159235, 
      "sanName": "tweike", 
      "numOfAddr": 13, 
      "lonmax": 5.413539341082872, 
      "latmin": 51.20807597589212
    }, 
    {
      "latmax": 51.20720006316515, 
      "name": "Uitweg", 
      "lonmin": 5.435274740799115, 
      "sanName": "uitweg", 
      "numOfAddr": 1, 
      "lonmax": 5.435274740799115, 
      "latmin": 51.20720006316515
    }, 
    {
      "latmax": 51.19839971780978, 
      "name": "Urnenveldstraat", 
      "lonmin": 5.431137459481853, 
      "sanName": "urnenveldstraat", 
      "numOfAddr": 15, 
      "lonmax": 5.433903260020734, 
      "latmin": 51.19690715892568
    }, 
    {
      "latmax": 51.212971007873534, 
      "name": "Veenbeslaan", 
      "lonmin": 5.38263195805029, 
      "sanName": "veenbeslaan", 
      "numOfAddr": 29, 
      "lonmax": 5.3864246683143735, 
      "latmin": 51.210125516258024
    }, 
    {
      "latmax": 51.20790188702281, 
      "name": "Veldstraat", 
      "lonmin": 5.4315918977821935, 
      "sanName": "veldstraat", 
      "numOfAddr": 17, 
      "lonmax": 5.433269942352236, 
      "latmin": 51.205300087798626
    }, 
    {
      "latmax": 51.19470955532874, 
      "name": "Venstraat", 
      "lonmin": 5.372677883038878, 
      "sanName": "venstraat", 
      "numOfAddr": 1, 
      "lonmax": 5.372677883038878, 
      "latmin": 51.19470955532874
    }, 
    {
      "latmax": 51.194842854967604, 
      "name": "Vijverstraat", 
      "lonmin": 5.375624908253653, 
      "sanName": "vijverstraat", 
      "numOfAddr": 3, 
      "lonmax": 5.375822238167698, 
      "latmin": 51.19383149338709
    }, 
    {
      "latmax": 51.19979048497083, 
      "name": "Vlasrootstraat", 
      "lonmin": 5.391961582312751, 
      "sanName": "vlasrootstraat", 
      "numOfAddr": 18, 
      "lonmax": 5.396520251011968, 
      "latmin": 51.1954572676657
    }, 
    {
      "latmax": 51.22534391041163, 
      "name": "Vliegdenstraat", 
      "lonmin": 5.404810587464595, 
      "sanName": "vliegdenstraat", 
      "numOfAddr": 14, 
      "lonmax": 5.408152376634825, 
      "latmin": 51.22445572577772
    }, 
    {
      "latmax": 51.223234189826535, 
      "name": "Vliegveldstraat", 
      "lonmin": 5.405464736415023, 
      "sanName": "vliegveldstraat", 
      "numOfAddr": 10, 
      "lonmax": 5.406961145769533, 
      "latmin": 51.222212347302445
    }, 
    {
      "latmax": 51.21123539127665, 
      "name": "Vlierstraat", 
      "lonmin": 5.382440062262113, 
      "sanName": "vlierstraat", 
      "numOfAddr": 5, 
      "lonmax": 5.382491898291077, 
      "latmin": 51.21081559751571
    }, 
    {
      "latmax": 51.21282098284549, 
      "name": "Vloeterstraat", 
      "lonmin": 5.426503922749384, 
      "sanName": "vloeterstraat", 
      "numOfAddr": 46, 
      "lonmax": 5.434750451246046, 
      "latmin": 51.20974715279702
    }, 
    {
      "latmax": 51.23314408867116, 
      "name": "Voetbalstraat", 
      "lonmin": 5.393097692604532, 
      "sanName": "voetbalstraat", 
      "numOfAddr": 29, 
      "lonmax": 5.394546803942222, 
      "latmin": 51.22975864973957
    }, 
    {
      "latmax": 51.19162883908987, 
      "name": "Voetweg", 
      "lonmin": 5.396226281001836, 
      "sanName": "voetweg", 
      "numOfAddr": 11, 
      "lonmax": 5.399078845049846, 
      "latmin": 51.189550996321074
    }, 
    {
      "latmax": 51.22295222559622, 
      "name": "Vogelkersstraat", 
      "lonmin": 5.403893274467321, 
      "sanName": "vogelkersstraat", 
      "numOfAddr": 26, 
      "lonmax": 5.40557358738565, 
      "latmin": 51.22068662409926
    }, 
    {
      "latmax": 51.22648094839247, 
      "name": "Vonderstraat", 
      "lonmin": 5.43022892855415, 
      "sanName": "vonderstraat", 
      "numOfAddr": 16, 
      "lonmax": 5.43228861505233, 
      "latmin": 51.224296346510016
    }, 
    {
      "latmax": 51.188649783243505, 
      "name": "Voorstraat", 
      "lonmin": 5.40431588775404, 
      "sanName": "voorstraat", 
      "numOfAddr": 4, 
      "lonmax": 5.4050412570155535, 
      "latmin": 51.188240885982374
    }, 
    {
      "latmax": 51.192755869846934, 
      "name": "Vrenenstraat", 
      "lonmin": 5.392805216327331, 
      "sanName": "vrenenstraat", 
      "numOfAddr": 41, 
      "lonmax": 5.402415271368691, 
      "latmin": 51.191549338553884
    }, 
    {
      "latmax": 51.21868431891698, 
      "name": "Vroentjesstraat", 
      "lonmin": 5.421522828168227, 
      "sanName": "vroentjesstraat", 
      "numOfAddr": 6, 
      "lonmax": 5.422235488307518, 
      "latmin": 51.21812981082755
    }, 
    {
      "latmax": 51.20811689196271, 
      "name": "Walstraat", 
      "lonmin": 5.408053152557833, 
      "sanName": "walstraat", 
      "numOfAddr": 15, 
      "lonmax": 5.41171319231614, 
      "latmin": 51.20591084690425
    }, 
    {
      "latmax": 51.22878537552088, 
      "name": "Waterrijtstraat", 
      "lonmin": 5.378097199632722, 
      "sanName": "waterrijtstraat", 
      "numOfAddr": 7, 
      "lonmax": 5.379810295491568, 
      "latmin": 51.227828296874755
    }, 
    {
      "latmax": 51.2255378401739, 
      "name": "Waterstraat", 
      "lonmin": 5.425282222864357, 
      "sanName": "waterstraat", 
      "numOfAddr": 13, 
      "lonmax": 5.427200080631177, 
      "latmin": 51.22461654547864
    }, 
    {
      "latmax": 51.191709674685846, 
      "name": "Weerwolfstraat", 
      "lonmin": 5.395805484878576, 
      "sanName": "weerwolfstraat", 
      "numOfAddr": 14, 
      "lonmax": 5.399191225986657, 
      "latmin": 51.19054509050099
    }, 
    {
      "latmax": 51.22389287745194, 
      "name": "Weidestraat", 
      "lonmin": 5.432923561198521, 
      "sanName": "weidestraat", 
      "numOfAddr": 3, 
      "lonmax": 5.435019664911002, 
      "latmin": 51.22330311583202
    }, 
    {
      "latmax": 51.19602468648147, 
      "name": "Welpstraat", 
      "lonmin": 5.416733735384702, 
      "sanName": "welpstraat", 
      "numOfAddr": 9, 
      "lonmax": 5.418103718508905, 
      "latmin": 51.194999384259646
    }, 
    {
      "latmax": 51.185392853083556, 
      "name": "Weyerstraat", 
      "lonmin": 5.400677429488349, 
      "sanName": "weyerstraat", 
      "numOfAddr": 12, 
      "lonmax": 5.403966352729084, 
      "latmin": 51.184043762505546
    }, 
    {
      "latmax": 51.20952697568937, 
      "name": "Wilgenstraat", 
      "lonmin": 5.407716191304749, 
      "sanName": "wilgenstraat", 
      "numOfAddr": 15, 
      "lonmax": 5.411138768965098, 
      "latmin": 51.20846727651539
    }, 
    {
      "latmax": 51.20894653389913, 
      "name": "Willem II-straat", 
      "lonmin": 5.414972353648867, 
      "sanName": "willemiistraat", 
      "numOfAddr": 41, 
      "lonmax": 5.419820001650754, 
      "latmin": 51.20411877531066
    }, 
    {
      "latmax": 51.208498172212884, 
      "name": "Windmolenstraat", 
      "lonmin": 5.4226647994021935, 
      "sanName": "windmolenstraat", 
      "numOfAddr": 19, 
      "lonmax": 5.425949067776352, 
      "latmin": 51.20723159298266
    }, 
    {
      "latmax": 51.18418942941357, 
      "name": "Winnerstraat", 
      "lonmin": 5.384764512694055, 
      "sanName": "winnerstraat", 
      "numOfAddr": 4, 
      "lonmax": 5.391990454023549, 
      "latmin": 51.16919348999197
    }, 
    {
      "latmax": 51.20221170197883, 
      "name": "Wolfstraat", 
      "lonmin": 5.410988846052494, 
      "sanName": "wolfstraat", 
      "numOfAddr": 39, 
      "lonmax": 5.427587823172786, 
      "latmin": 51.1946087578329
    }, 
    {
      "latmax": 51.21490570230709, 
      "name": "Wuytenweg", 
      "lonmin": 5.41771169488382, 
      "sanName": "wuytenweg", 
      "numOfAddr": 14, 
      "lonmax": 5.41985989611418, 
      "latmin": 51.213106986463444
    }, 
    {
      "latmax": 51.19604728828876, 
      "name": "Zandkuilstraat", 
      "lonmin": 5.406469798058409, 
      "sanName": "zandkuilstraat", 
      "numOfAddr": 5, 
      "lonmax": 5.40707234493126, 
      "latmin": 51.19562460673574
    }, 
    {
      "latmax": 51.22720272124783, 
      "name": "Zavelstraat", 
      "lonmin": 5.405609513164365, 
      "sanName": "zavelstraat", 
      "numOfAddr": 45, 
      "lonmax": 5.4132485435078035, 
      "latmin": 51.223143862125475
    }, 
    {
      "latmax": 51.22734835109453, 
      "name": "Zeggestraat", 
      "lonmin": 5.406522070999317, 
      "sanName": "zeggestraat", 
      "numOfAddr": 7, 
      "lonmax": 5.4076968292511545, 
      "latmin": 51.226898402149985
    }, 
    {
      "latmax": 51.219681128538895, 
      "name": "Zeldertstraat", 
      "lonmin": 5.424131888953607, 
      "sanName": "zeldertstraat", 
      "numOfAddr": 28, 
      "lonmax": 5.426545654905791, 
      "latmin": 51.216448102796136
    }, 
    {
      "latmax": 51.227285599644034, 
      "name": "Zilverdenstraat", 
      "lonmin": 5.407421195658259, 
      "sanName": "zilverdenstraat", 
      "numOfAddr": 11, 
      "lonmax": 5.409211683742737, 
      "latmin": 51.22648461408864
    }, 
    {
      "latmax": 51.188953225772295, 
      "name": "Zipstraat", 
      "lonmin": 5.395547537340119, 
      "sanName": "zipstraat", 
      "numOfAddr": 30, 
      "lonmax": 5.40370967834473, 
      "latmin": 51.18567439557929
    }, 
    {
      "latmax": 51.21387155219361, 
      "name": "Zonnedauwlaan", 
      "lonmin": 5.3813314079073225, 
      "sanName": "zonnedauwlaan", 
      "numOfAddr": 43, 
      "lonmax": 5.383235042840795, 
      "latmin": 51.20893945066209
    }, 
    {
      "latmax": 51.2007091521389, 
      "name": "Zwamstraat", 
      "lonmin": 5.407531256356278, 
      "sanName": "zwamstraat", 
      "numOfAddr": 45, 
      "lonmax": 5.409136696287766, 
      "latmin": 51.194414806176965
    }
  ]
}