{
  "streets": [
    {
      "latmax": 51.23137506475053, 
      "name": "Aangelag", 
      "lonmin": 5.448623142886414, 
      "sanName": "aangelag", 
      "numOfAddr": 10, 
      "lonmax": 5.450415669637413, 
      "latmin": 51.23083709834471
    }, 
    {
      "latmax": 51.22447340478916, 
      "name": "Acaciastraat", 
      "lonmin": 5.445243251409945, 
      "sanName": "acaciastraat", 
      "numOfAddr": 17, 
      "lonmax": 5.446251455932895, 
      "latmin": 51.22217154536853
    }, 
    {
      "latmax": 51.25466947868446, 
      "name": "Achelsendijk", 
      "lonmin": 5.439025118499751, 
      "sanName": "achelsendijk", 
      "numOfAddr": 39, 
      "lonmax": 5.466112031084122, 
      "latmin": 51.24529771424202
    }, 
    {
      "latmax": 51.23150326785973, 
      "name": "Akkerstraat", 
      "lonmin": 5.4475697717950124, 
      "sanName": "akkerstraat", 
      "numOfAddr": 7, 
      "lonmax": 5.448161697677336, 
      "latmin": 51.2305394608943
    }, 
    {
      "latmax": 51.247237218307696, 
      "name": "Amandusstraat", 
      "lonmin": 5.440083979208371, 
      "sanName": "amandusstraat", 
      "numOfAddr": 11, 
      "lonmax": 5.441187508361693, 
      "latmin": 51.24602443265539
    }, 
    {
      "latmax": 51.22568122485712, 
      "name": "Anjerstraat", 
      "lonmin": 5.4526098938056915, 
      "sanName": "anjerstraat", 
      "numOfAddr": 22, 
      "lonmax": 5.455757801429575, 
      "latmin": 51.22480454372785
    }, 
    {
      "latmax": 51.23169167864201, 
      "name": "Ankerweg", 
      "lonmin": 5.439576117062871, 
      "sanName": "ankerweg", 
      "numOfAddr": 19, 
      "lonmax": 5.4407249295221725, 
      "latmin": 51.23031508640002
    }, 
    {
      "latmax": 51.228646976165464, 
      "name": "Appelboomstraat", 
      "lonmin": 5.4536260247254, 
      "sanName": "appelboomstraat", 
      "numOfAddr": 9, 
      "lonmax": 5.456332193374714, 
      "latmin": 51.22758621001847
    }, 
    {
      "latmax": 51.22331803859204, 
      "name": "Azalealaan", 
      "lonmin": 5.446695357331509, 
      "sanName": "azalealaan", 
      "numOfAddr": 10, 
      "lonmax": 5.447736613666682, 
      "latmin": 51.222346298414045
    }, 
    {
      "latmax": 51.24567395128053, 
      "name": "Bakkersstraatje", 
      "lonmin": 5.43724807828732, 
      "sanName": "bakkersstraatje", 
      "numOfAddr": 6, 
      "lonmax": 5.438193998873931, 
      "latmin": 51.24512665481922
    }, 
    {
      "latmax": 51.21218071029833, 
      "name": "Beekstraat", 
      "lonmin": 5.439606494811034, 
      "sanName": "beekstraat", 
      "numOfAddr": 4, 
      "lonmax": 5.440713699958891, 
      "latmin": 51.211920314932826
    }, 
    {
      "latmax": 51.23313770439972, 
      "name": "Beemdstraat", 
      "lonmin": 5.490531604694326, 
      "sanName": "beemdstraat", 
      "numOfAddr": 14, 
      "lonmax": 5.492157427009425, 
      "latmin": 51.22938201091405
    }, 
    {
      "latmax": 51.228354991819714, 
      "name": "Begonialaan", 
      "lonmin": 5.452844102404309, 
      "sanName": "begonialaan", 
      "numOfAddr": 32, 
      "lonmax": 5.456270565753709, 
      "latmin": 51.224945917103945
    }, 
    {
      "latmax": 51.243103121369465, 
      "name": "Bergeiksendijk", 
      "lonmin": 5.413229145198298, 
      "sanName": "bergeiksendijk", 
      "numOfAddr": 2, 
      "lonmax": 5.420496833854508, 
      "latmin": 51.23575067057618
    }, 
    {
      "latmax": 51.22502512198185, 
      "name": "Berghei", 
      "lonmin": 5.499254705452196, 
      "sanName": "berghei", 
      "numOfAddr": 7, 
      "lonmax": 5.5042638322162505, 
      "latmin": 51.218384166895525
    }, 
    {
      "latmax": 51.232824978174904, 
      "name": "Berkendreef", 
      "lonmin": 5.411850405838105, 
      "sanName": "berkendreef", 
      "numOfAddr": 6, 
      "lonmax": 5.417445149557866, 
      "latmin": 51.231876933328635
    }, 
    {
      "latmax": 51.23335298785762, 
      "name": "Bermstraat", 
      "lonmin": 5.428761357114234, 
      "sanName": "bermstraat", 
      "numOfAddr": 16, 
      "lonmax": 5.431545017458011, 
      "latmin": 51.2324520005424
    }, 
    {
      "latmax": 51.20189719603154, 
      "name": "Bettebos", 
      "lonmin": 5.443177919350723, 
      "sanName": "bettebos", 
      "numOfAddr": 60, 
      "lonmax": 5.44953145929869, 
      "latmin": 51.19993836542294
    }, 
    {
      "latmax": 51.20112365386175, 
      "name": "Bettemiserf", 
      "lonmin": 5.442079215904985, 
      "sanName": "bettemiserf", 
      "numOfAddr": 7, 
      "lonmax": 5.442677514863361, 
      "latmin": 51.2005699275947
    }, 
    {
      "latmax": 51.20166103453979, 
      "name": "Bettemishoeve", 
      "lonmin": 5.442700280362347, 
      "sanName": "bettemishoeve", 
      "numOfAddr": 5, 
      "lonmax": 5.443048724042514, 
      "latmin": 51.20119133890616
    }, 
    {
      "latmax": 51.21767890041266, 
      "name": "Beukenlaan", 
      "lonmin": 5.441415408706468, 
      "sanName": "beukenlaan", 
      "numOfAddr": 25, 
      "lonmax": 5.444514078678954, 
      "latmin": 51.21628167400461
    }, 
    {
      "latmax": 51.23819158743269, 
      "name": "Bevrijdingsweg", 
      "lonmin": 5.441186209750624, 
      "sanName": "bevrijdingsweg", 
      "numOfAddr": 6, 
      "lonmax": 5.44721404852927, 
      "latmin": 51.23725058901787
    }, 
    {
      "latmax": 51.24611508477932, 
      "name": "Bienderstraat", 
      "lonmin": 5.463124502120368, 
      "sanName": "bienderstraat", 
      "numOfAddr": 21, 
      "lonmax": 5.464458146083229, 
      "latmin": 51.2383332957682
    }, 
    {
      "latmax": 51.225754758974944, 
      "name": "Biezenweg", 
      "lonmin": 5.43920100763534, 
      "sanName": "biezenweg", 
      "numOfAddr": 13, 
      "lonmax": 5.440443715897513, 
      "latmin": 51.223630384380556
    }, 
    {
      "latmax": 51.24518061453892, 
      "name": "Binnenweg", 
      "lonmin": 5.444100214415759, 
      "sanName": "binnenweg", 
      "numOfAddr": 2, 
      "lonmax": 5.444662549331664, 
      "latmin": 51.24512289624958
    }, 
    {
      "latmax": 51.2320096383104, 
      "name": "Boegstraat", 
      "lonmin": 5.44063856343129, 
      "sanName": "boegstraat", 
      "numOfAddr": 16, 
      "lonmax": 5.441285985077506, 
      "latmin": 51.23037377101529
    }, 
    {
      "latmax": 51.2454927979791, 
      "name": "Boelehoef", 
      "lonmin": 5.4422809397454035, 
      "sanName": "boelehoef", 
      "numOfAddr": 59, 
      "lonmax": 5.449126892709868, 
      "latmin": 51.234016133007465
    }, 
    {
      "latmax": 51.232877573567855, 
      "name": "Boomgaardstraat", 
      "lonmin": 5.433031266672688, 
      "sanName": "boomgaardstraat", 
      "numOfAddr": 4, 
      "lonmax": 5.434569822387409, 
      "latmin": 51.23256872379819
    }, 
    {
      "latmax": 51.232308533163945, 
      "name": "Boonskuilstraat", 
      "lonmin": 5.437884553565492, 
      "sanName": "boonskuilstraat", 
      "numOfAddr": 16, 
      "lonmax": 5.438594733003049, 
      "latmin": 51.23075878333428
    }, 
    {
      "latmax": 51.2240013214994, 
      "name": "Bosbessenlaan", 
      "lonmin": 5.445908574326217, 
      "sanName": "bosbessenlaan", 
      "numOfAddr": 40, 
      "lonmax": 5.451853162399813, 
      "latmin": 51.22327889212812
    }, 
    {
      "latmax": 51.22909551724651, 
      "name": "Boseind", 
      "lonmin": 5.438536206704403, 
      "sanName": "boseind", 
      "numOfAddr": 127, 
      "lonmax": 5.442438595260506, 
      "latmin": 51.21219292813694
    }, 
    {
      "latmax": 51.22350182320625, 
      "name": "Boskantstraat", 
      "lonmin": 5.4408383611077324, 
      "sanName": "boskantstraat", 
      "numOfAddr": 28, 
      "lonmax": 5.443965221778818, 
      "latmin": 51.222166441933666
    }, 
    {
      "latmax": 51.22400141076841, 
      "name": "Bosuilstraat", 
      "lonmin": 5.494242888179339, 
      "sanName": "bosuilstraat", 
      "numOfAddr": 8, 
      "lonmax": 5.49758390026863, 
      "latmin": 51.21698514447095
    }, 
    {
      "latmax": 51.226924771676856, 
      "name": "Bremstraat", 
      "lonmin": 5.439571527014365, 
      "sanName": "bremstraat", 
      "numOfAddr": 20, 
      "lonmax": 5.442029559609637, 
      "latmin": 51.225583338031335
    }, 
    {
      "latmax": 51.20197556600605, 
      "name": "Breughelstraat", 
      "lonmin": 5.441567105794839, 
      "sanName": "breughelstraat", 
      "numOfAddr": 62, 
      "lonmax": 5.444137375686356, 
      "latmin": 51.19088458118844
    }, 
    {
      "latmax": 51.23159122238986, 
      "name": "Broekkant", 
      "lonmin": 5.484541801487065, 
      "sanName": "broekkant", 
      "numOfAddr": 10, 
      "lonmax": 5.49893106384339, 
      "latmin": 51.22947467106582
    }, 
    {
      "latmax": 51.25502464980459, 
      "name": "Broeseinderdijk", 
      "lonmin": 5.423745549129984, 
      "sanName": "broeseinderdijk", 
      "numOfAddr": 93, 
      "lonmax": 5.42811137230784, 
      "latmin": 51.235629999753264
    }, 
    {
      "latmax": 51.232866387166986, 
      "name": "Broesveldstraat", 
      "lonmin": 5.428105372321241, 
      "sanName": "broesveldstraat", 
      "numOfAddr": 44, 
      "lonmax": 5.430172658718941, 
      "latmin": 51.229022097640154
    }, 
    {
      "latmax": 51.2294463228277, 
      "name": "Brouwersstraat", 
      "lonmin": 5.427474377769343, 
      "sanName": "brouwersstraat", 
      "numOfAddr": 16, 
      "lonmax": 5.428229158000368, 
      "latmin": 51.22858405167425
    }, 
    {
      "latmax": 51.25552916754418, 
      "name": "Buizerdstraat", 
      "lonmin": 5.428008607650275, 
      "sanName": "buizerdstraat", 
      "numOfAddr": 24, 
      "lonmax": 5.430133342167975, 
      "latmin": 51.25308351512147
    }, 
    {
      "latmax": 51.2310523028454, 
      "name": "Clercxhoevestraat", 
      "lonmin": 5.4359106702870434, 
      "sanName": "clercxhoevestraat", 
      "numOfAddr": 27, 
      "lonmax": 5.4375455093776175, 
      "latmin": 51.229714880100936
    }, 
    {
      "latmax": 51.23731916718989, 
      "name": "Damsheide", 
      "lonmin": 5.458842575026864, 
      "sanName": "damsheide", 
      "numOfAddr": 41, 
      "lonmax": 5.461926812077956, 
      "latmin": 51.23201158207315
    }, 
    {
      "latmax": 51.23772573664618, 
      "name": "De Beerten", 
      "lonmin": 5.484463733345214, 
      "sanName": "debeerten", 
      "numOfAddr": 5, 
      "lonmax": 5.485216883552896, 
      "latmin": 51.23734645877752
    }, 
    {
      "latmax": 51.22034159617159, 
      "name": "De Bemmert", 
      "lonmin": 5.441013365703218, 
      "sanName": "debemmert", 
      "numOfAddr": 70, 
      "lonmax": 5.44589350521617, 
      "latmin": 51.214014723961725
    }, 
    {
      "latmax": 51.25466298499242, 
      "name": "De Hagen", 
      "lonmin": 5.4314027140258245, 
      "sanName": "dehagen", 
      "numOfAddr": 1, 
      "lonmax": 5.4314027140258245, 
      "latmin": 51.25466298499242
    }, 
    {
      "latmax": 51.22145475669703, 
      "name": "De Kentings", 
      "lonmin": 5.4441525941130395, 
      "sanName": "dekentings", 
      "numOfAddr": 18, 
      "lonmax": 5.445911193643487, 
      "latmin": 51.219488505455324
    }, 
    {
      "latmax": 51.21738372399476, 
      "name": "Dennenlaan", 
      "lonmin": 5.447503698172507, 
      "sanName": "dennenlaan", 
      "numOfAddr": 5, 
      "lonmax": 5.44841787968978, 
      "latmin": 51.216955930331224
    }, 
    {
      "latmax": 51.232991368643745, 
      "name": "De Nulenstraat", 
      "lonmin": 5.468674261761079, 
      "sanName": "denulenstraat", 
      "numOfAddr": 32, 
      "lonmax": 5.481972673571325, 
      "latmin": 51.2301204732904
    }, 
    {
      "latmax": 51.21641800891668, 
      "name": "De Roosen", 
      "lonmin": 5.441572687169014, 
      "sanName": "deroosen", 
      "numOfAddr": 72, 
      "lonmax": 5.45701036418737, 
      "latmin": 51.211833525174825
    }, 
    {
      "latmax": 51.203806178625534, 
      "name": "De Vrundenweg", 
      "lonmin": 5.450766790655305, 
      "sanName": "devrundenweg", 
      "numOfAddr": 6, 
      "lonmax": 5.456550211437088, 
      "latmin": 51.20273679512058
    }, 
    {
      "latmax": 51.231181382870524, 
      "name": "De Zandberg", 
      "lonmin": 5.436542108835701, 
      "sanName": "dezandberg", 
      "numOfAddr": 1, 
      "lonmax": 5.436542108835701, 
      "latmin": 51.231181382870524
    }, 
    {
      "latmax": 51.20222865169013, 
      "name": "Dijkstraat", 
      "lonmin": 5.4408754162218536, 
      "sanName": "dijkstraat", 
      "numOfAddr": 7, 
      "lonmax": 5.442051591659551, 
      "latmin": 51.2017332310889
    }, 
    {
      "latmax": 51.23021714344392, 
      "name": "Distelstraat", 
      "lonmin": 5.445246568415348, 
      "sanName": "distelstraat", 
      "numOfAddr": 31, 
      "lonmax": 5.447883596834967, 
      "latmin": 51.22890032694215
    }, 
    {
      "latmax": 51.21884443445931, 
      "name": "Dommelweg", 
      "lonmin": 5.437993094190586, 
      "sanName": "dommelweg", 
      "numOfAddr": 15, 
      "lonmax": 5.4406721004493805, 
      "latmin": 51.21813305029811
    }, 
    {
      "latmax": 51.22721521701422, 
      "name": "Dorpsstraat", 
      "lonmin": 5.482392625113851, 
      "sanName": "dorpsstraat", 
      "numOfAddr": 44, 
      "lonmax": 5.48881315537414, 
      "latmin": 51.22576018041623
    }, 
    {
      "latmax": 51.238560486984326, 
      "name": "Dummerveld", 
      "lonmin": 5.460285453988109, 
      "sanName": "dummerveld", 
      "numOfAddr": 6, 
      "lonmax": 5.461972718253939, 
      "latmin": 51.2378843043983
    }, 
    {
      "latmax": 51.23756196709439, 
      "name": "Dwarsstraat", 
      "lonmin": 5.461906665950041, 
      "sanName": "dwarsstraat", 
      "numOfAddr": 19, 
      "lonmax": 5.463373203556254, 
      "latmin": 51.235660699217114
    }, 
    {
      "latmax": 51.251023588248586, 
      "name": "Eekhoornlaan", 
      "lonmin": 5.448462076457457, 
      "sanName": "eekhoornlaan", 
      "numOfAddr": 1, 
      "lonmax": 5.448462076457457, 
      "latmin": 51.251023588248586
    }, 
    {
      "latmax": 51.21918162410726, 
      "name": "Eikenlaan", 
      "lonmin": 5.444346739627278, 
      "sanName": "eikenlaan", 
      "numOfAddr": 37, 
      "lonmax": 5.447412585763431, 
      "latmin": 51.217373307763346
    }, 
    {
      "latmax": 51.24234798569983, 
      "name": "Eindstraat", 
      "lonmin": 5.437621667406959, 
      "sanName": "eindstraat", 
      "numOfAddr": 4, 
      "lonmax": 5.439427588198411, 
      "latmin": 51.24067831052379
    }, 
    {
      "latmax": 51.23116755965189, 
      "name": "Elzenstraat", 
      "lonmin": 5.450648545331417, 
      "sanName": "elzenstraat", 
      "numOfAddr": 16, 
      "lonmax": 5.452299528844848, 
      "latmin": 51.22989675581754
    }, 
    {
      "latmax": 51.232149412155465, 
      "name": "Energiestraat", 
      "lonmin": 5.4430166840299545, 
      "sanName": "energiestraat", 
      "numOfAddr": 4, 
      "lonmax": 5.443931740851315, 
      "latmin": 51.231331929554415
    }, 
    {
      "latmax": 51.23131839260493, 
      "name": "Erkestraat", 
      "lonmin": 5.48695834628666, 
      "sanName": "erkestraat", 
      "numOfAddr": 25, 
      "lonmax": 5.490326706142429, 
      "latmin": 51.22992524269258
    }, 
    {
      "latmax": 51.21814405658007, 
      "name": "Exschoor", 
      "lonmin": 5.487554300272184, 
      "sanName": "exschoor", 
      "numOfAddr": 16, 
      "lonmax": 5.490923514811589, 
      "latmin": 51.21072101024641
    }, 
    {
      "latmax": 51.230331199572625, 
      "name": "Fabriekstraat", 
      "lonmin": 5.4222304623790825, 
      "sanName": "fabriekstraat", 
      "numOfAddr": 47, 
      "lonmax": 5.429297679477946, 
      "latmin": 51.22950832038907
    }, 
    {
      "latmax": 51.2278502240507, 
      "name": "Fierkens Broek", 
      "lonmin": 5.489659884419332, 
      "sanName": "fierkensbroek", 
      "numOfAddr": 1, 
      "lonmax": 5.489659884419332, 
      "latmin": 51.2278502240507
    }, 
    {
      "latmax": 51.228294605975975, 
      "name": "Fierkens-Heikant", 
      "lonmin": 5.488436987233058, 
      "sanName": "fierkensheikant", 
      "numOfAddr": 51, 
      "lonmax": 5.497344868107207, 
      "latmin": 51.22474586925522
    }, 
    {
      "latmax": 51.2616564772319, 
      "name": "Ganzenpas", 
      "lonmin": 5.441602451696564, 
      "sanName": "ganzenpas", 
      "numOfAddr": 10, 
      "lonmax": 5.447143637322336, 
      "latmin": 51.26050809717146
    }, 
    {
      "latmax": 51.22370400356865, 
      "name": "Geerkensstraat", 
      "lonmin": 5.484405309116035, 
      "sanName": "geerkensstraat", 
      "numOfAddr": 36, 
      "lonmax": 5.488802053212527, 
      "latmin": 51.22181680171121
    }, 
    {
      "latmax": 51.2420101348767, 
      "name": "Geuskens", 
      "lonmin": 5.483043692218417, 
      "sanName": "geuskens", 
      "numOfAddr": 37, 
      "lonmax": 5.493638731927338, 
      "latmin": 51.235212784526375
    }, 
    {
      "latmax": 51.227676643026484, 
      "name": "Goudbloemstraat", 
      "lonmin": 5.452041589463706, 
      "sanName": "goudbloemstraat", 
      "numOfAddr": 10, 
      "lonmax": 5.452989074909357, 
      "latmin": 51.22679985939623
    }, 
    {
      "latmax": 51.229653087441775, 
      "name": "Groenstraat", 
      "lonmin": 5.43339153713089, 
      "sanName": "groenstraat", 
      "numOfAddr": 16, 
      "lonmax": 5.434504692624998, 
      "latmin": 51.22853130339641
    }, 
    {
      "latmax": 51.26916635479572, 
      "name": "Grote Heide", 
      "lonmin": 5.435611293333236, 
      "sanName": "groteheide", 
      "numOfAddr": 101, 
      "lonmax": 5.441644583739095, 
      "latmin": 51.246162824020615
    }, 
    {
      "latmax": 51.23109935061527, 
      "name": "Haagdoorndijk", 
      "lonmin": 5.415841895312759, 
      "sanName": "haagdoorndijk", 
      "numOfAddr": 1, 
      "lonmax": 5.415841895312759, 
      "latmin": 51.23109935061527
    }, 
    {
      "latmax": 51.22956991140387, 
      "name": "Haagdoornstraat", 
      "lonmin": 5.441626267211156, 
      "sanName": "haagdoornstraat", 
      "numOfAddr": 60, 
      "lonmax": 5.445091844710652, 
      "latmin": 51.2219088337931
    }, 
    {
      "latmax": 51.25475486591533, 
      "name": "Hageheidestraat", 
      "lonmin": 5.430423082382879, 
      "sanName": "hageheidestraat", 
      "numOfAddr": 18, 
      "lonmax": 5.432655199050374, 
      "latmin": 51.25347332091643
    }, 
    {
      "latmax": 51.2302055256875, 
      "name": "Halmstraat", 
      "lonmin": 5.448117597007741, 
      "sanName": "halmstraat", 
      "numOfAddr": 9, 
      "lonmax": 5.44894313580801, 
      "latmin": 51.22915562752045
    }, 
    {
      "latmax": 51.242726830192694, 
      "name": "Hamonterweg", 
      "lonmin": 5.447890015718524, 
      "sanName": "hamonterweg", 
      "numOfAddr": 120, 
      "lonmax": 5.489439189106797, 
      "latmin": 51.23426312476808
    }, 
    {
      "latmax": 51.24583926939159, 
      "name": "Hayenhoek", 
      "lonmin": 5.430120954347728, 
      "sanName": "hayenhoek", 
      "numOfAddr": 115, 
      "lonmax": 5.439059281245148, 
      "latmin": 51.23473528406804
    }, 
    {
      "latmax": 51.228753233524905, 
      "name": "Hazenstraat", 
      "lonmin": 5.436154886861945, 
      "sanName": "hazenstraat", 
      "numOfAddr": 19, 
      "lonmax": 5.437880668273727, 
      "latmin": 51.228167128896935
    }, 
    {
      "latmax": 51.23061456433383, 
      "name": "Heerstraat", 
      "lonmin": 5.434349703799928, 
      "sanName": "heerstraat", 
      "numOfAddr": 89, 
      "lonmax": 5.443567867101594, 
      "latmin": 51.22827894788082
    }, 
    {
      "latmax": 51.201032123664504, 
      "name": "Heidebloemstraat", 
      "lonmin": 5.462290534048531, 
      "sanName": "heidebloemstraat", 
      "numOfAddr": 7, 
      "lonmax": 5.463032292764206, 
      "latmin": 51.20022724824136
    }, 
    {
      "latmax": 51.2210109222026, 
      "name": "Heide-eind", 
      "lonmin": 5.44142155915951, 
      "sanName": "heideeind", 
      "numOfAddr": 21, 
      "lonmax": 5.4435748658175545, 
      "latmin": 51.22043284263697
    }, 
    {
      "latmax": 51.22669548236479, 
      "name": "Heikant", 
      "lonmin": 5.489298024743313, 
      "sanName": "heikant", 
      "numOfAddr": 55, 
      "lonmax": 5.492088779281596, 
      "latmin": 51.21882507910233
    }, 
    {
      "latmax": 51.23938173693557, 
      "name": "Heikesveld", 
      "lonmin": 5.471382608349199, 
      "sanName": "heikesveld", 
      "numOfAddr": 11, 
      "lonmax": 5.477036405887239, 
      "latmin": 51.23790079973765
    }, 
    {
      "latmax": 51.21190442426557, 
      "name": "Herent", 
      "lonmin": 5.441058110800608, 
      "sanName": "herent", 
      "numOfAddr": 184, 
      "lonmax": 5.4648673859289865, 
      "latmin": 51.19868703738763
    }, 
    {
      "latmax": 51.191429134131035, 
      "name": "Herenthoek", 
      "lonmin": 5.439211550294829, 
      "sanName": "herenthoek", 
      "numOfAddr": 7, 
      "lonmax": 5.441738101434099, 
      "latmin": 51.18285289596153
    }, 
    {
      "latmax": 51.22733184160697, 
      "name": "Herfststraat", 
      "lonmin": 5.450404086984513, 
      "sanName": "herfststraat", 
      "numOfAddr": 24, 
      "lonmax": 5.452979144416859, 
      "latmin": 51.226372385586984
    }, 
    {
      "latmax": 51.238701241089615, 
      "name": "Heuvelerweg", 
      "lonmin": 5.47021019919933, 
      "sanName": "heuvelerweg", 
      "numOfAddr": 24, 
      "lonmax": 5.4818464566951155, 
      "latmin": 51.2341584269582
    }, 
    {
      "latmax": 51.23266738448867, 
      "name": "Hockeylaan", 
      "lonmin": 5.408261234731675, 
      "sanName": "hockeylaan", 
      "numOfAddr": 6, 
      "lonmax": 5.412585435442108, 
      "latmin": 51.231852780852115
    }, 
    {
      "latmax": 51.22893764733422, 
      "name": "Hoekstraat", 
      "lonmin": 2.306689562140502, 
      "sanName": "hoekstraat", 
      "numOfAddr": 46, 
      "lonmax": 5.429946323904057, 
      "latmin": 49.293335165093566
    }, 
    {
      "latmax": 51.2185724704283, 
      "name": "Hoevestraat", 
      "lonmin": 5.48697183283431, 
      "sanName": "hoevestraat", 
      "numOfAddr": 12, 
      "lonmax": 5.489197990109184, 
      "latmin": 51.21673638401706
    }, 
    {
      "latmax": 51.22234865782418, 
      "name": "Hofstraat", 
      "lonmin": 5.48386080421388, 
      "sanName": "hofstraat", 
      "numOfAddr": 6, 
      "lonmax": 5.484514255205914, 
      "latmin": 51.221884927885924
    }, 
    {
      "latmax": 51.2205447075671, 
      "name": "Hoge Dries", 
      "lonmin": 5.47502974731167, 
      "sanName": "hogedries", 
      "numOfAddr": 2, 
      "lonmax": 5.475279300558777, 
      "latmin": 51.21969862602909
    }, 
    {
      "latmax": 51.24032367372324, 
      "name": "Holenweg", 
      "lonmin": 5.456071571189943, 
      "sanName": "holenweg", 
      "numOfAddr": 36, 
      "lonmax": 5.4630861562974395, 
      "latmin": 51.23792764162149
    }, 
    {
      "latmax": 51.227910715052666, 
      "name": "Hork", 
      "lonmin": 5.514111581554536, 
      "sanName": "hork", 
      "numOfAddr": 8, 
      "lonmax": 5.523901641010735, 
      "latmin": 51.223796145216944
    }, 
    {
      "latmax": 51.22833061554306, 
      "name": "Hortensialaan", 
      "lonmin": 5.450005598605812, 
      "sanName": "hortensialaan", 
      "numOfAddr": 31, 
      "lonmax": 5.452718194107655, 
      "latmin": 51.22745715087675
    }, 
    {
      "latmax": 51.22556387497202, 
      "name": "Hulststraat", 
      "lonmin": 5.440538524222818, 
      "sanName": "hulststraat", 
      "numOfAddr": 16, 
      "lonmax": 5.442162698036653, 
      "latmin": 51.22432887572827
    }, 
    {
      "latmax": 51.23328054184732, 
      "name": "Jaak Tassetstraat", 
      "lonmin": 5.43107758381706, 
      "sanName": "jaaktassetstraat", 
      "numOfAddr": 54, 
      "lonmax": 5.434070726336735, 
      "latmin": 51.230138673008106
    }, 
    {
      "latmax": 51.23666274008202, 
      "name": "Jachtweg", 
      "lonmin": 5.407258251466081, 
      "sanName": "jachtweg", 
      "numOfAddr": 1, 
      "lonmax": 5.407258251466081, 
      "latmin": 51.23666274008202
    }, 
    {
      "latmax": 51.25677705877347, 
      "name": "Jagerspad", 
      "lonmin": 5.453617132798093, 
      "sanName": "jagerspad", 
      "numOfAddr": 6, 
      "lonmax": 5.456687863723994, 
      "latmin": 51.255188676531496
    }, 
    {
      "latmax": 51.22638706262981, 
      "name": "Jasmijnstraat", 
      "lonmin": 5.454213213050168, 
      "sanName": "jasmijnstraat", 
      "numOfAddr": 8, 
      "lonmax": 5.455129954314064, 
      "latmin": 51.225766045511016
    }, 
    {
      "latmax": 51.230120013915645, 
      "name": "Jos Verlindenstraat", 
      "lonmin": 5.466985359359871, 
      "sanName": "josverlindenstraat", 
      "numOfAddr": 111, 
      "lonmax": 5.481325522806527, 
      "latmin": 51.22708937521541
    }, 
    {
      "latmax": 51.21871149235954, 
      "name": "Kampstraat", 
      "lonmin": 5.4842539494224845, 
      "sanName": "kampstraat", 
      "numOfAddr": 14, 
      "lonmax": 5.485826854486513, 
      "latmin": 51.21720822128501
    }, 
    {
      "latmax": 51.22875483665247, 
      "name": "Kanaalstraat", 
      "lonmin": 5.484220256979677, 
      "sanName": "kanaalstraat", 
      "numOfAddr": 25, 
      "lonmax": 5.485504747328512, 
      "latmin": 51.22667087327723
    }, 
    {
      "latmax": 51.200496944702046, 
      "name": "Kapelweg", 
      "lonmin": 5.443582222960323, 
      "sanName": "kapelweg", 
      "numOfAddr": 42, 
      "lonmax": 5.450392229960944, 
      "latmin": 51.19886216263749
    }, 
    {
      "latmax": 51.23415196228831, 
      "name": "Kastanjedreef", 
      "lonmin": 5.413103749892282, 
      "sanName": "kastanjedreef", 
      "numOfAddr": 1, 
      "lonmax": 5.413103749892282, 
      "latmin": 51.23415196228831
    }, 
    {
      "latmax": 51.22194387132975, 
      "name": "Kaulillerweg", 
      "lonmin": 5.479343386076594, 
      "sanName": "kaulillerweg", 
      "numOfAddr": 92, 
      "lonmax": 5.497951279177973, 
      "latmin": 51.214900320524876
    }, 
    {
      "latmax": 51.22448924028213, 
      "name": "Kavelstraatje", 
      "lonmin": 5.436708408901908, 
      "sanName": "kavelstraatje", 
      "numOfAddr": 1, 
      "lonmax": 5.436708408901908, 
      "latmin": 51.22448924028213
    }, 
    {
      "latmax": 51.22769291576501, 
      "name": "Kempenplein", 
      "lonmin": 5.430740121513085, 
      "sanName": "kempenplein", 
      "numOfAddr": 6, 
      "lonmax": 5.432115274348299, 
      "latmin": 51.22698856644792
    }, 
    {
      "latmax": 51.22677014946469, 
      "name": "Kerkboererf", 
      "lonmin": 5.442918029865012, 
      "sanName": "kerkboererf", 
      "numOfAddr": 18, 
      "lonmax": 5.444848303519267, 
      "latmin": 51.22528469493111
    }, 
    {
      "latmax": 51.22904077631781, 
      "name": "Kerkstraat", 
      "lonmin": 5.430424574087435, 
      "sanName": "kerkstraat", 
      "numOfAddr": 31, 
      "lonmax": 5.433444973107608, 
      "latmin": 51.22808257168032
    }, 
    {
      "latmax": 51.224341068978454, 
      "name": "Kerkveld", 
      "lonmin": 5.484920694730015, 
      "sanName": "kerkveld", 
      "numOfAddr": 5, 
      "lonmax": 5.4858282301552785, 
      "latmin": 51.22401889210258
    }, 
    {
      "latmax": 51.21628610547567, 
      "name": "Kettingbrugweg", 
      "lonmin": 5.501260079255621, 
      "sanName": "kettingbrugweg", 
      "numOfAddr": 3, 
      "lonmax": 5.502780761332002, 
      "latmin": 51.21480759955803
    }, 
    {
      "latmax": 51.21869905871793, 
      "name": "Keutenshoek", 
      "lonmin": 5.4416174434026505, 
      "sanName": "keutenshoek", 
      "numOfAddr": 5, 
      "lonmax": 5.442159379582484, 
      "latmin": 51.21822211342625
    }, 
    {
      "latmax": 51.231646281994784, 
      "name": "Kielstraat", 
      "lonmin": 5.441358611372208, 
      "sanName": "kielstraat", 
      "numOfAddr": 15, 
      "lonmax": 5.442223228718404, 
      "latmin": 51.23068193170458
    }, 
    {
      "latmax": 51.227761481828686, 
      "name": "Kievitstraat", 
      "lonmin": 5.439337240887585, 
      "sanName": "kievitstraat", 
      "numOfAddr": 47, 
      "lonmax": 5.447061875529886, 
      "latmin": 51.22676824160158
    }, 
    {
      "latmax": 51.2485303613649, 
      "name": "Klaverstraat", 
      "lonmin": 5.425709274337609, 
      "sanName": "klaverstraat", 
      "numOfAddr": 14, 
      "lonmax": 5.428590195374844, 
      "latmin": 51.24706232692454
    }, 
    {
      "latmax": 51.22836546559593, 
      "name": "Klein-Molenstraat", 
      "lonmin": 5.445054241313624, 
      "sanName": "kleinmolenstraat", 
      "numOfAddr": 10, 
      "lonmax": 5.445717994233925, 
      "latmin": 51.2274935996107
    }, 
    {
      "latmax": 51.226605890371076, 
      "name": "Klimopstraat", 
      "lonmin": 5.453322586987717, 
      "sanName": "klimopstraat", 
      "numOfAddr": 7, 
      "lonmax": 5.454230748667466, 
      "latmin": 51.22609767704199
    }, 
    {
      "latmax": 51.230102935307855, 
      "name": "Kloosterhof", 
      "lonmin": 5.431166480877482, 
      "sanName": "kloosterhof", 
      "numOfAddr": 1, 
      "lonmax": 5.431166480877482, 
      "latmin": 51.230102935307855
    }, 
    {
      "latmax": 51.23006490938872, 
      "name": "Kloosterstraat", 
      "lonmin": 5.431835214106575, 
      "sanName": "kloosterstraat", 
      "numOfAddr": 19, 
      "lonmax": 5.434126703300546, 
      "latmin": 51.22903726618799
    }, 
    {
      "latmax": 51.23055996742054, 
      "name": "Kluitstraat", 
      "lonmin": 5.450635365215024, 
      "sanName": "kluitstraat", 
      "numOfAddr": 35, 
      "lonmax": 5.453694140259577, 
      "latmin": 51.2287666156585
    }, 
    {
      "latmax": 51.19511141863667, 
      "name": "Kolisbos", 
      "lonmin": 5.463671772813054, 
      "sanName": "kolisbos", 
      "numOfAddr": 16, 
      "lonmax": 5.470459800657123, 
      "latmin": 51.18943574515649
    }, 
    {
      "latmax": 51.19884168514606, 
      "name": "Kolisheide", 
      "lonmin": 5.461189651900184, 
      "sanName": "kolisheide", 
      "numOfAddr": 41, 
      "lonmax": 5.4638706781166055, 
      "latmin": 51.19548532859613
    }, 
    {
      "latmax": 51.23057405687613, 
      "name": "Kolonies", 
      "lonmin": 5.454681367747903, 
      "sanName": "kolonies", 
      "numOfAddr": 26, 
      "lonmax": 5.458567740180648, 
      "latmin": 51.225485328431866
    }, 
    {
      "latmax": 51.22420674198249, 
      "name": "Kompenstraat", 
      "lonmin": 5.482223647118333, 
      "sanName": "kompenstraat", 
      "numOfAddr": 27, 
      "lonmax": 5.484044698020749, 
      "latmin": 51.22111765312276
    }, 
    {
      "latmax": 51.22854550703915, 
      "name": "Koning Albertlaan", 
      "lonmin": 5.430832242593019, 
      "sanName": "koningalbertlaan", 
      "numOfAddr": 30, 
      "lonmax": 5.433972738571427, 
      "latmin": 51.226225267299675
    }, 
    {
      "latmax": 51.230156155748396, 
      "name": "Koning Boudewijnplein", 
      "lonmin": 5.434718816174787, 
      "sanName": "koningboudewijnplein", 
      "numOfAddr": 10, 
      "lonmax": 5.435910537714677, 
      "latmin": 51.229214902437015
    }, 
    {
      "latmax": 51.231200340541946, 
      "name": "Koningin Astridlaan", 
      "lonmin": 5.4262885820055144, 
      "sanName": "koninginastridlaan", 
      "numOfAddr": 17, 
      "lonmax": 5.427019294987163, 
      "latmin": 51.23025586741139
    }, 
    {
      "latmax": 51.22597485582843, 
      "name": "Korenbloemstraat", 
      "lonmin": 5.445868178971396, 
      "sanName": "korenbloemstraat", 
      "numOfAddr": 35, 
      "lonmax": 5.45022347616241, 
      "latmin": 51.22480693389995
    }, 
    {
      "latmax": 51.25383767598682, 
      "name": "Korhoenstraat", 
      "lonmin": 5.431778473794073, 
      "sanName": "korhoenstraat", 
      "numOfAddr": 29, 
      "lonmax": 5.434809539876468, 
      "latmin": 51.25195204190762
    }, 
    {
      "latmax": 51.224384946182354, 
      "name": "Korte Dijk", 
      "lonmin": 5.491175859725902, 
      "sanName": "kortedijk", 
      "numOfAddr": 10, 
      "lonmax": 5.494179579385193, 
      "latmin": 51.22429597125398
    }, 
    {
      "latmax": 51.24183538784958, 
      "name": "Korte-Hayenhoekweg", 
      "lonmin": 5.433740191931065, 
      "sanName": "kortehayenhoekweg", 
      "numOfAddr": 9, 
      "lonmax": 5.434787079287208, 
      "latmin": 51.24072214433062
    }, 
    {
      "latmax": 51.22920203980165, 
      "name": "Korte-Heerstraat", 
      "lonmin": 5.434250641849176, 
      "sanName": "korteheerstraat", 
      "numOfAddr": 6, 
      "lonmax": 5.435003688633069, 
      "latmin": 51.22891864750406
    }, 
    {
      "latmax": 51.220208591134934, 
      "name": "Krekelweg", 
      "lonmin": 5.442736961895074, 
      "sanName": "krekelweg", 
      "numOfAddr": 13, 
      "lonmax": 5.444598222154635, 
      "latmin": 51.21905728308463
    }, 
    {
      "latmax": 51.225856026118755, 
      "name": "Kremerstraat", 
      "lonmin": 5.445321355558847, 
      "sanName": "kremerstraat", 
      "numOfAddr": 2, 
      "lonmax": 5.445527500904345, 
      "latmin": 51.22567597964057
    }, 
    {
      "latmax": 51.22941351351362, 
      "name": "Kruisstraat", 
      "lonmin": 5.476182937168354, 
      "sanName": "kruisstraat", 
      "numOfAddr": 28, 
      "lonmax": 5.481793643083697, 
      "latmin": 51.22798690098179
    }, 
    {
      "latmax": 51.23669227332509, 
      "name": "Kuypersveld", 
      "lonmin": 5.42501969756464, 
      "sanName": "kuypersveld", 
      "numOfAddr": 18, 
      "lonmax": 5.427316027402259, 
      "latmin": 51.236218921498704
    }, 
    {
      "latmax": 51.21726219026128, 
      "name": "Laerstraat", 
      "lonmin": 5.439180281158117, 
      "sanName": "laerstraat", 
      "numOfAddr": 9, 
      "lonmax": 5.440502661957121, 
      "latmin": 51.21672320257359
    }, 
    {
      "latmax": 51.24529371473408, 
      "name": "Langveldweg", 
      "lonmin": 5.43871797123636, 
      "sanName": "langveldweg", 
      "numOfAddr": 29, 
      "lonmax": 5.4440764928408685, 
      "latmin": 51.243456685621354
    }, 
    {
      "latmax": 51.26021612719834, 
      "name": "Larkendreef", 
      "lonmin": 5.445432172513162, 
      "sanName": "larkendreef", 
      "numOfAddr": 31, 
      "lonmax": 5.451255213721716, 
      "latmin": 51.25199571294654
    }, 
    {
      "latmax": 51.2310341177197, 
      "name": "Laukenshof", 
      "lonmin": 5.428450919443716, 
      "sanName": "laukenshof", 
      "numOfAddr": 3, 
      "lonmax": 5.429003908605953, 
      "latmin": 51.23080384915223
    }, 
    {
      "latmax": 51.22765690694199, 
      "name": "Lavendelstraat", 
      "lonmin": 5.44862851698915, 
      "sanName": "lavendelstraat", 
      "numOfAddr": 22, 
      "lonmax": 5.449864766116401, 
      "latmin": 51.22660268682025
    }, 
    {
      "latmax": 51.24456411991443, 
      "name": "Leeuwerikstraat", 
      "lonmin": 5.448665388710807, 
      "sanName": "leeuwerikstraat", 
      "numOfAddr": 2, 
      "lonmax": 5.4486665029648425, 
      "latmin": 51.24386755278275
    }, 
    {
      "latmax": 51.22509866186925, 
      "name": "Leliestraat", 
      "lonmin": 5.453078295523547, 
      "sanName": "leliestraat", 
      "numOfAddr": 7, 
      "lonmax": 5.453931873771802, 
      "latmin": 51.224590057375146
    }, 
    {
      "latmax": 51.249433200998155, 
      "name": "Lentestraat", 
      "lonmin": 5.442168905956482, 
      "sanName": "lentestraat", 
      "numOfAddr": 5, 
      "lonmax": 5.443343246786072, 
      "latmin": 51.248523636204204
    }, 
    {
      "latmax": 51.228239033200424, 
      "name": "Leopoldlaan", 
      "lonmin": 5.430126266394668, 
      "sanName": "leopoldlaan", 
      "numOfAddr": 4, 
      "lonmax": 5.430341636532958, 
      "latmin": 51.22758737415878
    }, 
    {
      "latmax": 51.2279643604318, 
      "name": "Lepelstraat", 
      "lonmin": 5.440092158055513, 
      "sanName": "lepelstraat", 
      "numOfAddr": 55, 
      "lonmax": 5.448525533501257, 
      "latmin": 51.223210755294524
    }, 
    {
      "latmax": 51.25622605309579, 
      "name": "Lijsterdreef", 
      "lonmin": 5.45249209548861, 
      "sanName": "lijsterdreef", 
      "numOfAddr": 5, 
      "lonmax": 5.455371188233149, 
      "latmin": 51.25478215527689
    }, 
    {
      "latmax": 51.24077198096939, 
      "name": "Lillerheidestraat", 
      "lonmin": 5.481293629284962, 
      "sanName": "lillerheidestraat", 
      "numOfAddr": 51, 
      "lonmax": 5.483930681437151, 
      "latmin": 51.23547280943746
    }, 
    {
      "latmax": 51.22531866743597, 
      "name": "Lindestraat", 
      "lonmin": 5.484151533609276, 
      "sanName": "lindestraat", 
      "numOfAddr": 22, 
      "lonmax": 5.489490713375095, 
      "latmin": 51.224278124039124
    }, 
    {
      "latmax": 51.25297707811769, 
      "name": "Lochterdijk", 
      "lonmin": 5.428877487675243, 
      "sanName": "lochterdijk", 
      "numOfAddr": 35, 
      "lonmax": 5.438831750740831, 
      "latmin": 51.2490005809777
    }, 
    {
      "latmax": 51.236521249282134, 
      "name": "Lommelsakker", 
      "lonmin": 5.433420914202277, 
      "sanName": "lommelsakker", 
      "numOfAddr": 11, 
      "lonmax": 5.438913597887584, 
      "latmin": 51.234082132778134
    }, 
    {
      "latmax": 51.22475787057912, 
      "name": "Look", 
      "lonmin": 5.446804604654726, 
      "sanName": "look", 
      "numOfAddr": 24, 
      "lonmax": 5.448442983918318, 
      "latmin": 51.22387448776958
    }, 
    {
      "latmax": 51.22283575983056, 
      "name": "Lupinestraat", 
      "lonmin": 5.448987544248045, 
      "sanName": "lupinestraat", 
      "numOfAddr": 21, 
      "lonmax": 5.452171457391314, 
      "latmin": 51.222041571191006
    }, 
    {
      "latmax": 51.22458744656809, 
      "name": "Madeliefjeshoek", 
      "lonmin": 5.451016673944911, 
      "sanName": "madeliefjeshoek", 
      "numOfAddr": 19, 
      "lonmax": 5.453761091335071, 
      "latmin": 51.223642011457045
    }, 
    {
      "latmax": 51.22954879676473, 
      "name": "Marktplein", 
      "lonmin": 5.430197017399837, 
      "sanName": "marktplein", 
      "numOfAddr": 13, 
      "lonmax": 5.431780764132027, 
      "latmin": 51.229151829319015
    }, 
    {
      "latmax": 51.23266204257942, 
      "name": "Maststraat", 
      "lonmin": 5.44000554459451, 
      "sanName": "maststraat", 
      "numOfAddr": 23, 
      "lonmax": 5.443084285946585, 
      "latmin": 51.23192455619101
    }, 
    {
      "latmax": 51.219928288858426, 
      "name": "Meerkesstraat", 
      "lonmin": 5.488707824796521, 
      "sanName": "meerkesstraat", 
      "numOfAddr": 7, 
      "lonmax": 5.489342862678586, 
      "latmin": 51.219115133583
    }, 
    {
      "latmax": 51.22614860411419, 
      "name": "Meidoornstraat", 
      "lonmin": 5.450327645721919, 
      "sanName": "meidoornstraat", 
      "numOfAddr": 54, 
      "lonmax": 5.452704192553895, 
      "latmin": 51.22397978947187
    }, 
    {
      "latmax": 51.25563883318967, 
      "name": "Mereldreef", 
      "lonmin": 5.4459283626726895, 
      "sanName": "mereldreef", 
      "numOfAddr": 9, 
      "lonmax": 5.447879609026488, 
      "latmin": 51.253607379261986
    }, 
    {
      "latmax": 51.25139545206566, 
      "name": "Mezenweg", 
      "lonmin": 5.450594555628167, 
      "sanName": "mezenweg", 
      "numOfAddr": 6, 
      "lonmax": 5.4530711922476165, 
      "latmin": 51.249114827282355
    }, 
    {
      "latmax": 51.2181037508806, 
      "name": "Molenbroekstraat", 
      "lonmin": 5.43751579678614, 
      "sanName": "molenbroekstraat", 
      "numOfAddr": 36, 
      "lonmax": 5.440797180931556, 
      "latmin": 51.21455375777371
    }, 
    {
      "latmax": 51.230106022734816, 
      "name": "Molenstraat", 
      "lonmin": 5.442328573715071, 
      "sanName": "molenstraat", 
      "numOfAddr": 105, 
      "lonmax": 5.458171807999951, 
      "latmin": 51.227628467664765
    }, 
    {
      "latmax": 51.21637121344695, 
      "name": "Mutserd", 
      "lonmin": 5.445961321306659, 
      "sanName": "mutserd", 
      "numOfAddr": 1, 
      "lonmax": 5.445961321306659, 
      "latmin": 51.21637121344695
    }, 
    {
      "latmax": 51.2215945085865, 
      "name": "Nachtegaalstraat", 
      "lonmin": 5.445759809395561, 
      "sanName": "nachtegaalstraat", 
      "numOfAddr": 69, 
      "lonmax": 5.453365401962598, 
      "latmin": 51.21490078456921
    }, 
    {
      "latmax": 51.23280563006252, 
      "name": "Nieuwstraat", 
      "lonmin": 5.4342197884482735, 
      "sanName": "nieuwstraat", 
      "numOfAddr": 24, 
      "lonmax": 5.437839902952665, 
      "latmin": 51.23003256119514
    }, 
    {
      "latmax": 51.23254286363446, 
      "name": "Norbertinessenlaan", 
      "lonmin": 5.430497376869819, 
      "sanName": "norbertinessenlaan", 
      "numOfAddr": 39, 
      "lonmax": 5.433522167126434, 
      "latmin": 51.22981547193585
    }, 
    {
      "latmax": 51.21401931731212, 
      "name": "Olmenstraat", 
      "lonmin": 5.450187936941007, 
      "sanName": "olmenstraat", 
      "numOfAddr": 10, 
      "lonmax": 5.455084854373769, 
      "latmin": 51.205245104944254
    }, 
    {
      "latmax": 51.24967224916273, 
      "name": "O. L. Vrouwstraat", 
      "lonmin": 5.435193443120312, 
      "sanName": "olvrouwstraat", 
      "numOfAddr": 25, 
      "lonmax": 5.437260270564441, 
      "latmin": 51.24616856247477
    }, 
    {
      "latmax": 51.23132290574657, 
      "name": "Onderwijslaan", 
      "lonmin": 5.429718955522721, 
      "sanName": "onderwijslaan", 
      "numOfAddr": 25, 
      "lonmax": 5.432811086777657, 
      "latmin": 51.22992585840255
    }, 
    {
      "latmax": 51.230560804807226, 
      "name": "Oogststraat", 
      "lonmin": 5.444246154792523, 
      "sanName": "oogststraat", 
      "numOfAddr": 5, 
      "lonmax": 5.444963249424041, 
      "latmin": 51.22975192738024
    }, 
    {
      "latmax": 51.228866859874685, 
      "name": "Oude Brugstraat", 
      "lonmin": 5.481528865666494, 
      "sanName": "oudebrugstraat", 
      "numOfAddr": 9, 
      "lonmax": 5.482526243961223, 
      "latmin": 51.227540794705824
    }, 
    {
      "latmax": 51.23080035078826, 
      "name": "Oude-Kerkhofstraat", 
      "lonmin": 5.437254779814719, 
      "sanName": "oudekerkhofstraat", 
      "numOfAddr": 11, 
      "lonmax": 5.43836082514039, 
      "latmin": 51.229956556680435
    }, 
    {
      "latmax": 51.234197519563715, 
      "name": "Oude Pastorijstraat", 
      "lonmin": 5.485905616740071, 
      "sanName": "oudepastorijstraat", 
      "numOfAddr": 16, 
      "lonmax": 5.4877068680866525, 
      "latmin": 51.23074761056354
    }, 
    {
      "latmax": 51.235301442169394, 
      "name": "Oude Ramp", 
      "lonmin": 5.447393437731941, 
      "sanName": "ouderamp", 
      "numOfAddr": 25, 
      "lonmax": 5.45102019567196, 
      "latmin": 51.23311183427112
    }, 
    {
      "latmax": 51.24393119266125, 
      "name": "Overwegstraat", 
      "lonmin": 5.4380967380063385, 
      "sanName": "overwegstraat", 
      "numOfAddr": 29, 
      "lonmax": 5.442930774638825, 
      "latmin": 51.24162574405965
    }, 
    {
      "latmax": 51.230569180318724, 
      "name": "Paardskerkhofstraat", 
      "lonmin": 5.48478400206734, 
      "sanName": "paardskerkhofstraat", 
      "numOfAddr": 9, 
      "lonmax": 5.485750246474138, 
      "latmin": 51.229798160179
    }, 
    {
      "latmax": 51.230839850085204, 
      "name": "Papaverstraat", 
      "lonmin": 5.445459085792002, 
      "sanName": "papaverstraat", 
      "numOfAddr": 21, 
      "lonmax": 5.449990897194794, 
      "latmin": 51.22993109647494
    }, 
    {
      "latmax": 51.23165426436795, 
      "name": "Parklaan", 
      "lonmin": 5.425218970681341, 
      "sanName": "parklaan", 
      "numOfAddr": 21, 
      "lonmax": 5.428124936806736, 
      "latmin": 51.23116779059464
    }, 
    {
      "latmax": 51.22863102968918, 
      "name": "Pastorijstraat", 
      "lonmin": 5.430071414030485, 
      "sanName": "pastorijstraat", 
      "numOfAddr": 17, 
      "lonmax": 5.431546535494782, 
      "latmin": 51.227178045453286
    }, 
    {
      "latmax": 51.237935350649614, 
      "name": "Pater Pellensstraat", 
      "lonmin": 5.4626259317346495, 
      "sanName": "paterpellensstraat", 
      "numOfAddr": 56, 
      "lonmax": 5.46537528921902, 
      "latmin": 51.231730685373996
    }, 
    {
      "latmax": 51.254104048284724, 
      "name": "Patrijzenpad", 
      "lonmin": 5.454525228493807, 
      "sanName": "patrijzenpad", 
      "numOfAddr": 1, 
      "lonmax": 5.454525228493807, 
      "latmin": 51.254104048284724
    }, 
    {
      "latmax": 51.200917007322005, 
      "name": "Paulusstraat", 
      "lonmin": 5.451401350557833, 
      "sanName": "paulusstraat", 
      "numOfAddr": 2, 
      "lonmax": 5.451707296712628, 
      "latmin": 51.200905842192206
    }, 
    {
      "latmax": 51.22714013609239, 
      "name": "Peerderbaan", 
      "lonmin": 2.306689562140502, 
      "sanName": "peerderbaan", 
      "numOfAddr": 163, 
      "lonmax": 5.482230000864111, 
      "latmin": 49.293335165093566
    }, 
    {
      "latmax": 51.22869392746928, 
      "name": "Pereboomstraat", 
      "lonmin": 5.453343448723824, 
      "sanName": "pereboomstraat", 
      "numOfAddr": 8, 
      "lonmax": 5.454244556638054, 
      "latmin": 51.2281957288519
    }, 
    {
      "latmax": 51.22353747406441, 
      "name": "Pinksterbloemstraat", 
      "lonmin": 5.4487471027593655, 
      "sanName": "pinksterbloemstraat", 
      "numOfAddr": 16, 
      "lonmax": 5.450458657308192, 
      "latmin": 51.22275883706303
    }, 
    {
      "latmax": 51.22739035063022, 
      "name": "Plataanstraat", 
      "lonmin": 5.4480203214195075, 
      "sanName": "plataanstraat", 
      "numOfAddr": 31, 
      "lonmax": 5.450381034550697, 
      "latmin": 51.22580560761539
    }, 
    {
      "latmax": 51.229311543961366, 
      "name": "Polderweg", 
      "lonmin": 5.474304621160926, 
      "sanName": "polderweg", 
      "numOfAddr": 1, 
      "lonmax": 5.474304621160926, 
      "latmin": 51.229311543961366
    }, 
    {
      "latmax": 51.250795728055536, 
      "name": "Polsstraat", 
      "lonmin": 5.440245164072579, 
      "sanName": "polsstraat", 
      "numOfAddr": 34, 
      "lonmax": 5.442511196636006, 
      "latmin": 51.24600545644313
    }, 
    {
      "latmax": 51.23444164345578, 
      "name": "Populierenhof", 
      "lonmin": 5.449196481824551, 
      "sanName": "populierenhof", 
      "numOfAddr": 39, 
      "lonmax": 5.454385689032081, 
      "latmin": 51.232620998020025
    }, 
    {
      "latmax": 51.22095721855519, 
      "name": "Priestbosstraat", 
      "lonmin": 5.47965839379006, 
      "sanName": "priestbosstraat", 
      "numOfAddr": 8, 
      "lonmax": 5.480801132213753, 
      "latmin": 51.220336990633356
    }, 
    {
      "latmax": 51.23230064354616, 
      "name": "Priester Jan Coninxstraat", 
      "lonmin": 5.434626951115754, 
      "sanName": "priesterjanconinxstraat", 
      "numOfAddr": 24, 
      "lonmax": 5.436392222949435, 
      "latmin": 51.23133398382867
    }, 
    {
      "latmax": 51.197268503920405, 
      "name": "Prinsenloopweg", 
      "lonmin": 5.453249570578003, 
      "sanName": "prinsenloopweg", 
      "numOfAddr": 1, 
      "lonmax": 5.453249570578003, 
      "latmin": 51.197268503920405
    }, 
    {
      "latmax": 51.23436903687709, 
      "name": "Ralleylaan", 
      "lonmin": 5.419130651887376, 
      "sanName": "ralleylaan", 
      "numOfAddr": 5, 
      "lonmax": 5.420558982997752, 
      "latmin": 51.233708930952496
    }, 
    {
      "latmax": 51.23755197865198, 
      "name": "Reigerstraat", 
      "lonmin": 5.425420334828175, 
      "sanName": "reigerstraat", 
      "numOfAddr": 7, 
      "lonmax": 5.427206322052235, 
      "latmin": 51.23703179070049
    }, 
    {
      "latmax": 51.22168088228598, 
      "name": "Riesel", 
      "lonmin": 5.487373663763604, 
      "sanName": "riesel", 
      "numOfAddr": 11, 
      "lonmax": 5.489133287970738, 
      "latmin": 51.22099760834706
    }, 
    {
      "latmax": 51.22851345490058, 
      "name": "Riet", 
      "lonmin": 5.464647412127699, 
      "sanName": "riet", 
      "numOfAddr": 6, 
      "lonmax": 5.467787972300719, 
      "latmin": 51.222711755997274
    }, 
    {
      "latmax": 51.22230052713952, 
      "name": "Rikkaartstraat", 
      "lonmin": 5.485256899204402, 
      "sanName": "rikkaartstraat", 
      "numOfAddr": 25, 
      "lonmax": 5.486987512768128, 
      "latmin": 51.22044126229996
    }, 
    {
      "latmax": 51.22254612865131, 
      "name": "Roelanddreef", 
      "lonmin": 5.498240216714943, 
      "sanName": "roelanddreef", 
      "numOfAddr": 1, 
      "lonmax": 5.498240216714943, 
      "latmin": 51.22254612865131
    }, 
    {
      "latmax": 51.251804508976235, 
      "name": "Roggestraat", 
      "lonmin": 5.443572463048872, 
      "sanName": "roggestraat", 
      "numOfAddr": 4, 
      "lonmax": 5.446007859156198, 
      "latmin": 51.250431740863355
    }, 
    {
      "latmax": 51.210829607935246, 
      "name": "Romeinse Dijk", 
      "lonmin": 5.460631549487241, 
      "sanName": "romeinsedijk", 
      "numOfAddr": 11, 
      "lonmax": 5.4643084859154, 
      "latmin": 51.2092755465617
    }, 
    {
      "latmax": 51.21289759157186, 
      "name": "Rooie Pier", 
      "lonmin": 5.4857157582805325, 
      "sanName": "rooiepier", 
      "numOfAddr": 3, 
      "lonmax": 5.487674084767574, 
      "latmin": 51.206275466016514
    }, 
    {
      "latmax": 51.222373248061864, 
      "name": "Roosendijk", 
      "lonmin": 5.440862015120602, 
      "sanName": "roosendijk", 
      "numOfAddr": 77, 
      "lonmax": 5.4548708824673575, 
      "latmin": 51.21611457320345
    }, 
    {
      "latmax": 51.24105774149093, 
      "name": "Schansstraat", 
      "lonmin": 5.42437951138421, 
      "sanName": "schansstraat", 
      "numOfAddr": 17, 
      "lonmax": 5.4260959344327295, 
      "latmin": 51.23955581561193
    }, 
    {
      "latmax": 51.22605934343036, 
      "name": "Schoolstraat", 
      "lonmin": 5.48338807432123, 
      "sanName": "schoolstraat", 
      "numOfAddr": 20, 
      "lonmax": 5.484341708331341, 
      "latmin": 51.224273451167626
    }, 
    {
      "latmax": 51.220893790143286, 
      "name": "Schutterijstraat", 
      "lonmin": 5.4790777287215855, 
      "sanName": "schutterijstraat", 
      "numOfAddr": 10, 
      "lonmax": 5.481651268935138, 
      "latmin": 51.219181250786406
    }, 
    {
      "latmax": 51.22052183410492, 
      "name": "Sigarenmakersstraat", 
      "lonmin": 5.434305688499238, 
      "sanName": "sigarenmakersstraat", 
      "numOfAddr": 8, 
      "lonmax": 5.435727017354301, 
      "latmin": 51.22018187498638
    }, 
    {
      "latmax": 51.226056799569186, 
      "name": "Sint-Hubertusstraat", 
      "lonmin": 5.48625869268806, 
      "sanName": "sinthubertusstraat", 
      "numOfAddr": 16, 
      "lonmax": 5.489145599556866, 
      "latmin": 51.22480411924362
    }, 
    {
      "latmax": 51.230036985654046, 
      "name": "Sint Jorisstraat", 
      "lonmin": 5.447944650385182, 
      "sanName": "sintjorisstraat", 
      "numOfAddr": 25, 
      "lonmax": 5.450463136169953, 
      "latmin": 51.2288122501692
    }, 
    {
      "latmax": 51.23385528493786, 
      "name": "Sint Martensstraat", 
      "lonmin": 5.425495796256495, 
      "sanName": "sintmartensstraat", 
      "numOfAddr": 31, 
      "lonmax": 5.428128391314003, 
      "latmin": 51.23228632849009
    }, 
    {
      "latmax": 51.22075218932038, 
      "name": "Slagmolenstraat", 
      "lonmin": 5.434279566617384, 
      "sanName": "slagmolenstraat", 
      "numOfAddr": 13, 
      "lonmax": 5.436126783816344, 
      "latmin": 51.22069259563551
    }, 
    {
      "latmax": 51.2231694081841, 
      "name": "Sleutelbloemstraat", 
      "lonmin": 5.450569835482735, 
      "sanName": "sleutelbloemstraat", 
      "numOfAddr": 3, 
      "lonmax": 5.451259121480161, 
      "latmin": 51.22266135857481
    }, 
    {
      "latmax": 51.22473932695074, 
      "name": "Smeelstraat", 
      "lonmin": 5.481684970260533, 
      "sanName": "smeelstraat", 
      "numOfAddr": 10, 
      "lonmax": 5.482965582664852, 
      "latmin": 51.22410216091977
    }, 
    {
      "latmax": 51.229967823359274, 
      "name": "Sooi Willemsplein", 
      "lonmin": 5.432098441284797, 
      "sanName": "sooiwillemsplein", 
      "numOfAddr": 4, 
      "lonmax": 5.433028647551109, 
      "latmin": 51.22936443070424
    }, 
    {
      "latmax": 51.217525889501914, 
      "name": "Sparrenlaan", 
      "lonmin": 5.445827721188961, 
      "sanName": "sparrenlaan", 
      "numOfAddr": 22, 
      "lonmax": 5.449442741130714, 
      "latmin": 51.21619278212502
    }, 
    {
      "latmax": 51.220360030382345, 
      "name": "Spoorwegstraat", 
      "lonmin": 5.437313422843994, 
      "sanName": "spoorwegstraat", 
      "numOfAddr": 23, 
      "lonmax": 5.440114550268291, 
      "latmin": 51.21895348714046
    }, 
    {
      "latmax": 51.23200537711188, 
      "name": "St. Antoniusweg", 
      "lonmin": 5.443683726547462, 
      "sanName": "stantoniusweg", 
      "numOfAddr": 55, 
      "lonmax": 5.462548324461206, 
      "latmin": 51.22910149871747
    }, 
    {
      "latmax": 51.228319749899555, 
      "name": "Stationsstraat", 
      "lonmin": 5.433740243869275, 
      "sanName": "stationsstraat", 
      "numOfAddr": 72, 
      "lonmax": 5.437452222106732, 
      "latmin": 51.21903797392529
    }, 
    {
      "latmax": 51.224647095558886, 
      "name": "Steenovenlaan", 
      "lonmin": 5.486250468018695, 
      "sanName": "steenovenlaan", 
      "numOfAddr": 10, 
      "lonmax": 5.487207273726632, 
      "latmin": 51.22348607055244
    }, 
    {
      "latmax": 51.21683539698152, 
      "name": "Ter Biest", 
      "lonmin": 5.45229494497983, 
      "sanName": "terbiest", 
      "numOfAddr": 12, 
      "lonmax": 5.453352995838217, 
      "latmin": 51.215979641880985
    }, 
    {
      "latmax": 51.23246867026338, 
      "name": "Teutenlaan", 
      "lonmin": 5.429554122397146, 
      "sanName": "teutenlaan", 
      "numOfAddr": 18, 
      "lonmax": 5.4308333964898265, 
      "latmin": 51.230754316318446
    }, 
    {
      "latmax": 51.23532507014016, 
      "name": "Tichel", 
      "lonmin": 5.427881242153626, 
      "sanName": "tichel", 
      "numOfAddr": 5, 
      "lonmax": 5.42831973672769, 
      "latmin": 51.23497595174965
    }, 
    {
      "latmax": 51.22309977808086, 
      "name": "Tikbroeken", 
      "lonmin": 5.437809571661657, 
      "sanName": "tikbroeken", 
      "numOfAddr": 32, 
      "lonmax": 5.439782614996788, 
      "latmin": 51.220514366876955
    }, 
    {
      "latmax": 51.26038779039346, 
      "name": "Tisselrietweg", 
      "lonmin": 5.442988314292902, 
      "sanName": "tisselrietweg", 
      "numOfAddr": 51, 
      "lonmax": 5.450542311463815, 
      "latmin": 51.24739483961914
    }, 
    {
      "latmax": 51.2339140779698, 
      "name": "Toekomstlaan", 
      "lonmin": 5.422164456103578, 
      "sanName": "toekomstlaan", 
      "numOfAddr": 35, 
      "lonmax": 5.425304402399669, 
      "latmin": 51.2300928602286
    }, 
    {
      "latmax": 51.20695253580129, 
      "name": "Tongersvenweg", 
      "lonmin": 5.444410943768289, 
      "sanName": "tongersvenweg", 
      "numOfAddr": 10, 
      "lonmax": 5.445733811029951, 
      "latmin": 51.206465209219715
    }, 
    {
      "latmax": 51.22270047246264, 
      "name": "Torbeekstraat", 
      "lonmin": 5.4753538307360206, 
      "sanName": "torbeekstraat", 
      "numOfAddr": 15, 
      "lonmax": 5.478585883486203, 
      "latmin": 51.221863022118875
    }, 
    {
      "latmax": 51.198466392901814, 
      "name": "Torenstraat", 
      "lonmin": 5.465886883142212, 
      "sanName": "torenstraat", 
      "numOfAddr": 13, 
      "lonmax": 5.4724084185806054, 
      "latmin": 51.196530875719695
    }, 
    {
      "latmax": 51.21957588926811, 
      "name": "Trapluststraat", 
      "lonmin": 5.439555863508397, 
      "sanName": "trapluststraat", 
      "numOfAddr": 3, 
      "lonmax": 5.439879636776022, 
      "latmin": 51.21931981503272
    }, 
    {
      "latmax": 51.231254326276755, 
      "name": "Tuinwijk", 
      "lonmin": 5.451116123329819, 
      "sanName": "tuinwijk", 
      "numOfAddr": 14, 
      "lonmax": 5.453153047344074, 
      "latmin": 51.23070265009225
    }, 
    {
      "latmax": 51.255438588141566, 
      "name": "Turfheidestraat", 
      "lonmin": 5.429354986183796, 
      "sanName": "turfheidestraat", 
      "numOfAddr": 71, 
      "lonmax": 5.4333686786488, 
      "latmin": 51.252516723532054
    }, 
    {
      "latmax": 51.248828508922, 
      "name": "Tussenstraat", 
      "lonmin": 5.416440079593355, 
      "sanName": "tussenstraat", 
      "numOfAddr": 12, 
      "lonmax": 5.42122376284953, 
      "latmin": 51.238252339325456
    }, 
    {
      "latmax": 51.23821083081996, 
      "name": "Uilenstraat", 
      "lonmin": 5.426281118714096, 
      "sanName": "uilenstraat", 
      "numOfAddr": 4, 
      "lonmax": 5.426446304437231, 
      "latmin": 51.23760878178609
    }, 
    {
      "latmax": 51.22527816497257, 
      "name": "Veldstraat", 
      "lonmin": 5.477637217732545, 
      "sanName": "veldstraat", 
      "numOfAddr": 6, 
      "lonmax": 5.4789161819778345, 
      "latmin": 51.225077918780734
    }, 
    {
      "latmax": 51.23494517777889, 
      "name": "Venderstraat", 
      "lonmin": 5.48221756742553, 
      "sanName": "venderstraat", 
      "numOfAddr": 39, 
      "lonmax": 5.483585896283926, 
      "latmin": 51.230035433457125
    }, 
    {
      "latmax": 51.25257144599682, 
      "name": "Vennenstraat", 
      "lonmin": 5.433538315808059, 
      "sanName": "vennenstraat", 
      "numOfAddr": 22, 
      "lonmax": 5.4390592623906535, 
      "latmin": 51.25102057307863
    }, 
    {
      "latmax": 51.223279774844016, 
      "name": "Veurterstraat", 
      "lonmin": 5.483940227808787, 
      "sanName": "veurterstraat", 
      "numOfAddr": 51, 
      "lonmax": 5.489906741814439, 
      "latmin": 51.21953681784895
    }, 
    {
      "latmax": 51.215678132932176, 
      "name": "Vijverstraat", 
      "lonmin": 5.440012960218092, 
      "sanName": "vijverstraat", 
      "numOfAddr": 5, 
      "lonmax": 5.440768146464843, 
      "latmin": 51.21535593843468
    }, 
    {
      "latmax": 51.25481464436571, 
      "name": "Vinkendreef", 
      "lonmin": 5.450370247889283, 
      "sanName": "vinkendreef", 
      "numOfAddr": 10, 
      "lonmax": 5.456422988864251, 
      "latmin": 51.25130387073319
    }, 
    {
      "latmax": 51.25709523851243, 
      "name": "Vlasrootweg", 
      "lonmin": 5.426604913777803, 
      "sanName": "vlasrootweg", 
      "numOfAddr": 46, 
      "lonmax": 5.437779784274261, 
      "latmin": 51.253849930518115
    }, 
    {
      "latmax": 51.21835639983706, 
      "name": "Voetbalstraat", 
      "lonmin": 5.439784695458596, 
      "sanName": "voetbalstraat", 
      "numOfAddr": 8, 
      "lonmax": 5.440793638721986, 
      "latmin": 51.21742102673662
    }, 
    {
      "latmax": 51.237114450284444, 
      "name": "Volmolenstraat", 
      "lonmin": 5.420837649934916, 
      "sanName": "volmolenstraat", 
      "numOfAddr": 47, 
      "lonmax": 5.429919148086028, 
      "latmin": 51.234967447600496
    }, 
    {
      "latmax": 51.22655510059372, 
      "name": "Vonderstraat", 
      "lonmin": 5.431710203876317, 
      "sanName": "vonderstraat", 
      "numOfAddr": 1, 
      "lonmax": 5.431710203876317, 
      "latmin": 51.22655510059372
    }, 
    {
      "latmax": 51.224009392947124, 
      "name": "Voort", 
      "lonmin": 5.4880331220727765, 
      "sanName": "voort", 
      "numOfAddr": 16, 
      "lonmax": 5.489020557503232, 
      "latmin": 51.22250338014559
    }, 
    {
      "latmax": 51.21370838794642, 
      "name": "Voorzet", 
      "lonmin": 5.441747983510907, 
      "sanName": "voorzet", 
      "numOfAddr": 20, 
      "lonmax": 5.442999613081078, 
      "latmin": 51.21259737420556
    }, 
    {
      "latmax": 51.22809711206908, 
      "name": "Vrijheidsstraat", 
      "lonmin": 5.435698183669476, 
      "sanName": "vrijheidsstraat", 
      "numOfAddr": 23, 
      "lonmax": 5.437484243349817, 
      "latmin": 51.22730024351876
    }, 
    {
      "latmax": 51.23450859109283, 
      "name": "Wandeldreef", 
      "lonmin": 5.414528695281175, 
      "sanName": "wandeldreef", 
      "numOfAddr": 5, 
      "lonmax": 5.414945583919246, 
      "latmin": 51.23298576998269
    }, 
    {
      "latmax": 51.235318238697005, 
      "name": "Wateringstraat", 
      "lonmin": 5.451649772867903, 
      "sanName": "wateringstraat", 
      "numOfAddr": 41, 
      "lonmax": 5.45636196699574, 
      "latmin": 51.232387250990996
    }, 
    {
      "latmax": 51.22175065002696, 
      "name": "Watermolenstraat", 
      "lonmin": 5.434640098099504, 
      "sanName": "watermolenstraat", 
      "numOfAddr": 8, 
      "lonmax": 5.435515496965177, 
      "latmin": 51.22107453988913
    }, 
    {
      "latmax": 51.24999345894856, 
      "name": "Weidenstraat", 
      "lonmin": 2.306689562140502, 
      "sanName": "weidenstraat", 
      "numOfAddr": 56, 
      "lonmax": 5.4365362693385535, 
      "latmin": 49.293335165093566
    }, 
    {
      "latmax": 51.226143373606824, 
      "name": "Wijerpad", 
      "lonmin": 5.482327353470474, 
      "sanName": "wijerpad", 
      "numOfAddr": 11, 
      "lonmax": 5.483593932533383, 
      "latmin": 51.22569047886308
    }, 
    {
      "latmax": 51.22755163947445, 
      "name": "Wijngaardstraat", 
      "lonmin": 5.454331994876516, 
      "sanName": "wijngaardstraat", 
      "numOfAddr": 10, 
      "lonmax": 5.455221970272113, 
      "latmin": 51.226664623642044
    }, 
    {
      "latmax": 51.26138429872696, 
      "name": "Wildlaan", 
      "lonmin": 5.448302783056072, 
      "sanName": "wildlaan", 
      "numOfAddr": 21, 
      "lonmax": 5.453877046497009, 
      "latmin": 51.25287758134032
    }, 
    {
      "latmax": 51.202270352614875, 
      "name": "Willebrordusstraat", 
      "lonmin": 5.443232103720577, 
      "sanName": "willebrordusstraat", 
      "numOfAddr": 28, 
      "lonmax": 5.4509968598761835, 
      "latmin": 51.19374695638045
    }, 
    {
      "latmax": 51.22354598117817, 
      "name": "Windmolenstraat", 
      "lonmin": 5.479968596989551, 
      "sanName": "windmolenstraat", 
      "numOfAddr": 16, 
      "lonmax": 5.482528251499479, 
      "latmin": 51.22217749473181
    }, 
    {
      "latmax": 51.26074251082819, 
      "name": "Woudweg", 
      "lonmin": 5.4470470362469205, 
      "sanName": "woudweg", 
      "numOfAddr": 30, 
      "lonmax": 5.4524681076882935, 
      "latmin": 51.252304758904316
    }, 
    {
      "latmax": 51.226965542777414, 
      "name": "Zandstraat", 
      "lonmin": 5.464915854843945, 
      "sanName": "zandstraat", 
      "numOfAddr": 50, 
      "lonmax": 5.480480597679303, 
      "latmin": 51.21816554385249
    }, 
    {
      "latmax": 51.246212509239015, 
      "name": "Zonhoekstraat", 
      "lonmin": 5.423319655879454, 
      "sanName": "zonhoekstraat", 
      "numOfAddr": 126, 
      "lonmax": 5.438681689545799, 
      "latmin": 51.23621910593843
    }, 
    {
      "latmax": 51.22534791107611, 
      "name": "Zonnebloemweg", 
      "lonmin": 5.447251043345224, 
      "sanName": "zonnebloemweg", 
      "numOfAddr": 38, 
      "lonmax": 5.4499722875145915, 
      "latmin": 51.224172125672595
    }
  ]
}