{
  "streets": [
    {
      "latmax": 51.23274100368878, 
      "name": "Aangelagstraat", 
      "lonmin": 5.346171843580123, 
      "sanName": "aangelagstraat", 
      "numOfAddr": 1, 
      "lonmax": 5.346171843580123, 
      "latmin": 51.23274100368878
    }, 
    {
      "latmax": 51.245718475835304, 
      "name": "Acaciastraat", 
      "lonmin": 5.336448968789486, 
      "sanName": "acaciastraat", 
      "numOfAddr": 36, 
      "lonmax": 5.342504166140806, 
      "latmin": 51.243816430288796
    }, 
    {
      "latmax": 51.23427521940834, 
      "name": "Adelberg", 
      "lonmin": 5.296221838787228, 
      "sanName": "adelberg", 
      "numOfAddr": 110, 
      "lonmax": 5.308622802600952, 
      "latmin": 51.23247391619786
    }, 
    {
      "latmax": 51.233616229949476, 
      "name": "Adelbergpark", 
      "lonmin": 5.302036783478128, 
      "sanName": "adelbergpark", 
      "numOfAddr": 64, 
      "lonmax": 5.309427160348452, 
      "latmin": 51.22554787376197
    }, 
    {
      "latmax": 51.24037311921715, 
      "name": "Akkerstraat", 
      "lonmin": 5.318704441357134, 
      "sanName": "akkerstraat", 
      "numOfAddr": 34, 
      "lonmax": 5.320931384562394, 
      "latmin": 51.23772502210241
    }, 
    {
      "latmax": 51.249391176723265, 
      "name": "Albert Servaesdreef", 
      "lonmin": 5.316203368868023, 
      "sanName": "albertservaesdreef", 
      "numOfAddr": 53, 
      "lonmax": 5.318442238368044, 
      "latmin": 51.24063011252231
    }, 
    {
      "latmax": 51.23274879109015, 
      "name": "Albrecht Rodenbachstraat", 
      "lonmin": 5.283195471010946, 
      "sanName": "albrechtrodenbachstraat", 
      "numOfAddr": 11, 
      "lonmax": 5.283974833858606, 
      "latmin": 51.23189832297361
    }, 
    {
      "latmax": 51.226492840359306, 
      "name": "Alice Nahonstraat", 
      "lonmin": 5.287103134840694, 
      "sanName": "alicenahonstraat", 
      "numOfAddr": 18, 
      "lonmax": 5.289120343434595, 
      "latmin": 51.22594610370438
    }, 
    {
      "latmax": 51.23911215070076, 
      "name": "Ambachtenweg", 
      "lonmin": 5.3539283120102565, 
      "sanName": "ambachtenweg", 
      "numOfAddr": 10, 
      "lonmax": 5.359929074830017, 
      "latmin": 51.238503619207236
    }, 
    {
      "latmax": 51.228998503727986, 
      "name": "Anjerstraat", 
      "lonmin": 5.266156486725728, 
      "sanName": "anjerstraat", 
      "numOfAddr": 21, 
      "lonmax": 5.267549712554746, 
      "latmin": 51.22701731842185
    }, 
    {
      "latmax": 51.23801685659377, 
      "name": "Ankerstraat", 
      "lonmin": 5.225781573367877, 
      "sanName": "ankerstraat", 
      "numOfAddr": 11, 
      "lonmax": 5.23191676009665, 
      "latmin": 51.226844544127864
    }, 
    {
      "latmax": 51.21556661529899, 
      "name": "Anton Philipsweg", 
      "lonmin": 5.292801936588156, 
      "sanName": "antonphilipsweg", 
      "numOfAddr": 2, 
      "lonmax": 5.29529135585795, 
      "latmin": 51.21363764984538
    }, 
    {
      "latmax": 51.254102075579205, 
      "name": "Antoon Delemazurestraat", 
      "lonmin": 5.37305059152281, 
      "sanName": "antoondelemazurestraat", 
      "numOfAddr": 30, 
      "lonmax": 5.375639982013011, 
      "latmin": 51.252471352757915
    }, 
    {
      "latmax": 51.23796366885272, 
      "name": "Antoon Vandendungenstraat", 
      "lonmin": 5.3729690172456985, 
      "sanName": "antoonvandendungenstraat", 
      "numOfAddr": 19, 
      "lonmax": 5.37575070298974, 
      "latmin": 51.23692968749408
    }, 
    {
      "latmax": 51.22668979726826, 
      "name": "Arendstraat", 
      "lonmin": 5.301023887043619, 
      "sanName": "arendstraat", 
      "numOfAddr": 9, 
      "lonmax": 5.302224691476454, 
      "latmin": 51.226193142494836
    }, 
    {
      "latmax": 51.23131585334924, 
      "name": "August Vermeylenstraat", 
      "lonmin": 5.277311854419332, 
      "sanName": "augustvermeylenstraat", 
      "numOfAddr": 28, 
      "lonmax": 5.279492780588572, 
      "latmin": 51.22971844539098
    }, 
    {
      "latmax": 51.22131718263222, 
      "name": "Averbodestraat", 
      "lonmin": 5.325937177444643, 
      "sanName": "averbodestraat", 
      "numOfAddr": 27, 
      "lonmax": 5.328200228066167, 
      "latmin": 51.21896122136738
    }, 
    {
      "latmax": 51.20721676499091, 
      "name": "Bakhuisstraat", 
      "lonmin": 5.309886769002437, 
      "sanName": "bakhuisstraat", 
      "numOfAddr": 25, 
      "lonmax": 5.3165683369666565, 
      "latmin": 51.206413346235955
    }, 
    {
      "latmax": 51.23595022428741, 
      "name": "Bakkersakker", 
      "lonmin": 5.309029961380939, 
      "sanName": "bakkersakker", 
      "numOfAddr": 3, 
      "lonmax": 5.309823069798627, 
      "latmin": 51.235273061357006
    }, 
    {
      "latmax": 51.22513274204592, 
      "name": "Balendijk", 
      "lonmin": 5.2635544067539595, 
      "sanName": "balendijk", 
      "numOfAddr": 155, 
      "lonmax": 5.307082330510304, 
      "latmin": 51.214210702756354
    }, 
    {
      "latmax": 51.23452148941583, 
      "name": "Beekstraat", 
      "lonmin": 5.366629718681073, 
      "sanName": "beekstraat", 
      "numOfAddr": 8, 
      "lonmax": 5.3679214212216095, 
      "latmin": 51.23288408511241
    }, 
    {
      "latmax": 51.22812047985012, 
      "name": "Beemdstraat", 
      "lonmin": 5.336925877040751, 
      "sanName": "beemdstraat", 
      "numOfAddr": 60, 
      "lonmax": 5.348197303145331, 
      "latmin": 51.224328825591186
    }, 
    {
      "latmax": 51.20633585981861, 
      "name": "Bergstraat", 
      "lonmin": 5.3086835418831715, 
      "sanName": "bergstraat", 
      "numOfAddr": 39, 
      "lonmax": 5.316187641092728, 
      "latmin": 51.20554768456683
    }, 
    {
      "latmax": 51.24669643769511, 
      "name": "Bettevennen", 
      "lonmin": 5.338450218250684, 
      "sanName": "bettevennen", 
      "numOfAddr": 6, 
      "lonmax": 5.339156888912266, 
      "latmin": 51.24608486590166
    }, 
    {
      "latmax": 51.24128859518581, 
      "name": "Bevrijdingslaan", 
      "lonmin": 5.361455270644831, 
      "sanName": "bevrijdingslaan", 
      "numOfAddr": 12, 
      "lonmax": 5.3625653921391825, 
      "latmin": 51.23854878029122
    }, 
    {
      "latmax": 51.210680127846764, 
      "name": "Bezemstraat", 
      "lonmin": 5.311980126130689, 
      "sanName": "bezemstraat", 
      "numOfAddr": 23, 
      "lonmax": 5.315678444174611, 
      "latmin": 51.209951427012555
    }, 
    {
      "latmax": 51.206983792002525, 
      "name": "Biehal", 
      "lonmin": 5.311965398304326, 
      "sanName": "biehal", 
      "numOfAddr": 8, 
      "lonmax": 5.312596945701013, 
      "latmin": 51.206257995934344
    }, 
    {
      "latmax": 51.18096346412526, 
      "name": "Bietenstraat", 
      "lonmin": 5.291455565694611, 
      "sanName": "bietenstraat", 
      "numOfAddr": 3, 
      "lonmax": 5.295004552271143, 
      "latmin": 51.18046925495962
    }, 
    {
      "latmax": 51.245915861382436, 
      "name": "Biezenkuilstraat", 
      "lonmin": 5.3199025273910445, 
      "sanName": "biezenkuilstraat", 
      "numOfAddr": 7, 
      "lonmax": 5.321143214471729, 
      "latmin": 51.24493461982587
    }, 
    {
      "latmax": 51.22339891342976, 
      "name": "Binnensingel", 
      "lonmin": 5.303723294471494, 
      "sanName": "binnensingel", 
      "numOfAddr": 17, 
      "lonmax": 5.312675918058136, 
      "latmin": 51.22256725324777
    }, 
    {
      "latmax": 51.23732503744885, 
      "name": "Blauwe Kei", 
      "lonmin": 5.215125633008743, 
      "sanName": "blauwekei", 
      "numOfAddr": 19, 
      "lonmax": 5.225189161958839, 
      "latmin": 51.22457896554499
    }, 
    {
      "latmax": 51.25570065808884, 
      "name": "Blekerheide", 
      "lonmin": 5.283519407940289, 
      "sanName": "blekerheide", 
      "numOfAddr": 1, 
      "lonmax": 5.283519407940289, 
      "latmin": 51.25570065808884
    }, 
    {
      "latmax": 51.22665583841057, 
      "name": "Blekerijstraat", 
      "lonmin": 5.322016339192148, 
      "sanName": "blekerijstraat", 
      "numOfAddr": 4, 
      "lonmax": 5.322307367387664, 
      "latmin": 51.22639604215562
    }, 
    {
      "latmax": 51.18573236316962, 
      "name": "Bloemstraat", 
      "lonmin": 5.29027730833989, 
      "sanName": "bloemstraat", 
      "numOfAddr": 3, 
      "lonmax": 5.290394976616613, 
      "latmin": 51.18493881604612
    }, 
    {
      "latmax": 51.2393258787443, 
      "name": "Bochtstraat", 
      "lonmin": 5.310435326651252, 
      "sanName": "bochtstraat", 
      "numOfAddr": 17, 
      "lonmax": 5.313244407385671, 
      "latmin": 51.23820427891888
    }, 
    {
      "latmax": 51.240895262340786, 
      "name": "Boekbindersweg", 
      "lonmin": 5.355924164351996, 
      "sanName": "boekbindersweg", 
      "numOfAddr": 47, 
      "lonmax": 5.35969744191341, 
      "latmin": 51.23817639251547
    }, 
    {
      "latmax": 51.183164671825985, 
      "name": "Boekweitstraat", 
      "lonmin": 5.2783541940871785, 
      "sanName": "boekweitstraat", 
      "numOfAddr": 26, 
      "lonmax": 5.278775410267531, 
      "latmin": 51.175486488883685
    }, 
    {
      "latmax": 51.24262701439292, 
      "name": "Bokkerijdersweg", 
      "lonmin": 5.347557147910856, 
      "sanName": "bokkerijdersweg", 
      "numOfAddr": 25, 
      "lonmax": 5.352146908719879, 
      "latmin": 51.24032152577817
    }, 
    {
      "latmax": 51.24309450743583, 
      "name": "Boldriesstraat", 
      "lonmin": 5.336544496442306, 
      "sanName": "boldriesstraat", 
      "numOfAddr": 12, 
      "lonmax": 5.337069887124849, 
      "latmin": 51.24172537301604
    }, 
    {
      "latmax": 51.24100747286841, 
      "name": "Bondgenotenlaan", 
      "lonmin": 5.362690873316982, 
      "sanName": "bondgenotenlaan", 
      "numOfAddr": 34, 
      "lonmax": 5.3663531101796265, 
      "latmin": 51.23973492599474
    }, 
    {
      "latmax": 51.22920389540972, 
      "name": "Bonenven", 
      "lonmin": 5.293306701790742, 
      "sanName": "bonenven", 
      "numOfAddr": 39, 
      "lonmax": 5.295212877243024, 
      "latmin": 51.226088783912616
    }, 
    {
      "latmax": 51.218096041247705, 
      "name": "Boogstraat", 
      "lonmin": 5.315598292466359, 
      "sanName": "boogstraat", 
      "numOfAddr": 21, 
      "lonmax": 5.317546994017825, 
      "latmin": 51.21619170458544
    }, 
    {
      "latmax": 51.236662272804764, 
      "name": "Boomgaardstraat", 
      "lonmin": 5.3359688779278, 
      "sanName": "boomgaardstraat", 
      "numOfAddr": 5, 
      "lonmax": 5.336616494889256, 
      "latmin": 51.23615202462125
    }, 
    {
      "latmax": 51.26817585795964, 
      "name": "Borkelsedijk", 
      "lonmin": 5.377657899239699, 
      "sanName": "borkelsedijk", 
      "numOfAddr": 6, 
      "lonmax": 5.385571146412939, 
      "latmin": 51.262138489057016
    }, 
    {
      "latmax": 51.24343468811364, 
      "name": "Boskantstraat", 
      "lonmin": 5.368458706353621, 
      "sanName": "boskantstraat", 
      "numOfAddr": 12, 
      "lonmax": 5.378635666867886, 
      "latmin": 51.240905295365856
    }, 
    {
      "latmax": 51.25321392412389, 
      "name": "Bosrandstraat", 
      "lonmin": 5.316717182566751, 
      "sanName": "bosrandstraat", 
      "numOfAddr": 3, 
      "lonmax": 5.328653931449475, 
      "latmin": 51.25086433332233
    }, 
    {
      "latmax": 51.24521815759941, 
      "name": "Bosstraat", 
      "lonmin": 5.327440164748621, 
      "sanName": "bosstraat", 
      "numOfAddr": 10, 
      "lonmax": 5.328673629323983, 
      "latmin": 51.24460537096907
    }, 
    {
      "latmax": 51.226296770688684, 
      "name": "Brasemstraat", 
      "lonmin": 5.257699430293455, 
      "sanName": "brasemstraat", 
      "numOfAddr": 7, 
      "lonmax": 5.258979044982431, 
      "latmin": 51.22585082463504
    }, 
    {
      "latmax": 51.25844893791774, 
      "name": "Bremstraat", 
      "lonmin": 5.371541163526036, 
      "sanName": "bremstraat", 
      "numOfAddr": 10, 
      "lonmax": 5.373409752889013, 
      "latmin": 51.25581640356147
    }, 
    {
      "latmax": 51.16471248229001, 
      "name": "Broekstraat", 
      "lonmin": 5.271842273891866, 
      "sanName": "broekstraat", 
      "numOfAddr": 28, 
      "lonmax": 5.28499438985442, 
      "latmin": 51.16125658290251
    }, 
    {
      "latmax": 51.23115329460301, 
      "name": "Bronstraat", 
      "lonmin": 5.295409678369247, 
      "sanName": "bronstraat", 
      "numOfAddr": 10, 
      "lonmax": 5.296189872823602, 
      "latmin": 51.23003617425975
    }, 
    {
      "latmax": 51.23632091849515, 
      "name": "Brouwerijstraat", 
      "lonmin": 5.305959767026411, 
      "sanName": "brouwerijstraat", 
      "numOfAddr": 8, 
      "lonmax": 5.306962224253029, 
      "latmin": 51.234529472916186
    }, 
    {
      "latmax": 51.22274834027715, 
      "name": "Buitensingel", 
      "lonmin": 5.302442933268348, 
      "sanName": "buitensingel", 
      "numOfAddr": 32, 
      "lonmax": 5.323010886021583, 
      "latmin": 51.22076789208274
    }, 
    {
      "latmax": 51.22935959184051, 
      "name": "Buizerdstraat", 
      "lonmin": 5.289596832472786, 
      "sanName": "buizerdstraat", 
      "numOfAddr": 38, 
      "lonmax": 5.294231574620831, 
      "latmin": 51.225934455774166
    }, 
    {
      "latmax": 51.21735939615211, 
      "name": "Buksstraat", 
      "lonmin": 5.315991738507792, 
      "sanName": "buksstraat", 
      "numOfAddr": 3, 
      "lonmax": 5.3164947062414525, 
      "latmin": 51.21718355756548
    }, 
    {
      "latmax": 51.236593680800496, 
      "name": "Buntstraat", 
      "lonmin": 5.3559578335816385, 
      "sanName": "buntstraat", 
      "numOfAddr": 99, 
      "lonmax": 5.371797973482343, 
      "latmin": 51.23502877256199
    }, 
    {
      "latmax": 51.23853990048314, 
      "name": "Burgemeesterstraat", 
      "lonmin": 5.352443191961338, 
      "sanName": "burgemeesterstraat", 
      "numOfAddr": 94, 
      "lonmax": 5.368455997309447, 
      "latmin": 51.237431538410306
    }, 
    {
      "latmax": 51.18999655925011, 
      "name": "Buskruitstraat", 
      "lonmin": 5.25370386745445, 
      "sanName": "buskruitstraat", 
      "numOfAddr": 42, 
      "lonmax": 5.2732593700850385, 
      "latmin": 51.18359052949601
    }, 
    {
      "latmax": 51.21653383115335, 
      "name": "Christoffel Plantijnstraat", 
      "lonmin": 5.273811662573522, 
      "sanName": "christoffelplantijnstraat", 
      "numOfAddr": 8, 
      "lonmax": 5.276336511699964, 
      "latmin": 51.21461470741894
    }, 
    {
      "latmax": 51.231027075786606, 
      "name": "Cijnshofstraat", 
      "lonmin": 5.336150774436497, 
      "sanName": "cijnshofstraat", 
      "numOfAddr": 7, 
      "lonmax": 5.336883606491892, 
      "latmin": 51.23084053230261
    }, 
    {
      "latmax": 51.250600736711284, 
      "name": "David Teniersdreef", 
      "lonmin": 5.311549008550455, 
      "sanName": "davidteniersdreef", 
      "numOfAddr": 18, 
      "lonmax": 5.313054308572389, 
      "latmin": 51.24760341308529
    }, 
    {
      "latmax": 51.23159257012486, 
      "name": "De Vryheyt", 
      "lonmin": 5.308141515392326, 
      "sanName": "devryheyt", 
      "numOfAddr": 13, 
      "lonmax": 5.308920719008484, 
      "latmin": 51.230873883583655
    }, 
    {
      "latmax": 51.25015907253608, 
      "name": "Dirk Boutsdreef", 
      "lonmin": 5.314941599813055, 
      "sanName": "dirkboutsdreef", 
      "numOfAddr": 13, 
      "lonmax": 5.317386668338382, 
      "latmin": 51.248675935388974
    }, 
    {
      "latmax": 51.190737891398975, 
      "name": "Dodenveldstraat", 
      "lonmin": 5.305451391406121, 
      "sanName": "dodenveldstraat", 
      "numOfAddr": 1, 
      "lonmax": 5.305451391406121, 
      "latmin": 51.190737891398975
    }, 
    {
      "latmax": 51.223547881294785, 
      "name": "Doelenstraat", 
      "lonmin": 5.314817977487624, 
      "sanName": "doelenstraat", 
      "numOfAddr": 26, 
      "lonmax": 5.318655182107747, 
      "latmin": 51.22245862025321
    }, 
    {
      "latmax": 51.22739917050422, 
      "name": "Don Boscostraat", 
      "lonmin": 5.308065729540573, 
      "sanName": "donboscostraat", 
      "numOfAddr": 18, 
      "lonmax": 5.310600318539764, 
      "latmin": 51.226819258743
    }, 
    {
      "latmax": 51.231257810659685, 
      "name": "Donkerstraat", 
      "lonmin": 5.2948819806521215, 
      "sanName": "donkerstraat", 
      "numOfAddr": 31, 
      "lonmax": 5.301969783388778, 
      "latmin": 51.229740464537855
    }, 
    {
      "latmax": 51.23579667461455, 
      "name": "Doorgangsweg", 
      "lonmin": 5.304712180664525, 
      "sanName": "doorgangsweg", 
      "numOfAddr": 10, 
      "lonmax": 5.306399135793366, 
      "latmin": 51.23527457444773
    }, 
    {
      "latmax": 51.23161722144971, 
      "name": "Dorp", 
      "lonmin": 5.306020189308006, 
      "sanName": "dorp", 
      "numOfAddr": 67, 
      "lonmax": 5.30965281957939, 
      "latmin": 51.23003451337476
    }, 
    {
      "latmax": 51.229602829216184, 
      "name": "Dorperheide", 
      "lonmin": 5.263981904871108, 
      "sanName": "dorperheide", 
      "numOfAddr": 24, 
      "lonmax": 5.26913570856569, 
      "latmin": 51.22886686494418
    }, 
    {
      "latmax": 51.23835878087507, 
      "name": "Driehoek", 
      "lonmin": 5.331607629308309, 
      "sanName": "driehoek", 
      "numOfAddr": 70, 
      "lonmax": 5.3357205297586985, 
      "latmin": 51.232287521417874
    }, 
    {
      "latmax": 51.172219573941334, 
      "name": "Driekooien", 
      "lonmin": 5.270033926563946, 
      "sanName": "driekooien", 
      "numOfAddr": 58, 
      "lonmax": 5.282814621267139, 
      "latmin": 51.16849448754431
    }, 
    {
      "latmax": 51.22891079490261, 
      "name": "Drift", 
      "lonmin": 5.291264231116866, 
      "sanName": "drift", 
      "numOfAddr": 30, 
      "lonmax": 5.295711247706099, 
      "latmin": 51.2264858030973
    }, 
    {
      "latmax": 51.227101778276015, 
      "name": "Dubbelrij", 
      "lonmin": 5.256237126997703, 
      "sanName": "dubbelrij", 
      "numOfAddr": 71, 
      "lonmax": 5.2620975280527835, 
      "latmin": 51.218890904496995
    }, 
    {
      "latmax": 51.22127349415824, 
      "name": "Duinenstraat", 
      "lonmin": 5.291912196590953, 
      "sanName": "duinenstraat", 
      "numOfAddr": 47, 
      "lonmax": 5.30882571566782, 
      "latmin": 51.21646119184763
    }, 
    {
      "latmax": 51.21849164998991, 
      "name": "Duivenstraat", 
      "lonmin": 5.293813504578382, 
      "sanName": "duivenstraat", 
      "numOfAddr": 17, 
      "lonmax": 5.295856080479917, 
      "latmin": 51.21732439464982
    }, 
    {
      "latmax": 51.23428913970201, 
      "name": "Dwarsstraat", 
      "lonmin": 5.362618423522535, 
      "sanName": "dwarsstraat", 
      "numOfAddr": 5, 
      "lonmax": 5.363320407207792, 
      "latmin": 51.2338124544825
    }, 
    {
      "latmax": 51.2174996093164, 
      "name": "Edward Anseelestraat", 
      "lonmin": 5.265369512912307, 
      "sanName": "edwardanseelestraat", 
      "numOfAddr": 7, 
      "lonmax": 5.268456896856364, 
      "latmin": 51.21582649726412
    }, 
    {
      "latmax": 51.244569812248, 
      "name": "Eekhoornstraat", 
      "lonmin": 5.336228801486955, 
      "sanName": "eekhoornstraat", 
      "numOfAddr": 19, 
      "lonmax": 5.339106556088669, 
      "latmin": 51.24399556500808
    }, 
    {
      "latmax": 51.22437937883845, 
      "name": "Eendenbekstraat", 
      "lonmin": 5.292794694251802, 
      "sanName": "eendenbekstraat", 
      "numOfAddr": 12, 
      "lonmax": 5.295365501136933, 
      "latmin": 51.22394890520251
    }, 
    {
      "latmax": 51.2298029549313, 
      "name": "Eendrachtstraat", 
      "lonmin": 5.324732525290595, 
      "sanName": "eendrachtstraat", 
      "numOfAddr": 17, 
      "lonmax": 5.325888193222899, 
      "latmin": 51.22826433741338
    }, 
    {
      "latmax": 51.23745770561802, 
      "name": "Egstraat", 
      "lonmin": 5.285887134506957, 
      "sanName": "egstraat", 
      "numOfAddr": 26, 
      "lonmax": 5.291704374660036, 
      "latmin": 51.2344729074369
    }, 
    {
      "latmax": 51.2191630109205, 
      "name": "Eikelbosstraat", 
      "lonmin": 5.319745440010993, 
      "sanName": "eikelbosstraat", 
      "numOfAddr": 1, 
      "lonmax": 5.319745440010993, 
      "latmin": 51.2191630109205
    }, 
    {
      "latmax": 51.23294813816077, 
      "name": "Eikstraat", 
      "lonmin": 5.331819014536195, 
      "sanName": "eikstraat", 
      "numOfAddr": 8, 
      "lonmax": 5.333368556720499, 
      "latmin": 51.23254511986233
    }, 
    {
      "latmax": 51.227427681617705, 
      "name": "Einde", 
      "lonmin": 5.313088203738912, 
      "sanName": "einde", 
      "numOfAddr": 130, 
      "lonmax": 5.320274173695948, 
      "latmin": 51.2118429411108
    }, 
    {
      "latmax": 51.230419373750685, 
      "name": "Einderpad", 
      "lonmin": 5.309455703120896, 
      "sanName": "einderpad", 
      "numOfAddr": 72, 
      "lonmax": 5.312388587947643, 
      "latmin": 51.2241618512734
    }, 
    {
      "latmax": 51.16631114822718, 
      "name": "Ekselsebaan", 
      "lonmin": 5.283640142569951, 
      "sanName": "ekselsebaan", 
      "numOfAddr": 20, 
      "lonmax": 5.293373736490925, 
      "latmin": 51.16228462490132
    }, 
    {
      "latmax": 51.22510753889762, 
      "name": "Eksterhoevenstraat", 
      "lonmin": 5.294809964768462, 
      "sanName": "eksterhoevenstraat", 
      "numOfAddr": 7, 
      "lonmax": 5.296880347373983, 
      "latmin": 51.22449074441847
    }, 
    {
      "latmax": 51.225302325556406, 
      "name": "Eltenbos", 
      "lonmin": 5.297232529910251, 
      "sanName": "eltenbos", 
      "numOfAddr": 27, 
      "lonmax": 5.303801944694812, 
      "latmin": 51.22407519899952
    }, 
    {
      "latmax": 51.26151137446325, 
      "name": "Elzen", 
      "lonmin": 5.327356288883835, 
      "sanName": "elzen", 
      "numOfAddr": 12, 
      "lonmax": 5.335759646506011, 
      "latmin": 51.25050104813205
    }, 
    {
      "latmax": 51.235233708658754, 
      "name": "Emmersstraat", 
      "lonmin": 5.3634775456316905, 
      "sanName": "emmersstraat", 
      "numOfAddr": 23, 
      "lonmax": 5.368961700796209, 
      "latmin": 51.23365454103526
    }, 
    {
      "latmax": 51.23622666232541, 
      "name": "Enneven", 
      "lonmin": 5.339878470916404, 
      "sanName": "enneven", 
      "numOfAddr": 92, 
      "lonmax": 5.35547067114432, 
      "latmin": 51.2317327101471
    }, 
    {
      "latmax": 51.23738315685092, 
      "name": "Erfstraat", 
      "lonmin": 5.301507317908874, 
      "sanName": "erfstraat", 
      "numOfAddr": 33, 
      "lonmax": 5.302828505271129, 
      "latmin": 51.233333693650565
    }, 
    {
      "latmax": 51.23143465292071, 
      "name": "Ernest Claesstraat", 
      "lonmin": 5.280887760846503, 
      "sanName": "ernestclaesstraat", 
      "numOfAddr": 32, 
      "lonmax": 5.2838325606190555, 
      "latmin": 51.23077176120938
    }, 
    {
      "latmax": 51.240175325143035, 
      "name": "Esstraat", 
      "lonmin": 5.33647469637787, 
      "sanName": "esstraat", 
      "numOfAddr": 12, 
      "lonmax": 5.337728669572408, 
      "latmin": 51.239050315182084
    }, 
    {
      "latmax": 51.207133406209195, 
      "name": "Eviestraat", 
      "lonmin": 5.300374528001239, 
      "sanName": "eviestraat", 
      "numOfAddr": 39, 
      "lonmax": 5.306969661852448, 
      "latmin": 51.20497760850828
    }, 
    {
      "latmax": 51.23714629244353, 
      "name": "Fabrieksstraat", 
      "lonmin": 5.376278190460268, 
      "sanName": "fabrieksstraat", 
      "numOfAddr": 50, 
      "lonmax": 5.386315194809844, 
      "latmin": 51.233578370702524
    }, 
    {
      "latmax": 51.21916715734614, 
      "name": "Fazantstraat", 
      "lonmin": 5.287378114294222, 
      "sanName": "fazantstraat", 
      "numOfAddr": 29, 
      "lonmax": 5.2891210925843115, 
      "latmin": 51.21830241661231
    }, 
    {
      "latmax": 51.23086201597377, 
      "name": "Felix Timmermansstraat", 
      "lonmin": 5.286258965749103, 
      "sanName": "felixtimmermansstraat", 
      "numOfAddr": 12, 
      "lonmax": 5.286980466971889, 
      "latmin": 51.23012491923126
    }, 
    {
      "latmax": 51.228594654879224, 
      "name": "Frans Van Hamstraat", 
      "lonmin": 5.307855141963841, 
      "sanName": "fransvanhamstraat", 
      "numOfAddr": 62, 
      "lonmax": 5.313160751772499, 
      "latmin": 51.227166162910265
    }, 
    {
      "latmax": 51.23081322149721, 
      "name": "Frederik Van Eedenstraat", 
      "lonmin": 5.282870655737631, 
      "sanName": "frederikvaneedenstraat", 
      "numOfAddr": 22, 
      "lonmax": 5.285078030822584, 
      "latmin": 51.229554635452914
    }, 
    {
      "latmax": 51.2293428200837, 
      "name": "G.A. Brederostraat", 
      "lonmin": 5.2862653378259905, 
      "sanName": "gabrederostraat", 
      "numOfAddr": 32, 
      "lonmax": 5.288028113257081, 
      "latmin": 51.22850443652936
    }, 
    {
      "latmax": 51.23567955467102, 
      "name": "Gaffelstraat", 
      "lonmin": 5.29731296992864, 
      "sanName": "gaffelstraat", 
      "numOfAddr": 23, 
      "lonmax": 5.30160118492269, 
      "latmin": 51.23471503356936
    }, 
    {
      "latmax": 51.24416296704963, 
      "name": "Gagelstraat", 
      "lonmin": 5.325698187994937, 
      "sanName": "gagelstraat", 
      "numOfAddr": 15, 
      "lonmax": 5.326623278852187, 
      "latmin": 51.242478018668066
    }, 
    {
      "latmax": 51.2423225618253, 
      "name": "Gareelmakersweg", 
      "lonmin": 5.356846176902641, 
      "sanName": "gareelmakersweg", 
      "numOfAddr": 6, 
      "lonmax": 5.35713597346793, 
      "latmin": 51.24171129827978
    }, 
    {
      "latmax": 51.23322740924503, 
      "name": "Gasstraat", 
      "lonmin": 5.304707996656692, 
      "sanName": "gasstraat", 
      "numOfAddr": 38, 
      "lonmax": 5.306666350006009, 
      "latmin": 51.23150175064197
    }, 
    {
      "latmax": 51.24733948787783, 
      "name": "Gebroeders Van Eyckdreef", 
      "lonmin": 5.31124917226242, 
      "sanName": "gebroedersvaneyckdreef", 
      "numOfAddr": 8, 
      "lonmax": 5.313226713278784, 
      "latmin": 51.24639989838336
    }, 
    {
      "latmax": 51.221407041177564, 
      "name": "Geelgorsstraat", 
      "lonmin": 5.285806311277546, 
      "sanName": "geelgorsstraat", 
      "numOfAddr": 49, 
      "lonmax": 5.289375345281063, 
      "latmin": 51.21881520066467
    }, 
    {
      "latmax": 51.187488773675085, 
      "name": "Gelderhorsten", 
      "lonmin": 5.268022008719201, 
      "sanName": "gelderhorsten", 
      "numOfAddr": 141, 
      "lonmax": 5.298852690899705, 
      "latmin": 51.18172274370214
    }, 
    {
      "latmax": 51.2147759013258, 
      "name": "Gerard Mercatorstraat", 
      "lonmin": 5.259215501572889, 
      "sanName": "gerardmercatorstraat", 
      "numOfAddr": 12, 
      "lonmax": 5.273130309301198, 
      "latmin": 51.20939953417639
    }, 
    {
      "latmax": 51.1805760739845, 
      "name": "Gerststraat", 
      "lonmin": 5.285197975766582, 
      "sanName": "gerststraat", 
      "numOfAddr": 1, 
      "lonmax": 5.285197975766582, 
      "latmin": 51.1805760739845
    }, 
    {
      "latmax": 51.263361736225164, 
      "name": "Gestelsedijk", 
      "lonmin": 5.306609164124056, 
      "sanName": "gestelsedijk", 
      "numOfAddr": 115, 
      "lonmax": 5.316526620647736, 
      "latmin": 51.23961586777625
    }, 
    {
      "latmax": 51.239581708252366, 
      "name": "Gijzelaarsstraat", 
      "lonmin": 5.360422676569221, 
      "sanName": "gijzelaarsstraat", 
      "numOfAddr": 7, 
      "lonmax": 5.361470684399066, 
      "latmin": 51.239229403636934
    }, 
    {
      "latmax": 51.227434432242696, 
      "name": "Gildenstraat", 
      "lonmin": 5.354281041141648, 
      "sanName": "gildenstraat", 
      "numOfAddr": 3, 
      "lonmax": 5.355152652727352, 
      "latmin": 51.22713571399211
    }, 
    {
      "latmax": 51.22844047977664, 
      "name": "Godfried Bomansstraat", 
      "lonmin": 5.286014107832394, 
      "sanName": "godfriedbomansstraat", 
      "numOfAddr": 24, 
      "lonmax": 5.288048266198575, 
      "latmin": 51.22670619342956
    }, 
    {
      "latmax": 51.25632081561258, 
      "name": "Gordendijk", 
      "lonmin": 5.336765888341633, 
      "sanName": "gordendijk", 
      "numOfAddr": 9, 
      "lonmax": 5.341039196367546, 
      "latmin": 51.25158331363445
    }, 
    {
      "latmax": 51.26690792974105, 
      "name": "Grensstraat", 
      "lonmin": 5.385050682235378, 
      "sanName": "grensstraat", 
      "numOfAddr": 18, 
      "lonmax": 5.393668261394668, 
      "latmin": 51.26406302845983
    }, 
    {
      "latmax": 51.236061000998575, 
      "name": "Groenakkerweg", 
      "lonmin": 5.332980253454394, 
      "sanName": "groenakkerweg", 
      "numOfAddr": 15, 
      "lonmax": 5.335100191831175, 
      "latmin": 51.23505227711283
    }, 
    {
      "latmax": 51.234801819384934, 
      "name": "Groenstraat", 
      "lonmin": 5.350208359430229, 
      "sanName": "groenstraat", 
      "numOfAddr": 15, 
      "lonmax": 5.351263595412514, 
      "latmin": 51.23339818459033
    }, 
    {
      "latmax": 51.25832587878924, 
      "name": "Grote Foss\u0082straat", 
      "lonmin": 5.343486104858906, 
      "sanName": "grotefossstraat", 
      "numOfAddr": 42, 
      "lonmax": 5.359492954636405, 
      "latmin": 51.25619051794385
    }, 
    {
      "latmax": 51.22375339086267, 
      "name": "Grote Hoef", 
      "lonmin": 5.325573652848827, 
      "sanName": "grotehoef", 
      "numOfAddr": 23, 
      "lonmax": 5.3294648813921155, 
      "latmin": 51.22287783628063
    }, 
    {
      "latmax": 51.220163150916825, 
      "name": "Gruttopad", 
      "lonmin": 5.288340474637841, 
      "sanName": "gruttopad", 
      "numOfAddr": 6, 
      "lonmax": 5.288856220817548, 
      "latmin": 51.22003224039285
    }, 
    {
      "latmax": 51.232679333017806, 
      "name": "Guido Gezellestraat", 
      "lonmin": 5.285157371182609, 
      "sanName": "guidogezellestraat", 
      "numOfAddr": 24, 
      "lonmax": 5.286789852099813, 
      "latmin": 51.23012228987529
    }, 
    {
      "latmax": 51.20846846457427, 
      "name": "Haardstraat", 
      "lonmin": 5.3046676598298435, 
      "sanName": "haardstraat", 
      "numOfAddr": 15, 
      "lonmax": 5.308116602979677, 
      "latmin": 51.20695468667198
    }, 
    {
      "latmax": 51.23272678676431, 
      "name": "Hadewijchplein", 
      "lonmin": 5.284390261352918, 
      "sanName": "hadewijchplein", 
      "numOfAddr": 11, 
      "lonmax": 5.28584881584372, 
      "latmin": 51.232091871923366
    }, 
    {
      "latmax": 51.203210505621506, 
      "name": "Hagelkruisstraat", 
      "lonmin": 5.308184673104207, 
      "sanName": "hagelkruisstraat", 
      "numOfAddr": 13, 
      "lonmax": 5.311209013650281, 
      "latmin": 51.20246045764012
    }, 
    {
      "latmax": 51.22336269804075, 
      "name": "Hagelstraat", 
      "lonmin": 5.225713260972871, 
      "sanName": "hagelstraat", 
      "numOfAddr": 4, 
      "lonmax": 5.225864338758702, 
      "latmin": 51.22287395593976
    }, 
    {
      "latmax": 51.228517737614865, 
      "name": "Hakmeitenstraat", 
      "lonmin": 5.357296493522103, 
      "sanName": "hakmeitenstraat", 
      "numOfAddr": 2, 
      "lonmax": 5.357806318636232, 
      "latmin": 51.22849746325077
    }, 
    {
      "latmax": 51.235407651125165, 
      "name": "Hanekapstraat", 
      "lonmin": 5.3373546939756356, 
      "sanName": "hanekapstraat", 
      "numOfAddr": 20, 
      "lonmax": 5.339067106614528, 
      "latmin": 51.23191815115596
    }, 
    {
      "latmax": 51.24711573595372, 
      "name": "Hans Memlingdreef", 
      "lonmin": 5.311339218424838, 
      "sanName": "hansmemlingdreef", 
      "numOfAddr": 41, 
      "lonmax": 5.316811025597078, 
      "latmin": 51.242151669258526
    }, 
    {
      "latmax": 51.24035329748355, 
      "name": "Harkstraat", 
      "lonmin": 5.302285945854234, 
      "sanName": "harkstraat", 
      "numOfAddr": 22, 
      "lonmax": 5.303606134932912, 
      "latmin": 51.237946131791134
    }, 
    {
      "latmax": 51.16448770116064, 
      "name": "Haverstraat", 
      "lonmin": 5.266496401056521, 
      "sanName": "haverstraat", 
      "numOfAddr": 14, 
      "lonmax": 5.267374278481282, 
      "latmin": 51.16309768572138
    }, 
    {
      "latmax": 51.22188690094422, 
      "name": "Havikpad", 
      "lonmin": 5.290925603750889, 
      "sanName": "havikpad", 
      "numOfAddr": 8, 
      "lonmax": 5.29156543057064, 
      "latmin": 51.221441296807
    }, 
    {
      "latmax": 51.23426927290465, 
      "name": "Hazelaarstraat", 
      "lonmin": 5.3402027199496835, 
      "sanName": "hazelaarstraat", 
      "numOfAddr": 13, 
      "lonmax": 5.342025466225922, 
      "latmin": 51.23285896374675
    }, 
    {
      "latmax": 51.24103474454607, 
      "name": "Hazenpad", 
      "lonmin": 5.336824151029446, 
      "sanName": "hazenpad", 
      "numOfAddr": 16, 
      "lonmax": 5.339196214795752, 
      "latmin": 51.240054237820736
    }, 
    {
      "latmax": 51.2303345873859, 
      "name": "Heerdgang", 
      "lonmin": 5.306347704705597, 
      "sanName": "heerdgang", 
      "numOfAddr": 1, 
      "lonmax": 5.306347704705597, 
      "latmin": 51.2303345873859
    }, 
    {
      "latmax": 51.23152029398696, 
      "name": "Hees", 
      "lonmin": 5.286251725001157, 
      "sanName": "hees", 
      "numOfAddr": 116, 
      "lonmax": 5.306455551360136, 
      "latmin": 51.22817070766081
    }, 
    {
      "latmax": 51.23919170946151, 
      "name": "Heibergstraat", 
      "lonmin": 5.304392518143241, 
      "sanName": "heibergstraat", 
      "numOfAddr": 4, 
      "lonmax": 5.304983460784118, 
      "latmin": 51.23789990706928
    }, 
    {
      "latmax": 51.24472476686418, 
      "name": "Heide", 
      "lonmin": 5.309061810298465, 
      "sanName": "heide", 
      "numOfAddr": 181, 
      "lonmax": 5.335246332019987, 
      "latmin": 51.23954285766246
    }, 
    {
      "latmax": 51.24643902368079, 
      "name": "Heidebloemstraat", 
      "lonmin": 5.321737545117377, 
      "sanName": "heidebloemstraat", 
      "numOfAddr": 32, 
      "lonmax": 5.326069593483876, 
      "latmin": 51.24195529305765
    }, 
    {
      "latmax": 51.26812731263939, 
      "name": "Heikantstraat", 
      "lonmin": 5.388745280017739, 
      "sanName": "heikantstraat", 
      "numOfAddr": 6, 
      "lonmax": 5.389234572848918, 
      "latmin": 51.26666142327422
    }, 
    {
      "latmax": 51.23199315507692, 
      "name": "Hendrik Consciencestraat", 
      "lonmin": 5.287267536378468, 
      "sanName": "hendrikconsciencestraat", 
      "numOfAddr": 7, 
      "lonmax": 5.288176524941091, 
      "latmin": 51.23139595604897
    }, 
    {
      "latmax": 51.21713262558679, 
      "name": "Hendrik Heymanstraat", 
      "lonmin": 5.261911406251637, 
      "sanName": "hendrikheymanstraat", 
      "numOfAddr": 14, 
      "lonmax": 5.26523095350892, 
      "latmin": 51.214703572247686
    }, 
    {
      "latmax": 51.23012593422799, 
      "name": "Hendrik van Veldekestraat", 
      "lonmin": 5.28560376747779, 
      "sanName": "hendrikvanveldekestraat", 
      "numOfAddr": 52, 
      "lonmax": 5.291424170507266, 
      "latmin": 51.22943415453159
    }, 
    {
      "latmax": 51.24565110479763, 
      "name": "Henlook", 
      "lonmin": 5.342983677217843, 
      "sanName": "henlook", 
      "numOfAddr": 8, 
      "lonmax": 5.343847936963775, 
      "latmin": 51.24483436176248
    }, 
    {
      "latmax": 51.219184650861635, 
      "name": "Hennepstraat", 
      "lonmin": 5.308747269351588, 
      "sanName": "hennepstraat", 
      "numOfAddr": 11, 
      "lonmax": 5.310484040998337, 
      "latmin": 51.21808617025874
    }, 
    {
      "latmax": 51.228869693846605, 
      "name": "Hensendriesweg", 
      "lonmin": 5.321272373736966, 
      "sanName": "hensendriesweg", 
      "numOfAddr": 26, 
      "lonmax": 5.322572760326931, 
      "latmin": 51.22759625688458
    }, 
    {
      "latmax": 51.24074878762154, 
      "name": "Herdersweg", 
      "lonmin": 5.358540570492517, 
      "sanName": "herdersweg", 
      "numOfAddr": 14, 
      "lonmax": 5.359175469287121, 
      "latmin": 51.23984485529422
    }, 
    {
      "latmax": 51.231244440181136, 
      "name": "Hertog Janplein", 
      "lonmin": 5.30399154743084, 
      "sanName": "hertogjanplein", 
      "numOfAddr": 20, 
      "lonmax": 5.305881257985101, 
      "latmin": 51.22949973200133
    }, 
    {
      "latmax": 51.24536750802578, 
      "name": "Heuvel", 
      "lonmin": 5.336280772657522, 
      "sanName": "heuvel", 
      "numOfAddr": 90, 
      "lonmax": 5.346142036308996, 
      "latmin": 51.238030319215156
    }, 
    {
      "latmax": 51.22850980447447, 
      "name": "Hezerpad", 
      "lonmin": 5.305678170748721, 
      "sanName": "hezerpad", 
      "numOfAddr": 12, 
      "lonmax": 5.306552081039594, 
      "latmin": 51.228183480764514
    }, 
    {
      "latmax": 51.162126266314296, 
      "name": "Hinneputten", 
      "lonmin": 5.278647341581787, 
      "sanName": "hinneputten", 
      "numOfAddr": 12, 
      "lonmax": 5.292626007360573, 
      "latmin": 51.16016967444235
    }, 
    {
      "latmax": 51.23778173976877, 
      "name": "Hoefsmidweg", 
      "lonmin": 5.354171943244889, 
      "sanName": "hoefsmidweg", 
      "numOfAddr": 10, 
      "lonmax": 5.355442238344312, 
      "latmin": 51.23631389465114
    }, 
    {
      "latmax": 51.22616730306983, 
      "name": "Hoevenstraat", 
      "lonmin": 5.308526212672253, 
      "sanName": "hoevenstraat", 
      "numOfAddr": 41, 
      "lonmax": 5.313494880016128, 
      "latmin": 51.2246316707159
    }, 
    {
      "latmax": 51.22288113079536, 
      "name": "Hoeverdijk", 
      "lonmin": 5.323763847415753, 
      "sanName": "hoeverdijk", 
      "numOfAddr": 25, 
      "lonmax": 5.354491738440061, 
      "latmin": 51.2099142701766
    }, 
    {
      "latmax": 51.204243054204596, 
      "name": "Hoeverstee", 
      "lonmin": 5.3099036412396305, 
      "sanName": "hoeverstee", 
      "numOfAddr": 17, 
      "lonmax": 5.3132774647952195, 
      "latmin": 51.20358575769213
    }, 
    {
      "latmax": 51.221564175605494, 
      "name": "Hongerijen", 
      "lonmin": 5.305296842457898, 
      "sanName": "hongerijen", 
      "numOfAddr": 16, 
      "lonmax": 5.306861111632071, 
      "latmin": 51.220431624948745
    }, 
    {
      "latmax": 51.211303149744516, 
      "name": "Hoog Kattenbos", 
      "lonmin": 5.317027776678296, 
      "sanName": "hoogkattenbos", 
      "numOfAddr": 13, 
      "lonmax": 5.322114267385427, 
      "latmin": 51.20869659218498
    }, 
    {
      "latmax": 51.22401809871877, 
      "name": "Hoogstraat", 
      "lonmin": 5.309196227482008, 
      "sanName": "hoogstraat", 
      "numOfAddr": 28, 
      "lonmax": 5.313255853580467, 
      "latmin": 51.22315015396326
    }, 
    {
      "latmax": 51.17559108157559, 
      "name": "Hooistraat", 
      "lonmin": 5.285362716482335, 
      "sanName": "hooistraat", 
      "numOfAddr": 9, 
      "lonmax": 5.286731335722467, 
      "latmin": 51.17479514558157
    }, 
    {
      "latmax": 51.21849652151225, 
      "name": "Hopstraat", 
      "lonmin": 5.309998263842377, 
      "sanName": "hopstraat", 
      "numOfAddr": 19, 
      "lonmax": 5.311529624678056, 
      "latmin": 51.21676433073276
    }, 
    {
      "latmax": 51.248953939007, 
      "name": "Hugo van der Goesdreef", 
      "lonmin": 5.31499883571524, 
      "sanName": "hugovandergoesdreef", 
      "numOfAddr": 7, 
      "lonmax": 5.316196729197118, 
      "latmin": 51.248018291291274
    }, 
    {
      "latmax": 51.23345166619824, 
      "name": "Huisveldstraat", 
      "lonmin": 5.34756418382091, 
      "sanName": "huisveldstraat", 
      "numOfAddr": 1, 
      "lonmax": 5.34756418382091, 
      "latmin": 51.23345166619824
    }, 
    {
      "latmax": 51.2348862187958, 
      "name": "Iepstraat", 
      "lonmin": 5.338231283378425, 
      "sanName": "iepstraat", 
      "numOfAddr": 9, 
      "lonmax": 5.339085807889488, 
      "latmin": 51.23435012966112
    }, 
    {
      "latmax": 51.271019725791895, 
      "name": "In de Hutten", 
      "lonmin": 5.344636516564938, 
      "sanName": "indehutten", 
      "numOfAddr": 4, 
      "lonmax": 5.3492451631409565, 
      "latmin": 51.26385073318788
    }, 
    {
      "latmax": 51.259688541083065, 
      "name": "In de Putten", 
      "lonmin": 5.306812059717243, 
      "sanName": "indeputten", 
      "numOfAddr": 9, 
      "lonmax": 5.309556673350017, 
      "latmin": 51.25580328173072
    }, 
    {
      "latmax": 51.22346563890832, 
      "name": "Jachtstraat", 
      "lonmin": 5.226722607807734, 
      "sanName": "jachtstraat", 
      "numOfAddr": 2, 
      "lonmax": 5.227258600362183, 
      "latmin": 51.22338584510965
    }, 
    {
      "latmax": 51.2446995234179, 
      "name": "Jacob Jordaensdreef", 
      "lonmin": 5.31668262387423, 
      "sanName": "jacobjordaensdreef", 
      "numOfAddr": 2, 
      "lonmax": 5.316986397926255, 
      "latmin": 51.24426284545816
    }, 
    {
      "latmax": 51.25072696704471, 
      "name": "Jacob Smitsdreef", 
      "lonmin": 5.312218354078721, 
      "sanName": "jacobsmitsdreef", 
      "numOfAddr": 9, 
      "lonmax": 5.3172951770800685, 
      "latmin": 51.24970573148722
    }, 
    {
      "latmax": 51.22818173275396, 
      "name": "Jacob van Arteveldestraat", 
      "lonmin": 5.328572674743022, 
      "sanName": "jacobvanarteveldestraat", 
      "numOfAddr": 19, 
      "lonmax": 5.329872086496471, 
      "latmin": 51.22623896196209
    }, 
    {
      "latmax": 51.22944652564697, 
      "name": "Jacob van Maerlantstraat", 
      "lonmin": 5.287959954828833, 
      "sanName": "jacobvanmaerlantstraat", 
      "numOfAddr": 23, 
      "lonmax": 5.288765369789407, 
      "latmin": 51.227312862934966
    }, 
    {
      "latmax": 51.2457390351034, 
      "name": "Jagerstraat", 
      "lonmin": 5.38074517508175, 
      "sanName": "jagerstraat", 
      "numOfAddr": 3, 
      "lonmax": 5.3811954019693395, 
      "latmin": 51.24559773618515
    }, 
    {
      "latmax": 51.22722578138676, 
      "name": "Jan Breydelstraat", 
      "lonmin": 5.324060215433974, 
      "sanName": "janbreydelstraat", 
      "numOfAddr": 10, 
      "lonmax": 5.326463231094679, 
      "latmin": 51.22671075971791
    }, 
    {
      "latmax": 51.22991688428746, 
      "name": "Jan Davidlaan", 
      "lonmin": 5.283792549005904, 
      "sanName": "jandavidlaan", 
      "numOfAddr": 10, 
      "lonmax": 5.285053826078629, 
      "latmin": 51.22785442040291
    }, 
    {
      "latmax": 51.23016941961463, 
      "name": "Jan Frans Willemsstraat", 
      "lonmin": 5.278561667655459, 
      "sanName": "janfranswillemsstraat", 
      "numOfAddr": 60, 
      "lonmax": 5.283120626906946, 
      "latmin": 51.22814511865014
    }, 
    {
      "latmax": 51.2291685782398, 
      "name": "Jan van Ruusbroecplein", 
      "lonmin": 5.288855709155279, 
      "sanName": "janvanruusbroecplein", 
      "numOfAddr": 4, 
      "lonmax": 5.2894937177689485, 
      "latmin": 51.22915611524439
    }, 
    {
      "latmax": 51.2057004113742, 
      "name": "J. en R. Vlegelsstraat", 
      "lonmin": 5.2514246515175955, 
      "sanName": "jenrvlegelsstraat", 
      "numOfAddr": 1, 
      "lonmax": 5.2514246515175955, 
      "latmin": 51.2057004113742
    }, 
    {
      "latmax": 51.24944103001739, 
      "name": "Jeroen Boschdreef", 
      "lonmin": 5.3137814611425345, 
      "sanName": "jeroenboschdreef", 
      "numOfAddr": 4, 
      "lonmax": 5.314777594338582, 
      "latmin": 51.24892394893351
    }, 
    {
      "latmax": 51.2138720648016, 
      "name": "John Cockerillstraat", 
      "lonmin": 5.2897436048237605, 
      "sanName": "johncockerillstraat", 
      "numOfAddr": 8, 
      "lonmax": 5.298782908295039, 
      "latmin": 51.21026679066302
    }, 
    {
      "latmax": 51.229457942232344, 
      "name": "Joost van den Vondelstraat", 
      "lonmin": 5.28900384057152, 
      "sanName": "joostvandenvondelstraat", 
      "numOfAddr": 43, 
      "lonmax": 5.290694440275474, 
      "latmin": 51.22731881724764
    }, 
    {
      "latmax": 51.21635198153142, 
      "name": "Joris Helleputtestraat", 
      "lonmin": 5.264017752149901, 
      "sanName": "jorishelleputtestraat", 
      "numOfAddr": 3, 
      "lonmax": 5.265935767661909, 
      "latmin": 51.215081277457834
    }, 
    {
      "latmax": 51.254822066040326, 
      "name": "Jozef Keelhoffstraat", 
      "lonmin": 5.371658643815037, 
      "sanName": "jozefkeelhoffstraat", 
      "numOfAddr": 12, 
      "lonmax": 5.37311176624305, 
      "latmin": 51.25387832139923
    }, 
    {
      "latmax": 51.23572608703638, 
      "name": "Jukstraat", 
      "lonmin": 5.296398563332151, 
      "sanName": "jukstraat", 
      "numOfAddr": 10, 
      "lonmax": 5.297235706911213, 
      "latmin": 51.23454568663929
    }, 
    {
      "latmax": 51.18495028543215, 
      "name": "Kaatstraat", 
      "lonmin": 5.291068305559868, 
      "sanName": "kaatstraat", 
      "numOfAddr": 14, 
      "lonmax": 5.297766800026013, 
      "latmin": 51.18442167216569
    }, 
    {
      "latmax": 51.16583313411465, 
      "name": "Kanaalstraat", 
      "lonmin": 5.261205257463958, 
      "sanName": "kanaalstraat", 
      "numOfAddr": 61, 
      "lonmax": 5.269697889713587, 
      "latmin": 51.16442535455362
    }, 
    {
      "latmax": 51.22943234397683, 
      "name": "Kanunnik J. Huybrechtsstraat", 
      "lonmin": 5.3025099939949385, 
      "sanName": "kanunnikjhuybrechtsstraat", 
      "numOfAddr": 15, 
      "lonmax": 5.303887344328948, 
      "latmin": 51.2292083514519
    }, 
    {
      "latmax": 51.23764782757787, 
      "name": "Kapelstraat", 
      "lonmin": 5.30915209812727, 
      "sanName": "kapelstraat", 
      "numOfAddr": 80, 
      "lonmax": 5.322040091160343, 
      "latmin": 51.23443860451514
    }, 
    {
      "latmax": 51.23074591026947, 
      "name": "Kapittelhof", 
      "lonmin": 5.3024135944268185, 
      "sanName": "kapittelhof", 
      "numOfAddr": 8, 
      "lonmax": 5.303223669966295, 
      "latmin": 51.229621061054665
    }, 
    {
      "latmax": 51.22083371027614, 
      "name": "Kapucijnenplein", 
      "lonmin": 5.261507797514703, 
      "sanName": "kapucijnenplein", 
      "numOfAddr": 14, 
      "lonmax": 5.262716440976431, 
      "latmin": 51.219856605932954
    }, 
    {
      "latmax": 51.22024250628473, 
      "name": "Kardinaal Cardijnstraat", 
      "lonmin": 5.281174085661848, 
      "sanName": "kardinaalcardijnstraat", 
      "numOfAddr": 5, 
      "lonmax": 5.283086933435023, 
      "latmin": 51.21897571971174
    }, 
    {
      "latmax": 51.231638621488145, 
      "name": "Karel de Grotestraat", 
      "lonmin": 5.331737112676915, 
      "sanName": "kareldegrotestraat", 
      "numOfAddr": 40, 
      "lonmax": 5.335330715541307, 
      "latmin": 51.230131185179566
    }, 
    {
      "latmax": 51.22934243457248, 
      "name": "Karel Martelstraat", 
      "lonmin": 5.333158813356694, 
      "sanName": "karelmartelstraat", 
      "numOfAddr": 28, 
      "lonmax": 5.334884617927851, 
      "latmin": 51.22654575149713
    }, 
    {
      "latmax": 51.22290907011394, 
      "name": "Karperstraat", 
      "lonmin": 5.258404273536319, 
      "sanName": "karperstraat", 
      "numOfAddr": 7, 
      "lonmax": 5.261092839520124, 
      "latmin": 51.22189728887222
    }, 
    {
      "latmax": 51.22463246323157, 
      "name": "Karrestraat", 
      "lonmin": 5.319892559316371, 
      "sanName": "karrestraat", 
      "numOfAddr": 66, 
      "lonmax": 5.336686502252597, 
      "latmin": 51.220604090640194
    }, 
    {
      "latmax": 51.22424529608057, 
      "name": "Katoenstraat", 
      "lonmin": 5.229945704546861, 
      "sanName": "katoenstraat", 
      "numOfAddr": 6, 
      "lonmax": 5.23636161588363, 
      "latmin": 51.20575534398585
    }, 
    {
      "latmax": 51.21138750078466, 
      "name": "Kattenbos", 
      "lonmin": 5.30390331978858, 
      "sanName": "kattenbos", 
      "numOfAddr": 100, 
      "lonmax": 5.3133473687301676, 
      "latmin": 51.19367785525447
    }, 
    {
      "latmax": 51.228630639963704, 
      "name": "Keizer Karelstraat", 
      "lonmin": 5.329576528882193, 
      "sanName": "keizerkarelstraat", 
      "numOfAddr": 32, 
      "lonmax": 5.335603165407716, 
      "latmin": 51.22729962788483
    }, 
    {
      "latmax": 51.230855248049764, 
      "name": "Kempensestraat", 
      "lonmin": 5.275545190320879, 
      "sanName": "kempensestraat", 
      "numOfAddr": 53, 
      "lonmax": 5.281915365161621, 
      "latmin": 51.227783399339415
    }, 
    {
      "latmax": 51.187513756829205, 
      "name": "Kerkhovensesteenweg", 
      "lonmin": 5.261308103011587, 
      "sanName": "kerkhovensesteenweg", 
      "numOfAddr": 235, 
      "lonmax": 5.299550627666974, 
      "latmin": 51.15948284044225
    }, 
    {
      "latmax": 51.22890983000951, 
      "name": "Kerkplein", 
      "lonmin": 5.313538670593078, 
      "sanName": "kerkplein", 
      "numOfAddr": 31, 
      "lonmax": 5.3153134735668495, 
      "latmin": 51.22769192092001
    }, 
    {
      "latmax": 51.23074499510984, 
      "name": "Kerkstraat", 
      "lonmin": 5.3097688330657755, 
      "sanName": "kerkstraat", 
      "numOfAddr": 79, 
      "lonmax": 5.313950663604793, 
      "latmin": 51.2285008990138
    }, 
    {
      "latmax": 51.16486659793854, 
      "name": "Kerkweg", 
      "lonmin": 5.263416932363765, 
      "sanName": "kerkweg", 
      "numOfAddr": 30, 
      "lonmax": 5.264514534575133, 
      "latmin": 51.162168600944256
    }, 
    {
      "latmax": 51.22049041231192, 
      "name": "Kievitpad", 
      "lonmin": 5.287624357809073, 
      "sanName": "kievitpad", 
      "numOfAddr": 1, 
      "lonmax": 5.287624357809073, 
      "latmin": 51.22049041231192
    }, 
    {
      "latmax": 51.22327610436844, 
      "name": "Kiezelvenstraat", 
      "lonmin": 5.350947971866363, 
      "sanName": "kiezelvenstraat", 
      "numOfAddr": 1, 
      "lonmax": 5.350947971866363, 
      "latmin": 51.22327610436844
    }, 
    {
      "latmax": 51.22039283262513, 
      "name": "Kikkerstraat", 
      "lonmin": 5.317884093489394, 
      "sanName": "kikkerstraat", 
      "numOfAddr": 34, 
      "lonmax": 5.3252839657470386, 
      "latmin": 51.216740842954806
    }, 
    {
      "latmax": 51.24516485076929, 
      "name": "Kinderstraat", 
      "lonmin": 5.336530403506816, 
      "sanName": "kinderstraat", 
      "numOfAddr": 44, 
      "lonmax": 5.340653982655102, 
      "latmin": 51.24055438803082
    }, 
    {
      "latmax": 51.23165216490418, 
      "name": "Klachtloopstraat", 
      "lonmin": 5.3014318780139815, 
      "sanName": "klachtloopstraat", 
      "numOfAddr": 8, 
      "lonmax": 5.302822572405968, 
      "latmin": 51.228831510246934
    }, 
    {
      "latmax": 51.175645216383046, 
      "name": "Klaverstraat", 
      "lonmin": 5.274448692276244, 
      "sanName": "klaverstraat", 
      "numOfAddr": 15, 
      "lonmax": 5.280517553321613, 
      "latmin": 51.17404927730511
    }, 
    {
      "latmax": 51.24130004264606, 
      "name": "Kleermakersweg", 
      "lonmin": 5.350340961668193, 
      "sanName": "kleermakersweg", 
      "numOfAddr": 28, 
      "lonmax": 5.3530981255466346, 
      "latmin": 51.23801607740469
    }, 
    {
      "latmax": 51.231872485186884, 
      "name": "Kleine Dijk", 
      "lonmin": 5.349848065597085, 
      "sanName": "kleinedijk", 
      "numOfAddr": 24, 
      "lonmax": 5.352008212331379, 
      "latmin": 51.22928852784912
    }, 
    {
      "latmax": 51.22141862209912, 
      "name": "Kleine Hoef", 
      "lonmin": 5.321200278077366, 
      "sanName": "kleinehoef", 
      "numOfAddr": 13, 
      "lonmax": 5.322955848860223, 
      "latmin": 51.22054968778016
    }, 
    {
      "latmax": 51.16416060517334, 
      "name": "Kleuterstraat", 
      "lonmin": 5.265538033812569, 
      "sanName": "kleuterstraat", 
      "numOfAddr": 4, 
      "lonmax": 5.266292731147921, 
      "latmin": 51.163318521063644
    }, 
    {
      "latmax": 51.21581465334608, 
      "name": "Kliniekstraat", 
      "lonmin": 5.3111389316543125, 
      "sanName": "kliniekstraat", 
      "numOfAddr": 5, 
      "lonmax": 5.311568183173709, 
      "latmin": 51.214358521994605
    }, 
    {
      "latmax": 51.23964965489535, 
      "name": "Klompenmakersweg", 
      "lonmin": 5.350894335389242, 
      "sanName": "klompenmakersweg", 
      "numOfAddr": 23, 
      "lonmax": 5.355133835797458, 
      "latmin": 51.23867838373969
    }, 
    {
      "latmax": 51.23275016005977, 
      "name": "Kloosterstraat", 
      "lonmin": 5.31268134341506, 
      "sanName": "kloosterstraat", 
      "numOfAddr": 142, 
      "lonmax": 5.331273094879279, 
      "latmin": 51.22941402692975
    }, 
    {
      "latmax": 51.184486251854665, 
      "name": "Klotstraat", 
      "lonmin": 5.268586449161785, 
      "sanName": "klotstraat", 
      "numOfAddr": 1, 
      "lonmax": 5.268586449161785, 
      "latmin": 51.184486251854665
    }, 
    {
      "latmax": 51.22150252146701, 
      "name": "Kluterstraat", 
      "lonmin": 5.290710364403992, 
      "sanName": "kluterstraat", 
      "numOfAddr": 29, 
      "lonmax": 5.294155155373692, 
      "latmin": 51.21935716620035
    }, 
    {
      "latmax": 51.20420311768955, 
      "name": "Knapenhoef", 
      "lonmin": 5.307330603376619, 
      "sanName": "knapenhoef", 
      "numOfAddr": 49, 
      "lonmax": 5.314411618027489, 
      "latmin": 51.2013229705616
    }, 
    {
      "latmax": 51.22582514335415, 
      "name": "Koeketerstraat", 
      "lonmin": 5.288665411674824, 
      "sanName": "koeketerstraat", 
      "numOfAddr": 28, 
      "lonmax": 5.2934028707601275, 
      "latmin": 51.224592237433484
    }, 
    {
      "latmax": 51.22320080684807, 
      "name": "Koekoekstraat", 
      "lonmin": 5.307632501599963, 
      "sanName": "koekoekstraat", 
      "numOfAddr": 3, 
      "lonmax": 5.308302309324054, 
      "latmin": 51.22311830159614
    }, 
    {
      "latmax": 51.224004233177155, 
      "name": "Kolfstraat", 
      "lonmin": 5.230349155560064, 
      "sanName": "kolfstraat", 
      "numOfAddr": 3, 
      "lonmax": 5.230980260083079, 
      "latmin": 51.22372553583895
    }, 
    {
      "latmax": 51.25773255089317, 
      "name": "Kolken", 
      "lonmin": 5.342541330418884, 
      "sanName": "kolken", 
      "numOfAddr": 9, 
      "lonmax": 5.343824502769566, 
      "latmin": 51.24881063788915
    }, 
    {
      "latmax": 51.2576548015428, 
      "name": "Kolonie", 
      "lonmin": 5.360513761213949, 
      "sanName": "kolonie", 
      "numOfAddr": 116, 
      "lonmax": 5.38540770530432, 
      "latmin": 51.25265994693354
    }, 
    {
      "latmax": 51.253028628103586, 
      "name": "Komstraat", 
      "lonmin": 5.371135986565464, 
      "sanName": "komstraat", 
      "numOfAddr": 13, 
      "lonmax": 5.386676671639969, 
      "latmin": 51.25285588082362
    }, 
    {
      "latmax": 51.240523054388674, 
      "name": "Konijnenpijp", 
      "lonmin": 5.339424121830747, 
      "sanName": "konijnenpijp", 
      "numOfAddr": 76, 
      "lonmax": 5.351962749582097, 
      "latmin": 51.23584416231357
    }, 
    {
      "latmax": 51.23926014247721, 
      "name": "Koning Albertlaan", 
      "lonmin": 5.314350483731628, 
      "sanName": "koningalbertlaan", 
      "numOfAddr": 80, 
      "lonmax": 5.317389522532379, 
      "latmin": 51.23054996961705
    }, 
    {
      "latmax": 51.239650034197034, 
      "name": "Koning Boudewijnstraat", 
      "lonmin": 5.315645877345794, 
      "sanName": "koningboudewijnstraat", 
      "numOfAddr": 74, 
      "lonmax": 5.320394492236026, 
      "latmin": 51.23314101011195
    }, 
    {
      "latmax": 51.23033898336711, 
      "name": "Koningin Astridlaan", 
      "lonmin": 5.3178269167931065, 
      "sanName": "koninginastridlaan", 
      "numOfAddr": 11, 
      "lonmax": 5.3187236074965165, 
      "latmin": 51.229323622805346
    }, 
    {
      "latmax": 51.235245198265254, 
      "name": "Koningin Elisabethlaan", 
      "lonmin": 5.315656274813686, 
      "sanName": "koninginelisabethlaan", 
      "numOfAddr": 15, 
      "lonmax": 5.318833213447622, 
      "latmin": 51.234514917859734
    }, 
    {
      "latmax": 51.23229963602993, 
      "name": "Koning Leopoldlaan", 
      "lonmin": 5.315634531791741, 
      "sanName": "koningleopoldlaan", 
      "numOfAddr": 143, 
      "lonmax": 5.331446678670857, 
      "latmin": 51.228091062716814
    }, 
    {
      "latmax": 51.24305773133972, 
      "name": "Koningsbeemdstraat", 
      "lonmin": 5.338478599129334, 
      "sanName": "koningsbeemdstraat", 
      "numOfAddr": 19, 
      "lonmax": 5.340002443568211, 
      "latmin": 51.241058486739384
    }, 
    {
      "latmax": 51.23484987808668, 
      "name": "Koningsstraat", 
      "lonmin": 5.310533385467452, 
      "sanName": "koningsstraat", 
      "numOfAddr": 51, 
      "lonmax": 5.314909120051962, 
      "latmin": 51.231782264219014
    }, 
    {
      "latmax": 51.2401335835033, 
      "name": "Koperslagersweg", 
      "lonmin": 5.348123488705137, 
      "sanName": "koperslagersweg", 
      "numOfAddr": 33, 
      "lonmax": 5.351335841576474, 
      "latmin": 51.23838458467112
    }, 
    {
      "latmax": 51.2284752608331, 
      "name": "Kopshoeven", 
      "lonmin": 5.293516365465915, 
      "sanName": "kopshoeven", 
      "numOfAddr": 50, 
      "lonmax": 5.30402575876155, 
      "latmin": 51.22528487775682
    }, 
    {
      "latmax": 51.17643210422936, 
      "name": "Korenstraat", 
      "lonmin": 5.274659178369158, 
      "sanName": "korenstraat", 
      "numOfAddr": 24, 
      "lonmax": 5.286600283700609, 
      "latmin": 51.17301075542463
    }, 
    {
      "latmax": 51.2199673270522, 
      "name": "Korhoenstraat", 
      "lonmin": 5.286911523552251, 
      "sanName": "korhoenstraat", 
      "numOfAddr": 16, 
      "lonmax": 5.288195789618779, 
      "latmin": 51.219289656371714
    }, 
    {
      "latmax": 51.238574767056846, 
      "name": "Kortestraat", 
      "lonmin": 5.350617234616237, 
      "sanName": "kortestraat", 
      "numOfAddr": 24, 
      "lonmax": 5.353397877308757, 
      "latmin": 51.23629801230631
    }, 
    {
      "latmax": 51.234705630247035, 
      "name": "Korte-Vorenweg", 
      "lonmin": 5.325580481569541, 
      "sanName": "kortevorenweg", 
      "numOfAddr": 22, 
      "lonmax": 5.327790789582646, 
      "latmin": 51.233980144444494
    }, 
    {
      "latmax": 51.22249219042601, 
      "name": "Kraaistraat", 
      "lonmin": 5.2892999076728975, 
      "sanName": "kraaistraat", 
      "numOfAddr": 56, 
      "lonmax": 5.292876694415219, 
      "latmin": 51.22101161954416
    }, 
    {
      "latmax": 51.234697256030636, 
      "name": "Kranenvenstraat", 
      "lonmin": 5.294581609064809, 
      "sanName": "kranenvenstraat", 
      "numOfAddr": 39, 
      "lonmax": 5.300805183532162, 
      "latmin": 51.23327300239656
    }, 
    {
      "latmax": 51.23065471303202, 
      "name": "Kreekstraat", 
      "lonmin": 5.351901055323651, 
      "sanName": "kreekstraat", 
      "numOfAddr": 10, 
      "lonmax": 5.353407340559353, 
      "latmin": 51.22996762993962
    }, 
    {
      "latmax": 51.232711296432605, 
      "name": "Kroonstraat", 
      "lonmin": 5.325963971902235, 
      "sanName": "kroonstraat", 
      "numOfAddr": 7, 
      "lonmax": 5.326551268001417, 
      "latmin": 51.23185897361523
    }, 
    {
      "latmax": 51.2232380987327, 
      "name": "Kruisbekstraat", 
      "lonmin": 5.294013346575358, 
      "sanName": "kruisbekstraat", 
      "numOfAddr": 32, 
      "lonmax": 5.296936176441368, 
      "latmin": 51.221368006900164
    }, 
    {
      "latmax": 51.219550198621306, 
      "name": "Kruisboogstraat", 
      "lonmin": 5.317021891240766, 
      "sanName": "kruisboogstraat", 
      "numOfAddr": 31, 
      "lonmax": 5.319583607969345, 
      "latmin": 51.21752064227563
    }, 
    {
      "latmax": 51.229858943986606, 
      "name": "Kruisstraat", 
      "lonmin": 5.343473464800566, 
      "sanName": "kruisstraat", 
      "numOfAddr": 31, 
      "lonmax": 5.348720613411049, 
      "latmin": 51.22907004173661
    }, 
    {
      "latmax": 51.23112308971033, 
      "name": "Kuilstraat", 
      "lonmin": 5.34355965532251, 
      "sanName": "kuilstraat", 
      "numOfAddr": 8, 
      "lonmax": 5.3449337963647965, 
      "latmin": 51.23052795182001
    }, 
    {
      "latmax": 51.24061920263153, 
      "name": "Kuipersweg", 
      "lonmin": 5.359909821766279, 
      "sanName": "kuipersweg", 
      "numOfAddr": 24, 
      "lonmax": 5.360523517048979, 
      "latmin": 51.23853077750422
    }, 
    {
      "latmax": 51.23835901365426, 
      "name": "Kwadeveldenstraat", 
      "lonmin": 5.309078331690194, 
      "sanName": "kwadeveldenstraat", 
      "numOfAddr": 30, 
      "lonmax": 5.313907354525099, 
      "latmin": 51.23683265722189
    }, 
    {
      "latmax": 51.219881409144776, 
      "name": "Kwartelpad", 
      "lonmin": 5.288982036737685, 
      "sanName": "kwartelpad", 
      "numOfAddr": 14, 
      "lonmax": 5.290046291781661, 
      "latmin": 51.21940915569914
    }, 
    {
      "latmax": 51.2359360557046, 
      "name": "Landbouwstraat", 
      "lonmin": 5.355720049883156, 
      "sanName": "landbouwstraat", 
      "numOfAddr": 40, 
      "lonmax": 5.359060091074066, 
      "latmin": 51.23168431278981
    }, 
    {
      "latmax": 51.235275150349615, 
      "name": "Lange-Vorenweg", 
      "lonmin": 5.328134407195942, 
      "sanName": "langevorenweg", 
      "numOfAddr": 45, 
      "lonmax": 5.330574901981628, 
      "latmin": 51.233298978586554
    }, 
    {
      "latmax": 51.22880489111019, 
      "name": "Leeuwerikstraat", 
      "lonmin": 5.296213381568711, 
      "sanName": "leeuwerikstraat", 
      "numOfAddr": 18, 
      "lonmax": 5.297510170575847, 
      "latmin": 51.22681432455252
    }, 
    {
      "latmax": 51.227156581392926, 
      "name": "Leliestraat", 
      "lonmin": 5.261136033257756, 
      "sanName": "leliestraat", 
      "numOfAddr": 52, 
      "lonmax": 5.270083864852195, 
      "latmin": 51.22543741951633
    }, 
    {
      "latmax": 51.23966084686949, 
      "name": "Lepelstraat", 
      "lonmin": 5.3072651750034625, 
      "sanName": "lepelstraat", 
      "numOfAddr": 146, 
      "lonmax": 5.3111419379583165, 
      "latmin": 51.230825586253076
    }, 
    {
      "latmax": 51.23570954039655, 
      "name": "Leuken", 
      "lonmin": 5.363348531021872, 
      "sanName": "leuken", 
      "numOfAddr": 85, 
      "lonmax": 5.37535762651332, 
      "latmin": 51.2328406564002
    }, 
    {
      "latmax": 51.23078591319475, 
      "name": "Leukerheide", 
      "lonmin": 5.355664596050272, 
      "sanName": "leukerheide", 
      "numOfAddr": 2, 
      "lonmax": 5.356125485672442, 
      "latmin": 51.23060989029878
    }, 
    {
      "latmax": 51.232562864481565, 
      "name": "Lijsterbesstraat", 
      "lonmin": 5.343186218551558, 
      "sanName": "lijsterbesstraat", 
      "numOfAddr": 2, 
      "lonmax": 5.343342306956617, 
      "latmin": 51.23242701024299
    }, 
    {
      "latmax": 51.22182435043743, 
      "name": "Lijsterstraat", 
      "lonmin": 5.300196442058031, 
      "sanName": "lijsterstraat", 
      "numOfAddr": 20, 
      "lonmax": 5.303000040335247, 
      "latmin": 51.22063840528989
    }, 
    {
      "latmax": 51.234922395787414, 
      "name": "Lindestraat", 
      "lonmin": 5.333882921659112, 
      "sanName": "lindestraat", 
      "numOfAddr": 18, 
      "lonmax": 5.336452914160924, 
      "latmin": 51.234093585434785
    }, 
    {
      "latmax": 51.22114140806351, 
      "name": "Lismortel", 
      "lonmin": 5.320526151119141, 
      "sanName": "lismortel", 
      "numOfAddr": 16, 
      "lonmax": 5.324041791767546, 
      "latmin": 51.21976422934312
    }, 
    {
      "latmax": 51.23095512817411, 
      "name": "Loberg", 
      "lonmin": 5.3346820421617025, 
      "sanName": "loberg", 
      "numOfAddr": 53, 
      "lonmax": 5.337910343172004, 
      "latmin": 51.224553289972306
    }, 
    {
      "latmax": 51.220880425491266, 
      "name": "Lodewijk De Raetstraat", 
      "lonmin": 5.2711440415569015, 
      "sanName": "lodewijkderaetstraat", 
      "numOfAddr": 39, 
      "lonmax": 5.285507728521169, 
      "latmin": 51.217566911172796
    }, 
    {
      "latmax": 51.246939916893616, 
      "name": "Lorkstraat", 
      "lonmin": 5.336340075154275, 
      "sanName": "lorkstraat", 
      "numOfAddr": 16, 
      "lonmax": 5.337955478182589, 
      "latmin": 51.245685696973
    }, 
    {
      "latmax": 51.25317598359748, 
      "name": "Lossingsweg", 
      "lonmin": 5.309187959971271, 
      "sanName": "lossingsweg", 
      "numOfAddr": 2, 
      "lonmax": 5.309439354619491, 
      "latmin": 51.2524387738425
    }, 
    {
      "latmax": 51.21619041518901, 
      "name": "Louis Pasteurstraat", 
      "lonmin": 5.25708691774605, 
      "sanName": "louispasteurstraat", 
      "numOfAddr": 6, 
      "lonmax": 5.2599119754947035, 
      "latmin": 51.215682203403134
    }, 
    {
      "latmax": 51.22998638788752, 
      "name": "Louis Paul Boonstraat", 
      "lonmin": 5.2838361246430745, 
      "sanName": "louispaulboonstraat", 
      "numOfAddr": 9, 
      "lonmax": 5.284467554689555, 
      "latmin": 51.228601422292684
    }, 
    {
      "latmax": 51.26671352435162, 
      "name": "Luikersteenweg", 
      "lonmin": 5.362687166406412, 
      "sanName": "luikersteenweg", 
      "numOfAddr": 400, 
      "lonmax": 5.396345202066808, 
      "latmin": 51.21700102759349
    }, 
    {
      "latmax": 51.23358226152485, 
      "name": "Lutlommel", 
      "lonmin": 5.331682243930153, 
      "sanName": "lutlommel", 
      "numOfAddr": 192, 
      "lonmax": 5.363093893824673, 
      "latmin": 51.231057377485584
    }, 
    {
      "latmax": 51.16907227565618, 
      "name": "Maaldersweg", 
      "lonmin": 5.276733315098674, 
      "sanName": "maaldersweg", 
      "numOfAddr": 5, 
      "lonmax": 5.277346768500101, 
      "latmin": 51.16853898682576
    }, 
    {
      "latmax": 51.247548239587545, 
      "name": "Maatheide", 
      "lonmin": 5.241949311572022, 
      "sanName": "maatheide", 
      "numOfAddr": 43, 
      "lonmax": 5.366149644339207, 
      "latmin": 51.218501074421624
    }, 
    {
      "latmax": 51.242209534591986, 
      "name": "Malpertuusstraat", 
      "lonmin": 5.376624797351902, 
      "sanName": "malpertuusstraat", 
      "numOfAddr": 11, 
      "lonmax": 5.378224143294613, 
      "latmin": 51.240969492131924
    }, 
    {
      "latmax": 51.24131617647537, 
      "name": "Mandenmakersweg", 
      "lonmin": 5.354500407614717, 
      "sanName": "mandenmakersweg", 
      "numOfAddr": 25, 
      "lonmax": 5.356579643581796, 
      "latmin": 51.240054790733275
    }, 
    {
      "latmax": 51.21336770935895, 
      "name": "Marie Curiestraat", 
      "lonmin": 5.28421145242309, 
      "sanName": "mariecuriestraat", 
      "numOfAddr": 1, 
      "lonmax": 5.28421145242309, 
      "latmin": 51.21336770935895
    }, 
    {
      "latmax": 51.22806832990083, 
      "name": "Martinus Van Gurplaan", 
      "lonmin": 5.258828509560145, 
      "sanName": "martinusvangurplaan", 
      "numOfAddr": 42, 
      "lonmax": 5.263446774326948, 
      "latmin": 51.220132415939744
    }, 
    {
      "latmax": 51.22761898977175, 
      "name": "Maststraat", 
      "lonmin": 5.227735146264785, 
      "sanName": "maststraat", 
      "numOfAddr": 4, 
      "lonmax": 5.228201346327256, 
      "latmin": 51.227087003884186
    }, 
    {
      "latmax": 51.20402455576497, 
      "name": "Meiboomstraat", 
      "lonmin": 5.308284006143864, 
      "sanName": "meiboomstraat", 
      "numOfAddr": 2, 
      "lonmax": 5.309305600609869, 
      "latmin": 51.20401461896105
    }, 
    {
      "latmax": 51.233112676224955, 
      "name": "Meidoornstraat", 
      "lonmin": 5.333927066433806, 
      "sanName": "meidoornstraat", 
      "numOfAddr": 25, 
      "lonmax": 5.337402778530667, 
      "latmin": 51.23255886133583
    }, 
    {
      "latmax": 51.22155006608002, 
      "name": "Meierijstraat", 
      "lonmin": 5.324889200644806, 
      "sanName": "meierijstraat", 
      "numOfAddr": 4, 
      "lonmax": 5.325691374392141, 
      "latmin": 51.22111743115902
    }, 
    {
      "latmax": 51.22043539026962, 
      "name": "Merelstraat", 
      "lonmin": 5.298053324239498, 
      "sanName": "merelstraat", 
      "numOfAddr": 10, 
      "lonmax": 5.29970478425791, 
      "latmin": 51.21963034525162
    }, 
    {
      "latmax": 51.20559712009482, 
      "name": "Meutestraat", 
      "lonmin": 5.309119617871386, 
      "sanName": "meutestraat", 
      "numOfAddr": 30, 
      "lonmax": 5.314918877705638, 
      "latmin": 51.20346913011419
    }, 
    {
      "latmax": 51.22272724158719, 
      "name": "Mezenstraat", 
      "lonmin": 5.301939052860653, 
      "sanName": "mezenstraat", 
      "numOfAddr": 22, 
      "lonmax": 5.304657042469434, 
      "latmin": 51.22036092340794
    }, 
    {
      "latmax": 51.229649589724524, 
      "name": "Michiel Jansplein", 
      "lonmin": 5.314393416672021, 
      "sanName": "michieljansplein", 
      "numOfAddr": 24, 
      "lonmax": 5.3164138785093655, 
      "latmin": 51.22858713570053
    }, 
    {
      "latmax": 51.16278086553631, 
      "name": "Millenniumplein", 
      "lonmin": 5.261982214448036, 
      "sanName": "millenniumplein", 
      "numOfAddr": 26, 
      "lonmax": 5.264053943581868, 
      "latmin": 51.161280630822255
    }, 
    {
      "latmax": 51.2339602401479, 
      "name": "Molenakkerweg", 
      "lonmin": 5.327010350805089, 
      "sanName": "molenakkerweg", 
      "numOfAddr": 20, 
      "lonmax": 5.329230493778693, 
      "latmin": 51.233480642613834
    }, 
    {
      "latmax": 51.2345725079661, 
      "name": "Molenberg", 
      "lonmin": 5.3315442251212, 
      "sanName": "molenberg", 
      "numOfAddr": 15, 
      "lonmax": 5.332626476827414, 
      "latmin": 51.23274493593673
    }, 
    {
      "latmax": 51.23376495858763, 
      "name": "Molenstraat", 
      "lonmin": 5.312147880874326, 
      "sanName": "molenstraat", 
      "numOfAddr": 96, 
      "lonmax": 5.331371982225842, 
      "latmin": 51.232148534303285
    }, 
    {
      "latmax": 51.23339177212664, 
      "name": "Molsekiezel", 
      "lonmin": 5.2757441777825065, 
      "sanName": "molsekiezel", 
      "numOfAddr": 173, 
      "lonmax": 5.306410389273083, 
      "latmin": 51.23096428587992
    }, 
    {
      "latmax": 51.162867541653675, 
      "name": "Morgenstraat", 
      "lonmin": 5.261364800726063, 
      "sanName": "morgenstraat", 
      "numOfAddr": 11, 
      "lonmax": 5.263155510393211, 
      "latmin": 51.16237952827052
    }, 
    {
      "latmax": 51.25697703251223, 
      "name": "Mortels", 
      "lonmin": 5.3336400547025296, 
      "sanName": "mortels", 
      "numOfAddr": 7, 
      "lonmax": 5.335498772338564, 
      "latmin": 51.25398651117327
    }, 
    {
      "latmax": 51.248945951740986, 
      "name": "Mosstraat", 
      "lonmin": 5.322404780193816, 
      "sanName": "mosstraat", 
      "numOfAddr": 37, 
      "lonmax": 5.327525798714792, 
      "latmin": 51.24290866687776
    }, 
    {
      "latmax": 51.232920408698845, 
      "name": "Mudakkers", 
      "lonmin": 5.310399614047235, 
      "sanName": "mudakkers", 
      "numOfAddr": 72, 
      "lonmax": 5.327094298380292, 
      "latmin": 51.230469780576726
    }, 
    {
      "latmax": 51.22840427771646, 
      "name": "Nachtegaalstraat", 
      "lonmin": 5.30370245048723, 
      "sanName": "nachtegaalstraat", 
      "numOfAddr": 29, 
      "lonmax": 5.307191617399792, 
      "latmin": 51.225881142894075
    }, 
    {
      "latmax": 51.1833602648842, 
      "name": "Nieuwe Dijk", 
      "lonmin": 5.270184212127112, 
      "sanName": "nieuwedijk", 
      "numOfAddr": 37, 
      "lonmax": 5.275436968625788, 
      "latmin": 51.16742948141159
    }, 
    {
      "latmax": 51.24558401086653, 
      "name": "Nieuwe Kopen", 
      "lonmin": 5.299387382391902, 
      "sanName": "nieuwekopen", 
      "numOfAddr": 5, 
      "lonmax": 5.301080851958852, 
      "latmin": 51.24545940934169
    }, 
    {
      "latmax": 51.19314264789687, 
      "name": "Nieuwe Vosvijvers", 
      "lonmin": 5.258404625298456, 
      "sanName": "nieuwevosvijvers", 
      "numOfAddr": 40, 
      "lonmax": 5.268914476788979, 
      "latmin": 51.18644696340161
    }, 
    {
      "latmax": 51.227439033059746, 
      "name": "Nieuwstraat", 
      "lonmin": 5.221751296904201, 
      "sanName": "nieuwstraat", 
      "numOfAddr": 4, 
      "lonmax": 5.222711343723319, 
      "latmin": 51.2242962753784
    }, 
    {
      "latmax": 51.21831308200421, 
      "name": "Nijshoek", 
      "lonmin": 5.305120672010832, 
      "sanName": "nijshoek", 
      "numOfAddr": 64, 
      "lonmax": 5.309979285927611, 
      "latmin": 51.21644675523231
    }, 
    {
      "latmax": 51.247440464034455, 
      "name": "Nijverheidsweg", 
      "lonmin": 5.261588660990253, 
      "sanName": "nijverheidsweg", 
      "numOfAddr": 2, 
      "lonmax": 5.287838535429716, 
      "latmin": 51.1782747990001
    }, 
    {
      "latmax": 51.22801762183689, 
      "name": "Norbert Neeckxlaan", 
      "lonmin": 5.315676370787099, 
      "sanName": "norbertneeckxlaan", 
      "numOfAddr": 127, 
      "lonmax": 5.361376900142289, 
      "latmin": 51.21822835653643
    }, 
    {
      "latmax": 51.21247166854392, 
      "name": "Ondernemersstraat", 
      "lonmin": 5.2747570976094, 
      "sanName": "ondernemersstraat", 
      "numOfAddr": 5, 
      "lonmax": 5.279314283528044, 
      "latmin": 51.21015034629619
    }, 
    {
      "latmax": 51.22686616310212, 
      "name": "Onderwijsstraat", 
      "lonmin": 5.31686046257438, 
      "sanName": "onderwijsstraat", 
      "numOfAddr": 21, 
      "lonmax": 5.3202409265622945, 
      "latmin": 51.223774562357065
    }, 
    {
      "latmax": 51.2196441044784, 
      "name": "Ooievaarstraat", 
      "lonmin": 5.292872204704129, 
      "sanName": "ooievaarstraat", 
      "numOfAddr": 19, 
      "lonmax": 5.295969767084392, 
      "latmin": 51.217566892713215
    }, 
    {
      "latmax": 51.21145179150566, 
      "name": "Oude Diestersebaan", 
      "lonmin": 5.305985757307611, 
      "sanName": "oudediestersebaan", 
      "numOfAddr": 76, 
      "lonmax": 5.320125411976614, 
      "latmin": 51.19760297690458
    }, 
    {
      "latmax": 51.239957173748515, 
      "name": "Oude Heidestraat", 
      "lonmin": 5.317381012664045, 
      "sanName": "oudeheidestraat", 
      "numOfAddr": 4, 
      "lonmax": 5.318609709282762, 
      "latmin": 51.23981584565595
    }, 
    {
      "latmax": 51.26491363542897, 
      "name": "Oude Maai", 
      "lonmin": 5.362591301977585, 
      "sanName": "oudemaai", 
      "numOfAddr": 18, 
      "lonmax": 5.376530090938411, 
      "latmin": 51.258145578187005
    }, 
    {
      "latmax": 51.19072258181878, 
      "name": "Oude Vosvijvers", 
      "lonmin": 5.2649807762071905, 
      "sanName": "oudevosvijvers", 
      "numOfAddr": 20, 
      "lonmax": 5.268132466169938, 
      "latmin": 51.18582837868348
    }, 
    {
      "latmax": 51.227436003294315, 
      "name": "Ovenplein", 
      "lonmin": 5.256950704157002, 
      "sanName": "ovenplein", 
      "numOfAddr": 16, 
      "lonmax": 5.258685659981141, 
      "latmin": 51.22654760553199
    }, 
    {
      "latmax": 51.18275603890523, 
      "name": "Overmaai", 
      "lonmin": 5.261232373447796, 
      "sanName": "overmaai", 
      "numOfAddr": 22, 
      "lonmax": 5.267664640293148, 
      "latmin": 51.16880042012535
    }, 
    {
      "latmax": 51.18522860042377, 
      "name": "Overmaaipark", 
      "lonmin": 5.2590275248732095, 
      "sanName": "overmaaipark", 
      "numOfAddr": 37, 
      "lonmax": 5.263445277069942, 
      "latmin": 51.182609633218526
    }, 
    {
      "latmax": 51.22839022113077, 
      "name": "Paardenkuilstraat", 
      "lonmin": 5.291334571439377, 
      "sanName": "paardenkuilstraat", 
      "numOfAddr": 12, 
      "lonmax": 5.292635026563347, 
      "latmin": 51.22735073270023
    }, 
    {
      "latmax": 51.164607223575665, 
      "name": "Pakdragersstraat", 
      "lonmin": 5.2903371973122075, 
      "sanName": "pakdragersstraat", 
      "numOfAddr": 5, 
      "lonmax": 5.2913354028265385, 
      "latmin": 51.164398747161066
    }, 
    {
      "latmax": 51.21899383296166, 
      "name": "Parkietstraat", 
      "lonmin": 5.295082855371622, 
      "sanName": "parkietstraat", 
      "numOfAddr": 8, 
      "lonmax": 5.296952568513444, 
      "latmin": 51.21841359450375
    }, 
    {
      "latmax": 51.20863788283597, 
      "name": "Pater Eymardstraat", 
      "lonmin": 5.31056743857892, 
      "sanName": "patereymardstraat", 
      "numOfAddr": 36, 
      "lonmax": 5.315874715679092, 
      "latmin": 51.20788483571075
    }, 
    {
      "latmax": 51.24460167735448, 
      "name": "Patrijsstraat", 
      "lonmin": 5.37921709067284, 
      "sanName": "patrijsstraat", 
      "numOfAddr": 3, 
      "lonmax": 5.3801874008356165, 
      "latmin": 51.24437098804744
    }, 
    {
      "latmax": 51.20926828518159, 
      "name": "Paulusstraat", 
      "lonmin": 5.23262905908145, 
      "sanName": "paulusstraat", 
      "numOfAddr": 23, 
      "lonmax": 5.249405269014227, 
      "latmin": 51.204021535518805
    }, 
    {
      "latmax": 51.23776324077448, 
      "name": "Peter Aertsstraat", 
      "lonmin": 5.370405979332505, 
      "sanName": "peteraertsstraat", 
      "numOfAddr": 6, 
      "lonmax": 5.37120860740481, 
      "latmin": 51.23709792203986
    }, 
    {
      "latmax": 51.16442759260592, 
      "name": "Peter Hanegreefsstraat", 
      "lonmin": 5.2674869606155506, 
      "sanName": "peterhanegreefsstraat", 
      "numOfAddr": 12, 
      "lonmax": 5.268918896700753, 
      "latmin": 51.163994481315584
    }, 
    {
      "latmax": 51.24785513628417, 
      "name": "Pieter Breugheldreef", 
      "lonmin": 5.31038254356506, 
      "sanName": "pieterbreugheldreef", 
      "numOfAddr": 46, 
      "lonmax": 5.317600667340257, 
      "latmin": 51.24040024287513
    }, 
    {
      "latmax": 51.22762468923948, 
      "name": "Pieter de Coninckstraat", 
      "lonmin": 5.32791113863569, 
      "sanName": "pieterdeconinckstraat", 
      "numOfAddr": 45, 
      "lonmax": 5.335365077095193, 
      "latmin": 51.225535489098014
    }, 
    {
      "latmax": 51.24565315996865, 
      "name": "Pieter Paul Rubensdreef", 
      "lonmin": 5.311627683965785, 
      "sanName": "pieterpaulrubensdreef", 
      "numOfAddr": 19, 
      "lonmax": 5.31559220311661, 
      "latmin": 51.24349273340394
    }, 
    {
      "latmax": 51.2169933489483, 
      "name": "Pijlstraat", 
      "lonmin": 5.313815255651678, 
      "sanName": "pijlstraat", 
      "numOfAddr": 10, 
      "lonmax": 5.314881028575301, 
      "latmin": 51.215595620070175
    }, 
    {
      "latmax": 51.16745999669299, 
      "name": "Pijnvenstraat", 
      "lonmin": 5.278013482933615, 
      "sanName": "pijnvenstraat", 
      "numOfAddr": 99, 
      "lonmax": 5.295952927456358, 
      "latmin": 51.162622962401585
    }, 
    {
      "latmax": 51.16320716773714, 
      "name": "Plaggenstraat", 
      "lonmin": 5.276462464389257, 
      "sanName": "plaggenstraat", 
      "numOfAddr": 2, 
      "lonmax": 5.277575118505784, 
      "latmin": 51.16285943833969
    }, 
    {
      "latmax": 51.23743338201127, 
      "name": "Plataanstraat", 
      "lonmin": 5.335828866382196, 
      "sanName": "plataanstraat", 
      "numOfAddr": 48, 
      "lonmax": 5.340699268314127, 
      "latmin": 51.232223864507
    }, 
    {
      "latmax": 51.234031675278956, 
      "name": "Ploegstraat", 
      "lonmin": 5.292451184958368, 
      "sanName": "ploegstraat", 
      "numOfAddr": 11, 
      "lonmax": 5.294428552772862, 
      "latmin": 51.23348541044437
    }, 
    {
      "latmax": 51.16585650975768, 
      "name": "Polderstraat", 
      "lonmin": 5.274212126507606, 
      "sanName": "polderstraat", 
      "numOfAddr": 4, 
      "lonmax": 5.2753379950619275, 
      "latmin": 51.16435286331956
    }, 
    {
      "latmax": 51.2479911493997, 
      "name": "Populierenstraat", 
      "lonmin": 5.331136080670517, 
      "sanName": "populierenstraat", 
      "numOfAddr": 25, 
      "lonmax": 5.335346232411697, 
      "latmin": 51.245965702478856
    }, 
    {
      "latmax": 51.2419304525781, 
      "name": "Pottenbakkersweg", 
      "lonmin": 5.35097302137376, 
      "sanName": "pottenbakkersweg", 
      "numOfAddr": 63, 
      "lonmax": 5.354755577911548, 
      "latmin": 51.23957921107363
    }, 
    {
      "latmax": 51.218404687939454, 
      "name": "Priester Daensstraat", 
      "lonmin": 5.268818374158881, 
      "sanName": "priesterdaensstraat", 
      "numOfAddr": 5, 
      "lonmax": 5.270736553405067, 
      "latmin": 51.21652639625074
    }, 
    {
      "latmax": 51.231192557116195, 
      "name": "Prins Alexanderstraat", 
      "lonmin": 5.315103287266206, 
      "sanName": "prinsalexanderstraat", 
      "numOfAddr": 12, 
      "lonmax": 5.315738032301854, 
      "latmin": 51.23020203065885
    }, 
    {
      "latmax": 51.234792485627, 
      "name": "Prinsenstraat", 
      "lonmin": 5.317447997198682, 
      "sanName": "prinsenstraat", 
      "numOfAddr": 16, 
      "lonmax": 5.318409392142829, 
      "latmin": 51.2329342026218
    }, 
    {
      "latmax": 51.24206639761391, 
      "name": "Quinten Metsysdreef", 
      "lonmin": 5.314536316589797, 
      "sanName": "quintenmetsysdreef", 
      "numOfAddr": 6, 
      "lonmax": 5.315691852757027, 
      "latmin": 51.24153680720974
    }, 
    {
      "latmax": 51.18221435626558, 
      "name": "Rapenstraat", 
      "lonmin": 5.295910350753115, 
      "sanName": "rapenstraat", 
      "numOfAddr": 3, 
      "lonmax": 5.296489149506788, 
      "latmin": 51.18215254903703
    }, 
    {
      "latmax": 51.22613053531072, 
      "name": "Reigerstraat", 
      "lonmin": 5.296273091678121, 
      "sanName": "reigerstraat", 
      "numOfAddr": 16, 
      "lonmax": 5.297706483241397, 
      "latmin": 51.22458644623318
    }, 
    {
      "latmax": 51.21590096837338, 
      "name": "Rembert Dodoensstraat", 
      "lonmin": 5.275449546267354, 
      "sanName": "rembertdodoensstraat", 
      "numOfAddr": 14, 
      "lonmax": 5.280267887006811, 
      "latmin": 51.21312929102932
    }, 
    {
      "latmax": 51.23176296953437, 
      "name": "Ridderstraat", 
      "lonmin": 5.320190101154143, 
      "sanName": "ridderstraat", 
      "numOfAddr": 7, 
      "lonmax": 5.320451710828158, 
      "latmin": 51.23113342469913
    }, 
    {
      "latmax": 51.22031863647008, 
      "name": "Rietstraat", 
      "lonmin": 5.322334861955038, 
      "sanName": "rietstraat", 
      "numOfAddr": 6, 
      "lonmax": 5.323189874168395, 
      "latmin": 51.21981273444636
    }, 
    {
      "latmax": 51.22150535404938, 
      "name": "Rietvoornstraat", 
      "lonmin": 5.260853852696299, 
      "sanName": "rietvoornstraat", 
      "numOfAddr": 7, 
      "lonmax": 5.26221775813706, 
      "latmin": 51.22059338939029
    }, 
    {
      "latmax": 51.24059425586537, 
      "name": "Rijfstraat", 
      "lonmin": 5.3010197238508905, 
      "sanName": "rijfstraat", 
      "numOfAddr": 22, 
      "lonmax": 5.302541949380971, 
      "latmin": 51.238556129945586
    }, 
    {
      "latmax": 51.23241842777809, 
      "name": "Rijksschoolstraat", 
      "lonmin": 5.311286262947872, 
      "sanName": "rijksschoolstraat", 
      "numOfAddr": 10, 
      "lonmax": 5.311846183799422, 
      "latmin": 51.23115996829855
    }, 
    {
      "latmax": 51.24175143475032, 
      "name": "Rijtenstraat", 
      "lonmin": 5.296848692206731, 
      "sanName": "rijtenstraat", 
      "numOfAddr": 40, 
      "lonmax": 5.303720684940042, 
      "latmin": 51.23890211342563
    }, 
    {
      "latmax": 51.16341471465538, 
      "name": "Rode-Bornstraat", 
      "lonmin": 5.2870774278963015, 
      "sanName": "rodebornstraat", 
      "numOfAddr": 2, 
      "lonmax": 5.2875561961502395, 
      "latmin": 51.16329277168929
    }, 
    {
      "latmax": 51.22955526433894, 
      "name": "Rodekruisstraat", 
      "lonmin": 5.307040778257935, 
      "sanName": "rodekruisstraat", 
      "numOfAddr": 58, 
      "lonmax": 5.312283484949806, 
      "latmin": 51.22817214852522
    }, 
    {
      "latmax": 51.23369603645087, 
      "name": "Rode Poortstraat", 
      "lonmin": 5.349694464206792, 
      "sanName": "rodepoortstraat", 
      "numOfAddr": 1, 
      "lonmax": 5.349694464206792, 
      "latmin": 51.23369603645087
    }, 
    {
      "latmax": 51.221849640626914, 
      "name": "Roekstraat", 
      "lonmin": 5.28994580709121, 
      "sanName": "roekstraat", 
      "numOfAddr": 16, 
      "lonmax": 5.291692051782403, 
      "latmin": 51.22064999308542
    }, 
    {
      "latmax": 51.22761686648403, 
      "name": "Roerdompstraat", 
      "lonmin": 5.302151025396432, 
      "sanName": "roerdompstraat", 
      "numOfAddr": 33, 
      "lonmax": 5.305059775630744, 
      "latmin": 51.22518493540181
    }, 
    {
      "latmax": 51.22814202501541, 
      "name": "Roerstraat", 
      "lonmin": 5.21888901770431, 
      "sanName": "roerstraat", 
      "numOfAddr": 6, 
      "lonmax": 5.2280849667432205, 
      "latmin": 51.225150915453796
    }, 
    {
      "latmax": 51.183494083092256, 
      "name": "Roggestraat", 
      "lonmin": 5.28888004743673, 
      "sanName": "roggestraat", 
      "numOfAddr": 12, 
      "lonmax": 5.297856191860997, 
      "latmin": 51.18183223021582
    }, 
    {
      "latmax": 51.24873188419304, 
      "name": "Rogier van der Weydendreef", 
      "lonmin": 5.3126726015748496, 
      "sanName": "rogiervanderweydendreef", 
      "numOfAddr": 14, 
      "lonmax": 5.315446273978446, 
      "latmin": 51.245779225314735
    }, 
    {
      "latmax": 51.242364990370476, 
      "name": "Rolstraat", 
      "lonmin": 5.302277611467291, 
      "sanName": "rolstraat", 
      "numOfAddr": 15, 
      "lonmax": 5.304316826217316, 
      "latmin": 51.24084368891182
    }, 
    {
      "latmax": 51.229579943100475, 
      "name": "Rozenstraat", 
      "lonmin": 5.269068692629797, 
      "sanName": "rozenstraat", 
      "numOfAddr": 11, 
      "lonmax": 5.269736650629214, 
      "latmin": 51.227370409643186
    }, 
    {
      "latmax": 51.226120606478744, 
      "name": "Ruiterijstraat", 
      "lonmin": 5.317415518736148, 
      "sanName": "ruiterijstraat", 
      "numOfAddr": 24, 
      "lonmax": 5.319522345491246, 
      "latmin": 51.22459860570715
    }, 
    {
      "latmax": 51.25035120240912, 
      "name": "Russendorp", 
      "lonmin": 5.223207107749399, 
      "sanName": "russendorp", 
      "numOfAddr": 14, 
      "lonmax": 5.229207589860497, 
      "latmin": 51.23937345300514
    }, 
    {
      "latmax": 51.22665397658914, 
      "name": "Rustoordstraat", 
      "lonmin": 5.319592134986576, 
      "sanName": "rustoordstraat", 
      "numOfAddr": 8, 
      "lonmax": 5.320396390495742, 
      "latmin": 51.226097097591186
    }, 
    {
      "latmax": 51.23972325833332, 
      "name": "Ruwe-Heuvelweg", 
      "lonmin": 5.270917612114329, 
      "sanName": "ruweheuvelweg", 
      "numOfAddr": 1, 
      "lonmax": 5.270917612114329, 
      "latmin": 51.23972325833332
    }, 
    {
      "latmax": 51.22280584623045, 
      "name": "Salamanderstraat", 
      "lonmin": 5.320878491467761, 
      "sanName": "salamanderstraat", 
      "numOfAddr": 5, 
      "lonmax": 5.32289051778124, 
      "latmin": 51.22241353409996
    }, 
    {
      "latmax": 51.25839640570045, 
      "name": "Saskesdreef", 
      "lonmin": 5.3908914035424615, 
      "sanName": "saskesdreef", 
      "numOfAddr": 5, 
      "lonmax": 5.393173882423539, 
      "latmin": 51.25733871582747
    }, 
    {
      "latmax": 51.24856157325009, 
      "name": "Schaapsven", 
      "lonmin": 5.327097446146731, 
      "sanName": "schaapsven", 
      "numOfAddr": 16, 
      "lonmax": 5.329224662489353, 
      "latmin": 51.246648450074616
    }, 
    {
      "latmax": 51.23297444527361, 
      "name": "Schamprood", 
      "lonmin": 5.338463568277082, 
      "sanName": "schamprood", 
      "numOfAddr": 118, 
      "lonmax": 5.362694846973393, 
      "latmin": 51.22781006430477
    }, 
    {
      "latmax": 51.231743775919014, 
      "name": "Schansstraat", 
      "lonmin": 5.3473201144363385, 
      "sanName": "schansstraat", 
      "numOfAddr": 46, 
      "lonmax": 5.353598419009751, 
      "latmin": 51.22086198559542
    }, 
    {
      "latmax": 51.23255973755696, 
      "name": "Scheepvaartstraat", 
      "lonmin": 5.227832277158886, 
      "sanName": "scheepvaartstraat", 
      "numOfAddr": 7, 
      "lonmax": 5.230856088268835, 
      "latmin": 51.22521517952604
    }, 
    {
      "latmax": 51.245438428906574, 
      "name": "Schievelhoek", 
      "lonmin": 5.342243997154185, 
      "sanName": "schievelhoek", 
      "numOfAddr": 4, 
      "lonmax": 5.342766065294717, 
      "latmin": 51.24494683078527
    }, 
    {
      "latmax": 51.20576542784719, 
      "name": "Schommelstraat", 
      "lonmin": 5.312074936753342, 
      "sanName": "schommelstraat", 
      "numOfAddr": 10, 
      "lonmax": 5.312870667197014, 
      "latmin": 51.20455808930734
    }, 
    {
      "latmax": 51.23564485038729, 
      "name": "Schoolstraat", 
      "lonmin": 5.349003278891129, 
      "sanName": "schoolstraat", 
      "numOfAddr": 85, 
      "lonmax": 5.368110038103489, 
      "latmin": 51.23243574284412
    }, 
    {
      "latmax": 51.21545247274938, 
      "name": "Schuttersstraat", 
      "lonmin": 5.313827982062443, 
      "sanName": "schuttersstraat", 
      "numOfAddr": 14, 
      "lonmax": 5.31442741234227, 
      "latmin": 51.21356710628001
    }, 
    {
      "latmax": 51.230506198731476, 
      "name": "Septakkers", 
      "lonmin": 5.32140342400267, 
      "sanName": "septakkers", 
      "numOfAddr": 80, 
      "lonmax": 5.336167589790699, 
      "latmin": 51.227277074498005
    }, 
    {
      "latmax": 51.22859773141222, 
      "name": "Seringenstraat", 
      "lonmin": 5.263827982217394, 
      "sanName": "seringenstraat", 
      "numOfAddr": 11, 
      "lonmax": 5.264845588142751, 
      "latmin": 51.22643609316539
    }, 
    {
      "latmax": 51.2247514956054, 
      "name": "Siberi\u0089", 
      "lonmin": 5.368863072475368, 
      "sanName": "siberi", 
      "numOfAddr": 26, 
      "lonmax": 5.37267818863993, 
      "latmin": 51.22401126672442
    }, 
    {
      "latmax": 51.2206153361868, 
      "name": "Sijsjespad", 
      "lonmin": 5.289228693987838, 
      "sanName": "sijsjespad", 
      "numOfAddr": 42, 
      "lonmax": 5.291350078270273, 
      "latmin": 51.219985102528206
    }, 
    {
      "latmax": 51.23405094571348, 
      "name": "Sikkelstraat", 
      "lonmin": 5.288384226188257, 
      "sanName": "sikkelstraat", 
      "numOfAddr": 29, 
      "lonmax": 5.293194311519597, 
      "latmin": 51.233170023803844
    }, 
    {
      "latmax": 51.21701445841122, 
      "name": "Simon Stevinstraat", 
      "lonmin": 5.277169937073999, 
      "sanName": "simonstevinstraat", 
      "numOfAddr": 6, 
      "lonmax": 5.27893205284516, 
      "latmin": 51.216183918774625
    }, 
    {
      "latmax": 51.160544479636116, 
      "name": "Sint-Amandusstraat", 
      "lonmin": 5.264719305054829, 
      "sanName": "sintamandusstraat", 
      "numOfAddr": 5, 
      "lonmax": 5.268328020404385, 
      "latmin": 51.15960083329316
    }, 
    {
      "latmax": 51.251417532715706, 
      "name": "Sint-Ambrosiusstraat", 
      "lonmin": 5.383607643223734, 
      "sanName": "sintambrosiusstraat", 
      "numOfAddr": 11, 
      "lonmax": 5.384657287784175, 
      "latmin": 51.250407509257926
    }, 
    {
      "latmax": 51.2514393981069, 
      "name": "Sint-Andreasstraat", 
      "lonmin": 5.381567588471984, 
      "sanName": "sintandreasstraat", 
      "numOfAddr": 15, 
      "lonmax": 5.383148652657816, 
      "latmin": 51.250332930694704
    }, 
    {
      "latmax": 51.230241821285155, 
      "name": "Sint-Antoniusstraat", 
      "lonmin": 5.368266071486287, 
      "sanName": "sintantoniusstraat", 
      "numOfAddr": 16, 
      "lonmax": 5.371421723898728, 
      "latmin": 51.229654499448436
    }, 
    {
      "latmax": 51.24728773338187, 
      "name": "Sint-Barbarastraat", 
      "lonmin": 5.384195601483437, 
      "sanName": "sintbarbarastraat", 
      "numOfAddr": 31, 
      "lonmax": 5.38894121753681, 
      "latmin": 51.24565366622026
    }, 
    {
      "latmax": 51.24863875639999, 
      "name": "Sint-Bernardusstraat", 
      "lonmin": 5.376840688581019, 
      "sanName": "sintbernardusstraat", 
      "numOfAddr": 17, 
      "lonmax": 5.381906637507969, 
      "latmin": 51.247244611086124
    }, 
    {
      "latmax": 51.25347027354211, 
      "name": "Sint-Ceciliastraat", 
      "lonmin": 5.37734380976623, 
      "sanName": "sintceciliastraat", 
      "numOfAddr": 15, 
      "lonmax": 5.378585304996571, 
      "latmin": 51.25140214251511
    }, 
    {
      "latmax": 51.25336996305002, 
      "name": "Sint-Franciscusstraat", 
      "lonmin": 5.368512546530477, 
      "sanName": "sintfranciscusstraat", 
      "numOfAddr": 81, 
      "lonmax": 5.3842538311885635, 
      "latmin": 51.249754166897475
    }, 
    {
      "latmax": 51.24380657211612, 
      "name": "Sint-Hubertusstraat", 
      "lonmin": 5.381662067410933, 
      "sanName": "sinthubertusstraat", 
      "numOfAddr": 15, 
      "lonmax": 5.384133934366737, 
      "latmin": 51.24318887436473
    }, 
    {
      "latmax": 51.22645472607988, 
      "name": "Sint-Jan Berchmansstraat", 
      "lonmin": 5.364913898795824, 
      "sanName": "sintjanberchmansstraat", 
      "numOfAddr": 23, 
      "lonmax": 5.3686753369305515, 
      "latmin": 51.225431808350294
    }, 
    {
      "latmax": 51.17146142705967, 
      "name": "Sint-Janstraat", 
      "lonmin": 5.266452674271407, 
      "sanName": "sintjanstraat", 
      "numOfAddr": 35, 
      "lonmax": 5.272585887894695, 
      "latmin": 51.16605081817782
    }, 
    {
      "latmax": 51.25489606813145, 
      "name": "Sint-Jorisstraat", 
      "lonmin": 5.36990507762901, 
      "sanName": "sintjorisstraat", 
      "numOfAddr": 13, 
      "lonmax": 5.371097851310146, 
      "latmin": 51.25363873347881
    }, 
    {
      "latmax": 51.252022814119584, 
      "name": "Sint-Jozefstraat", 
      "lonmin": 5.387276349286671, 
      "sanName": "sintjozefstraat", 
      "numOfAddr": 43, 
      "lonmax": 5.390867739052149, 
      "latmin": 51.24983937746571
    }, 
    {
      "latmax": 51.238650709383684, 
      "name": "Sint-Lucasstraat", 
      "lonmin": 5.3698948800123665, 
      "sanName": "sintlucasstraat", 
      "numOfAddr": 31, 
      "lonmax": 5.376903069886319, 
      "latmin": 51.23698968940361
    }, 
    {
      "latmax": 51.25274006091033, 
      "name": "Sint-Maartenstraat", 
      "lonmin": 5.380248443880581, 
      "sanName": "sintmaartenstraat", 
      "numOfAddr": 10, 
      "lonmax": 5.381980264977844, 
      "latmin": 51.2509048946573
    }, 
    {
      "latmax": 51.244393221714475, 
      "name": "Sint-Marcusstraat", 
      "lonmin": 5.3824925521502145, 
      "sanName": "sintmarcusstraat", 
      "numOfAddr": 1, 
      "lonmax": 5.3824925521502145, 
      "latmin": 51.244393221714475
    }, 
    {
      "latmax": 51.2506139165008, 
      "name": "Sint-Pieterstraat", 
      "lonmin": 5.38593147039004, 
      "sanName": "sintpieterstraat", 
      "numOfAddr": 14, 
      "lonmax": 5.390002210503238, 
      "latmin": 51.24942857433969
    }, 
    {
      "latmax": 51.23239858430476, 
      "name": "Sint-Ritastraat", 
      "lonmin": 5.346516557641157, 
      "sanName": "sintritastraat", 
      "numOfAddr": 42, 
      "lonmax": 5.372903725833585, 
      "latmin": 51.22523455981646
    }, 
    {
      "latmax": 51.22808793738404, 
      "name": "Sint-Theresiastraat", 
      "lonmin": 5.371841779960839, 
      "sanName": "sinttheresiastraat", 
      "numOfAddr": 6, 
      "lonmax": 5.375891599584719, 
      "latmin": 51.22756955766569
    }, 
    {
      "latmax": 51.237085594331994, 
      "name": "Sint-Thomasstraat", 
      "lonmin": 5.3774054195919865, 
      "sanName": "sintthomasstraat", 
      "numOfAddr": 3, 
      "lonmax": 5.378423461144936, 
      "latmin": 51.23667895187621
    }, 
    {
      "latmax": 51.2266445658469, 
      "name": "Slachthuisstraat", 
      "lonmin": 5.335698228122634, 
      "sanName": "slachthuisstraat", 
      "numOfAddr": 17, 
      "lonmax": 5.339460121722463, 
      "latmin": 51.22352996975925
    }, 
    {
      "latmax": 51.232849759335345, 
      "name": "Sleutelstraat", 
      "lonmin": 5.301951556697169, 
      "sanName": "sleutelstraat", 
      "numOfAddr": 12, 
      "lonmax": 5.302530625700066, 
      "latmin": 51.23213807463088
    }, 
    {
      "latmax": 51.2471163469777, 
      "name": "Slinkerstraat", 
      "lonmin": 5.334655534884804, 
      "sanName": "slinkerstraat", 
      "numOfAddr": 65, 
      "lonmax": 5.337141574277892, 
      "latmin": 51.238554087355006
    }, 
    {
      "latmax": 51.239092867387754, 
      "name": "Sloepstraat", 
      "lonmin": 5.230645004869948, 
      "sanName": "sloepstraat", 
      "numOfAddr": 12, 
      "lonmax": 5.232366705253357, 
      "latmin": 51.23714816888428
    }, 
    {
      "latmax": 51.23082039100256, 
      "name": "Slootvenstraat", 
      "lonmin": 5.3309348994888035, 
      "sanName": "slootvenstraat", 
      "numOfAddr": 13, 
      "lonmax": 5.332610857068768, 
      "latmin": 51.22953620087658
    }, 
    {
      "latmax": 51.238945704782964, 
      "name": "Sluizenstraat", 
      "lonmin": 5.2213385381854325, 
      "sanName": "sluizenstraat", 
      "numOfAddr": 6, 
      "lonmax": 5.226402397481776, 
      "latmin": 51.23762609604537
    }, 
    {
      "latmax": 51.22220426682838, 
      "name": "Smisstraat", 
      "lonmin": 5.260042798651665, 
      "sanName": "smisstraat", 
      "numOfAddr": 12, 
      "lonmax": 5.261193458960882, 
      "latmin": 51.22115415427438
    }, 
    {
      "latmax": 51.22671887392319, 
      "name": "Snepstraat", 
      "lonmin": 5.297903047161235, 
      "sanName": "snepstraat", 
      "numOfAddr": 17, 
      "lonmax": 5.300071481931783, 
      "latmin": 51.22546887849957
    }, 
    {
      "latmax": 51.22901150270123, 
      "name": "Snoekstraat", 
      "lonmin": 5.245088725063965, 
      "sanName": "snoekstraat", 
      "numOfAddr": 21, 
      "lonmax": 5.24821373718344, 
      "latmin": 51.227806719496584
    }, 
    {
      "latmax": 51.24637423735014, 
      "name": "Sparstraat", 
      "lonmin": 5.328535853957813, 
      "sanName": "sparstraat", 
      "numOfAddr": 21, 
      "lonmax": 5.330218298121275, 
      "latmin": 51.24358369333104
    }, 
    {
      "latmax": 51.23035143127133, 
      "name": "Spechtstraat", 
      "lonmin": 5.298202045525012, 
      "sanName": "spechtstraat", 
      "numOfAddr": 10, 
      "lonmax": 5.2988904538192445, 
      "latmin": 51.22956115640127
    }, 
    {
      "latmax": 51.24653206104423, 
      "name": "Speelpleinstraat", 
      "lonmin": 5.3021914229833484, 
      "sanName": "speelpleinstraat", 
      "numOfAddr": 17, 
      "lonmax": 5.307429213981234, 
      "latmin": 51.23758889731523
    },