{
  "streets": [
    {
      "latmax": 51.168593312406514, 
      "name": "Abroxweg", 
      "lonmin": 5.59847835834632, 
      "sanName": "abroxweg", 
      "numOfAddr": 26, 
      "lonmax": 5.603282224011268, 
      "latmin": 51.157218489335655
    }, 
    {
      "latmax": 51.13645338866124, 
      "name": "Anjerstraat", 
      "lonmin": 5.604222182619604, 
      "sanName": "anjerstraat", 
      "numOfAddr": 23, 
      "lonmax": 5.605997151746915, 
      "latmin": 51.1345799807752
    }, 
    {
      "latmax": 51.14246475041975, 
      "name": "Augustijnenstraat", 
      "lonmin": 5.597599394542746, 
      "sanName": "augustijnenstraat", 
      "numOfAddr": 2, 
      "lonmax": 5.5976224685573, 
      "latmin": 51.14240751417013
    }, 
    {
      "latmax": 51.16938687523575, 
      "name": "Bankenstraat", 
      "lonmin": 5.622451788212662, 
      "sanName": "bankenstraat", 
      "numOfAddr": 3, 
      "lonmax": 5.62294990684549, 
      "latmin": 51.169292485840316
    }, 
    {
      "latmax": 51.14772607165369, 
      "name": "Barrierstraat", 
      "lonmin": 5.570193315502412, 
      "sanName": "barrierstraat", 
      "numOfAddr": 68, 
      "lonmax": 5.589025604077864, 
      "latmin": 51.139454141974184
    }, 
    {
      "latmax": 51.156654422616676, 
      "name": "Beeckerveld", 
      "lonmin": 5.595461948606702, 
      "sanName": "beeckerveld", 
      "numOfAddr": 5, 
      "lonmax": 5.5959860471371, 
      "latmin": 51.15585270840423
    }, 
    {
      "latmax": 51.155711514062546, 
      "name": "Beekstraat", 
      "lonmin": 5.5956882971407955, 
      "sanName": "beekstraat", 
      "numOfAddr": 8, 
      "lonmax": 5.660739635135253, 
      "latmin": 51.1254829345544
    }, 
    {
      "latmax": 51.15427886057566, 
      "name": "Beerselerdijk", 
      "lonmin": 5.653231875968091, 
      "sanName": "beerselerdijk", 
      "numOfAddr": 8, 
      "lonmax": 5.6827244720345025, 
      "latmin": 51.143235506751175
    }, 
    {
      "latmax": 51.113621881888456, 
      "name": "Bergstraat", 
      "lonmin": 5.650808097674233, 
      "sanName": "bergstraat", 
      "numOfAddr": 75, 
      "lonmax": 5.6649740127709025, 
      "latmin": 51.10796456163012
    }, 
    {
      "latmax": 51.14939882170752, 
      "name": "Berkenbroekstraat", 
      "lonmin": 5.700103095309052, 
      "sanName": "berkenbroekstraat", 
      "numOfAddr": 6, 
      "lonmax": 5.706782622177448, 
      "latmin": 51.14654504700195
    }, 
    {
      "latmax": 51.12530500458292, 
      "name": "Berkenlaan", 
      "lonmin": 5.586221318904789, 
      "sanName": "berkenlaan", 
      "numOfAddr": 51, 
      "lonmax": 5.587297592772989, 
      "latmin": 51.120998636439005
    }, 
    {
      "latmax": 51.13499503513353, 
      "name": "Beukenhofstraat", 
      "lonmin": 5.565365426315512, 
      "sanName": "beukenhofstraat", 
      "numOfAddr": 32, 
      "lonmax": 5.575061182664974, 
      "latmin": 51.13163277565494
    }, 
    {
      "latmax": 51.124195074972036, 
      "name": "Beukenlaan", 
      "lonmin": 5.586982817050924, 
      "sanName": "beukenlaan", 
      "numOfAddr": 8, 
      "lonmax": 5.588040432568316, 
      "latmin": 51.12372818812127
    }, 
    {
      "latmax": 51.14802239917988, 
      "name": "Bijenstraat", 
      "lonmin": 5.5933007774086905, 
      "sanName": "bijenstraat", 
      "numOfAddr": 2, 
      "lonmax": 5.593891266790143, 
      "latmin": 51.147866407588545
    }, 
    {
      "latmax": 51.145324426551745, 
      "name": "Bloemenstraat", 
      "lonmin": 5.595156190850794, 
      "sanName": "bloemenstraat", 
      "numOfAddr": 13, 
      "lonmax": 5.596382567182459, 
      "latmin": 51.14444220184411
    }, 
    {
      "latmax": 51.16407615199535, 
      "name": "Bocholterkiezel", 
      "lonmin": 5.589354156779515, 
      "sanName": "bocholterkiezel", 
      "numOfAddr": 124, 
      "lonmax": 5.595828602788237, 
      "latmin": 51.14398888522472
    }, 
    {
      "latmax": 51.153425576499416, 
      "name": "Bocholterstraat", 
      "lonmin": 5.595653783106308, 
      "sanName": "bocholterstraat", 
      "numOfAddr": 52, 
      "lonmax": 5.598880603446272, 
      "latmin": 51.14518794926845
    }, 
    {
      "latmax": 51.11774235303453, 
      "name": "Bolderweg", 
      "lonmin": 5.64891821576153, 
      "sanName": "bolderweg", 
      "numOfAddr": 2, 
      "lonmax": 5.64931971849258, 
      "latmin": 51.11748654042491
    }, 
    {
      "latmax": 51.141964642759824, 
      "name": "Bonenstraat", 
      "lonmin": 5.661694947708517, 
      "sanName": "bonenstraat", 
      "numOfAddr": 3, 
      "lonmax": 5.662261688583504, 
      "latmin": 51.14169781590482
    }, 
    {
      "latmax": 51.13660998814256, 
      "name": "Boneputstraat", 
      "lonmin": 5.587024256894406, 
      "sanName": "boneputstraat", 
      "numOfAddr": 39, 
      "lonmax": 5.593152842495861, 
      "latmin": 51.1338895394326
    }, 
    {
      "latmax": 51.137933800106026, 
      "name": "Boneputterveld", 
      "lonmin": 5.588492402651533, 
      "sanName": "boneputterveld", 
      "numOfAddr": 35, 
      "lonmax": 5.593289444760419, 
      "latmin": 51.13461544863176
    }, 
    {
      "latmax": 51.14271534799365, 
      "name": "Boogschuttersstraat", 
      "lonmin": 5.588504119055593, 
      "sanName": "boogschuttersstraat", 
      "numOfAddr": 50, 
      "lonmax": 5.5943228647130585, 
      "latmin": 51.14031628702845
    }, 
    {
      "latmax": 51.13397468066975, 
      "name": "Boolenstraat", 
      "lonmin": 5.594619937820656, 
      "sanName": "boolenstraat", 
      "numOfAddr": 4, 
      "lonmax": 5.594843309076533, 
      "latmin": 51.13343215508657
    }, 
    {
      "latmax": 51.141640689473235, 
      "name": "Bosstraat", 
      "lonmin": 5.656014613124361, 
      "sanName": "bosstraat", 
      "numOfAddr": 94, 
      "lonmax": 5.678898525929682, 
      "latmin": 51.126699113991705
    }, 
    {
      "latmax": 51.16057527419944, 
      "name": "Braekenweg", 
      "lonmin": 5.621317502511293, 
      "sanName": "braekenweg", 
      "numOfAddr": 1, 
      "lonmax": 5.621317502511293, 
      "latmin": 51.16057527419944
    }, 
    {
      "latmax": 51.14609478355401, 
      "name": "Bremstraat", 
      "lonmin": 5.589097235758684, 
      "sanName": "bremstraat", 
      "numOfAddr": 18, 
      "lonmax": 5.590708296055167, 
      "latmin": 51.14469203475247
    }, 
    {
      "latmax": 51.15230019711909, 
      "name": "Broekstraat", 
      "lonmin": 5.616135044645065, 
      "sanName": "broekstraat", 
      "numOfAddr": 4, 
      "lonmax": 5.626312878470352, 
      "latmin": 51.14871354005682
    }, 
    {
      "latmax": 51.14320831906694, 
      "name": "Bruglaan", 
      "lonmin": 5.605056689354018, 
      "sanName": "bruglaan", 
      "numOfAddr": 53, 
      "lonmax": 5.6178611969126155, 
      "latmin": 51.14021385969395
    }, 
    {
      "latmax": 51.142816386178346, 
      "name": "Brugstraat", 
      "lonmin": 5.608594707234706, 
      "sanName": "brugstraat", 
      "numOfAddr": 54, 
      "lonmax": 5.618648655310909, 
      "latmin": 51.13897529631097
    }, 
    {
      "latmax": 51.15988607418751, 
      "name": "Campsstraat", 
      "lonmin": 5.624349326985054, 
      "sanName": "campsstraat", 
      "numOfAddr": 1, 
      "lonmax": 5.624349326985054, 
      "latmin": 51.15988607418751
    }, 
    {
      "latmax": 51.12554654129237, 
      "name": "Carloweg", 
      "lonmin": 5.642183941890141, 
      "sanName": "carloweg", 
      "numOfAddr": 4, 
      "lonmax": 5.648426883511961, 
      "latmin": 51.123274507023
    }, 
    {
      "latmax": 51.116112377787736, 
      "name": "Caubergstraat", 
      "lonmin": 5.6476080376406, 
      "sanName": "caubergstraat", 
      "numOfAddr": 79, 
      "lonmax": 5.652729928788679, 
      "latmin": 51.10982444040886
    }, 
    {
      "latmax": 51.138309862808434, 
      "name": "Cobbenberg", 
      "lonmin": 5.587730702546765, 
      "sanName": "cobbenberg", 
      "numOfAddr": 7, 
      "lonmax": 5.58996357939482, 
      "latmin": 51.136081757844835
    }, 
    {
      "latmax": 51.139882171456506, 
      "name": "Cobbestraat", 
      "lonmin": 5.5917582917429565, 
      "sanName": "cobbestraat", 
      "numOfAddr": 26, 
      "lonmax": 5.593482102816191, 
      "latmin": 51.13878579171367
    }, 
    {
      "latmax": 51.12944333486902, 
      "name": "Coenenstraat", 
      "lonmin": 5.611397484856554, 
      "sanName": "coenenstraat", 
      "numOfAddr": 2, 
      "lonmax": 5.611504062564179, 
      "latmin": 51.129363008963125
    }, 
    {
      "latmax": 51.14155550754183, 
      "name": "Conenstraat", 
      "lonmin": 5.5913476648386915, 
      "sanName": "conenstraat", 
      "numOfAddr": 32, 
      "lonmax": 5.593412337394582, 
      "latmin": 51.14028790296735
    }, 
    {
      "latmax": 51.140061414201334, 
      "name": "Cosijnstraat", 
      "lonmin": 5.594062973284233, 
      "sanName": "cosijnstraat", 
      "numOfAddr": 25, 
      "lonmax": 5.5954550754164565, 
      "latmin": 51.139030817417606
    }, 
    {
      "latmax": 51.13594783204176, 
      "name": "De Houborn", 
      "lonmin": 5.600077072741452, 
      "sanName": "dehouborn", 
      "numOfAddr": 37, 
      "lonmax": 5.602020133382298, 
      "latmin": 51.13527018359495
    }, 
    {
      "latmax": 51.1539721781558, 
      "name": "Dekkersstraat", 
      "lonmin": 5.603490516454543, 
      "sanName": "dekkersstraat", 
      "numOfAddr": 17, 
      "lonmax": 5.6055283764236785, 
      "latmin": 51.1535291969796
    }, 
    {
      "latmax": 51.14322396274897, 
      "name": "Dennenhofstraat", 
      "lonmin": 5.608851319652108, 
      "sanName": "dennenhofstraat", 
      "numOfAddr": 1, 
      "lonmax": 5.608851319652108, 
      "latmin": 51.14322396274897
    }, 
    {
      "latmax": 51.15276671286156, 
      "name": "Diamantstraat", 
      "lonmin": 5.5974365361723875, 
      "sanName": "diamantstraat", 
      "numOfAddr": 36, 
      "lonmax": 5.600313145319394, 
      "latmin": 51.15073029628628
    }, 
    {
      "latmax": 51.13801790879274, 
      "name": "Dijkstraat", 
      "lonmin": 5.55955065489646, 
      "sanName": "dijkstraat", 
      "numOfAddr": 16, 
      "lonmax": 5.5638453207829, 
      "latmin": 51.13380412110878
    }, 
    {
      "latmax": 51.12992329217965, 
      "name": "Dingensstraat", 
      "lonmin": 5.608644497674792, 
      "sanName": "dingensstraat", 
      "numOfAddr": 13, 
      "lonmax": 5.61754931673225, 
      "latmin": 51.1215582474334
    }, 
    {
      "latmax": 51.1565472214439, 
      "name": "Dirixstraat", 
      "lonmin": 5.605656653668067, 
      "sanName": "dirixstraat", 
      "numOfAddr": 17, 
      "lonmax": 5.607653453321121, 
      "latmin": 51.154325298851965
    }, 
    {
      "latmax": 51.12860392117631, 
      "name": "Dorpstraat", 
      "lonmin": 5.659154024002671, 
      "sanName": "dorpstraat", 
      "numOfAddr": 47, 
      "lonmax": 5.663644032745983, 
      "latmin": 51.1264465336662
    }, 
    {
      "latmax": 51.12120873953343, 
      "name": "Dreelweg", 
      "lonmin": 5.6463676358971275, 
      "sanName": "dreelweg", 
      "numOfAddr": 3, 
      "lonmax": 5.647402334553755, 
      "latmin": 51.12085199283945
    }, 
    {
      "latmax": 51.14923334152232, 
      "name": "Driehoevenstraat", 
      "lonmin": 5.601759210521327, 
      "sanName": "driehoevenstraat", 
      "numOfAddr": 19, 
      "lonmax": 5.603986460325868, 
      "latmin": 51.14677945964288
    }, 
    {
      "latmax": 51.16385980973218, 
      "name": "Duikerstraat", 
      "lonmin": 5.592553189854961, 
      "sanName": "duikerstraat", 
      "numOfAddr": 2, 
      "lonmax": 5.592857845010042, 
      "latmin": 51.163553513877616
    }, 
    {
      "latmax": 51.11325241167451, 
      "name": "Dwarsstraat", 
      "lonmin": 5.5782656111293925, 
      "sanName": "dwarsstraat", 
      "numOfAddr": 3, 
      "lonmax": 5.580324411171472, 
      "latmin": 51.11213758387172
    }, 
    {
      "latmax": 51.122419800328586, 
      "name": "Eetseveldstraat", 
      "lonmin": 5.598094723068977, 
      "sanName": "eetseveldstraat", 
      "numOfAddr": 11, 
      "lonmax": 5.607964876150446, 
      "latmin": 51.11610053540182
    }, 
    {
      "latmax": 51.11942694863126, 
      "name": "Eigengoedstraat", 
      "lonmin": 5.639649310823791, 
      "sanName": "eigengoedstraat", 
      "numOfAddr": 4, 
      "lonmax": 5.640792375048489, 
      "latmin": 51.11904540042495
    }, 
    {
      "latmax": 51.133379738436865, 
      "name": "Ellikommerstraat", 
      "lonmin": 5.55657043629658, 
      "sanName": "ellikommerstraat", 
      "numOfAddr": 2, 
      "lonmax": 5.557839953180647, 
      "latmin": 51.133127366156124
    }, 
    {
      "latmax": 51.15376756947957, 
      "name": "Elsputtersstraat", 
      "lonmin": 5.631748506837508, 
      "sanName": "elsputtersstraat", 
      "numOfAddr": 4, 
      "lonmax": 5.6386950378070395, 
      "latmin": 51.15093721754856
    }, 
    {
      "latmax": 51.16078181290591, 
      "name": "Emonsweg", 
      "lonmin": 5.611830139324227, 
      "sanName": "emonsweg", 
      "numOfAddr": 2, 
      "lonmax": 5.612934501256046, 
      "latmin": 51.16001169352333
    }, 
    {
      "latmax": 51.13961485161456, 
      "name": "Filterstraat", 
      "lonmin": 5.575581432117094, 
      "sanName": "filterstraat", 
      "numOfAddr": 35, 
      "lonmax": 5.586966831944569, 
      "latmin": 51.13794362891328
    }, 
    {
      "latmax": 51.13859602464738, 
      "name": "Galgenstraat", 
      "lonmin": 5.577251113769063, 
      "sanName": "galgenstraat", 
      "numOfAddr": 6, 
      "lonmax": 5.578154379898325, 
      "latmin": 51.13775302880141
    }, 
    {
      "latmax": 51.16200185805529, 
      "name": "Genastraat", 
      "lonmin": 5.593916159044473, 
      "sanName": "genastraat", 
      "numOfAddr": 43, 
      "lonmax": 5.6029745842056835, 
      "latmin": 51.155647306680244
    }, 
    {
      "latmax": 51.16279239849825, 
      "name": "Genattestraat", 
      "lonmin": 5.587619006657976, 
      "sanName": "genattestraat", 
      "numOfAddr": 4, 
      "lonmax": 5.5898591549775665, 
      "latmin": 51.1593235917965
    }, 
    {
      "latmax": 51.14884297024759, 
      "name": "Genatteweg", 
      "lonmin": 5.592046502090635, 
      "sanName": "genatteweg", 
      "numOfAddr": 8, 
      "lonmax": 5.5938665251804744, 
      "latmin": 51.14704364270788
    }, 
    {
      "latmax": 51.14752949426826, 
      "name": "Gerdingerpoort", 
      "lonmin": 5.589215342353594, 
      "sanName": "gerdingerpoort", 
      "numOfAddr": 56, 
      "lonmax": 5.595486254996958, 
      "latmin": 51.142300278103775
    }, 
    {
      "latmax": 51.14201464643632, 
      "name": "Gerdingerstraat", 
      "lonmin": 5.595224772748378, 
      "sanName": "gerdingerstraat", 
      "numOfAddr": 20, 
      "lonmax": 5.596138062288677, 
      "latmin": 51.141435343968794
    }, 
    {
      "latmax": 51.13253958326281, 
      "name": "Gerkenbergstraat", 
      "lonmin": 5.560294981484555, 
      "sanName": "gerkenbergstraat", 
      "numOfAddr": 29, 
      "lonmax": 5.567635792098266, 
      "latmin": 51.12669959491973
    }, 
    {
      "latmax": 51.15893625059729, 
      "name": "Geussensstraat", 
      "lonmin": 5.60425168773846, 
      "sanName": "geussensstraat", 
      "numOfAddr": 12, 
      "lonmax": 5.610061058988428, 
      "latmin": 51.155388156068085
    }, 
    {
      "latmax": 51.144469940768474, 
      "name": "Gijbelsstraat", 
      "lonmin": 5.581167875615214, 
      "sanName": "gijbelsstraat", 
      "numOfAddr": 24, 
      "lonmax": 5.586802336601421, 
      "latmin": 51.14018521759497
    }, 
    {
      "latmax": 51.14416631840787, 
      "name": "Glycinestraat", 
      "lonmin": 5.596385155168492, 
      "sanName": "glycinestraat", 
      "numOfAddr": 12, 
      "lonmax": 5.597244905741902, 
      "latmin": 51.14310089653973
    }, 
    {
      "latmax": 51.15036013380759, 
      "name": "Goudbloemstraat", 
      "lonmin": 5.604141282702043, 
      "sanName": "goudbloemstraat", 
      "numOfAddr": 25, 
      "lonmax": 5.605859041924174, 
      "latmin": 51.14812360890129
    }, 
    {
      "latmax": 51.155259125826284, 
      "name": "Graevenstraat", 
      "lonmin": 5.595647703913066, 
      "sanName": "graevenstraat", 
      "numOfAddr": 23, 
      "lonmax": 5.602009738721384, 
      "latmin": 51.15408062982237
    }, 
    {
      "latmax": 51.14039075512954, 
      "name": "Grauwe Torenwal", 
      "lonmin": 5.59770306849273, 
      "sanName": "grauwetorenwal", 
      "numOfAddr": 27, 
      "lonmax": 5.6012685938655675, 
      "latmin": 51.13899843015058
    }, 
    {
      "latmax": 51.13424223054537, 
      "name": "Grensstraat", 
      "lonmin": 5.61828241013067, 
      "sanName": "grensstraat", 
      "numOfAddr": 6, 
      "lonmax": 5.624305497659791, 
      "latmin": 51.13183109303619
    }, 
    {
      "latmax": 51.14006752129665, 
      "name": "Groenstraat", 
      "lonmin": 5.662836047178171, 
      "sanName": "groenstraat", 
      "numOfAddr": 56, 
      "lonmax": 5.706269952339351, 
      "latmin": 51.12686923941288
    }, 
    {
      "latmax": 51.13760279888124, 
      "name": "Gruitroderkiezel", 
      "lonmin": 5.590633736108839, 
      "sanName": "gruitroderkiezel", 
      "numOfAddr": 157, 
      "lonmax": 5.597791537989192, 
      "latmin": 51.11202498629436
    }, 
    {
      "latmax": 51.13667041719822, 
      "name": "Gruitroderstraat", 
      "lonmin": 5.593257563712831, 
      "sanName": "gruitroderstraat", 
      "numOfAddr": 43, 
      "lonmax": 5.596775688441016, 
      "latmin": 51.13295760133853
    }, 
    {
      "latmax": 51.13595636196676, 
      "name": "Hansweg", 
      "lonmin": 5.5733113540853, 
      "sanName": "hansweg", 
      "numOfAddr": 38, 
      "lonmax": 5.576940309857597, 
      "latmin": 51.13023998950431
    }, 
    {
      "latmax": 51.122701690698456, 
      "name": "Heerbaan", 
      "lonmin": 5.6365985271687205, 
      "sanName": "heerbaan", 
      "numOfAddr": 9, 
      "lonmax": 5.637790787465444, 
      "latmin": 51.12187785120011
    }, 
    {
      "latmax": 51.112913830281336, 
      "name": "Heidestraat", 
      "lonmin": 5.57643613753678, 
      "sanName": "heidestraat", 
      "numOfAddr": 2, 
      "lonmax": 5.576848790271732, 
      "latmin": 51.11281827017393
    }, 
    {
      "latmax": 51.16219697982924, 
      "name": "Heikantstraat", 
      "lonmin": 5.6217557059792345, 
      "sanName": "heikantstraat", 
      "numOfAddr": 4, 
      "lonmax": 5.622314261996507, 
      "latmin": 51.16160176191424
    }, 
    {
      "latmax": 51.12482749744484, 
      "name": "Herenbosstraat", 
      "lonmin": 5.569510394002524, 
      "sanName": "herenbosstraat", 
      "numOfAddr": 3, 
      "lonmax": 5.573746450654049, 
      "latmin": 51.12284591046952
    }, 
    {
      "latmax": 51.13834332165881, 
      "name": "Herenstraat", 
      "lonmin": 5.6090074706469375, 
      "sanName": "herenstraat", 
      "numOfAddr": 65, 
      "lonmax": 5.615899244866865, 
      "latmin": 51.133692547225586
    }, 
    {
      "latmax": 51.138062031495714, 
      "name": "Heuvelstraat", 
      "lonmin": 5.56772683309094, 
      "sanName": "heuvelstraat", 
      "numOfAddr": 7, 
      "lonmax": 5.5712301406571125, 
      "latmin": 51.12898750989116
    }, 
    {
      "latmax": 51.14224655145886, 
      "name": "Hillenstraat", 
      "lonmin": 5.593514447142398, 
      "sanName": "hillenstraat", 
      "numOfAddr": 6, 
      "lonmax": 5.594109472992724, 
      "latmin": 51.14194914285329
    }, 
    {
      "latmax": 51.14476402392687, 
      "name": "Hongerbeek", 
      "lonmin": 5.591482905742524, 
      "sanName": "hongerbeek", 
      "numOfAddr": 9, 
      "lonmax": 5.592638650330156, 
      "latmin": 51.14380446457821
    }, 
    {
      "latmax": 51.14207195261345, 
      "name": "Hoogstraat", 
      "lonmin": 5.598034320736392, 
      "sanName": "hoogstraat", 
      "numOfAddr": 39, 
      "lonmax": 5.6005539128382695, 
      "latmin": 51.14068111970159
    }, 
    {
      "latmax": 51.15141043284425, 
      "name": "Hoogveldstraat", 
      "lonmin": 5.604082115537636, 
      "sanName": "hoogveldstraat", 
      "numOfAddr": 58, 
      "lonmax": 5.608005322770788, 
      "latmin": 51.147054619092174
    }, 
    {
      "latmax": 51.12312917426253, 
      "name": "Hoolstraat", 
      "lonmin": 5.566423737937212, 
      "sanName": "hoolstraat", 
      "numOfAddr": 1, 
      "lonmax": 5.566423737937212, 
      "latmin": 51.12312917426253
    }, 
    {
      "latmax": 51.13607268670051, 
      "name": "Houbornstraat", 
      "lonmin": 5.596707343140207, 
      "sanName": "houbornstraat", 
      "numOfAddr": 11, 
      "lonmax": 5.606756426539417, 
      "latmin": 51.12991283200034
    }, 
    {
      "latmax": 51.154681361459254, 
      "name": "Houterstraat", 
      "lonmin": 5.639249395018694, 
      "sanName": "houterstraat", 
      "numOfAddr": 14, 
      "lonmax": 5.644786090609544, 
      "latmin": 51.14427047871055
    }, 
    {
      "latmax": 51.130225402981104, 
      "name": "Hovestraat", 
      "lonmin": 5.632368252269714, 
      "sanName": "hovestraat", 
      "numOfAddr": 17, 
      "lonmax": 5.634023465408914, 
      "latmin": 51.12833534722553
    }, 
    {
      "latmax": 51.12425447947439, 
      "name": "Hubesheide", 
      "lonmin": 5.664740661160342, 
      "sanName": "hubesheide", 
      "numOfAddr": 37, 
      "lonmax": 5.672914806988467, 
      "latmin": 51.12236224455959
    }, 
    {
      "latmax": 51.14196101045606, 
      "name": "Hulsbosstraat", 
      "lonmin": 5.638188084635214, 
      "sanName": "hulsbosstraat", 
      "numOfAddr": 10, 
      "lonmax": 5.641977932389933, 
      "latmin": 51.13343898407237
    }, 
    {
      "latmax": 51.14680981774344, 
      "name": "Imkerstraat", 
      "lonmin": 5.592957100432177, 
      "sanName": "imkerstraat", 
      "numOfAddr": 3, 
      "lonmax": 5.593565350235606, 
      "latmin": 51.1464216148739
    }, 
    {
      "latmax": 51.15074850434206, 
      "name": "Industrieterrein Kanaal-Noord", 
      "lonmin": 5.615782229729157, 
      "sanName": "industrieterreinkanaalnoord", 
      "numOfAddr": 53, 
      "lonmax": 5.636568971768316, 
      "latmin": 51.14029597623489
    }, 
    {
      "latmax": 51.15191945420301, 
      "name": "Industrieterrein Kanaal Zuid", 
      "lonmin": 5.606657956039356, 
      "sanName": "industrieterreinkanaalzuid", 
      "numOfAddr": 13, 
      "lonmax": 5.617199383434459, 
      "latmin": 51.14097834351139
    }, 
    {
      "latmax": 51.14308908702648, 
      "name": "Industrieterrein Peerderbaan", 
      "lonmin": 5.558670878264979, 
      "sanName": "industrieterreinpeerderbaan", 
      "numOfAddr": 24, 
      "lonmax": 5.5671638228223355, 
      "latmin": 51.1391339005333
    }, 
    {
      "latmax": 51.12400571636516, 
      "name": "Industrieterrein Vostert", 
      "lonmin": 5.578916070427041, 
      "sanName": "industrieterreinvostert", 
      "numOfAddr": 9, 
      "lonmax": 5.5844992166186955, 
      "latmin": 51.11931065450309
    }, 
    {
      "latmax": 51.114417817606146, 
      "name": "Itterbeekstraat", 
      "lonmin": 5.640402332487504, 
      "sanName": "itterbeekstraat", 
      "numOfAddr": 3, 
      "lonmax": 5.64075446855846, 
      "latmin": 51.11419506690921
    }, 
    {
      "latmax": 51.11760729710963, 
      "name": "Itterplein", 
      "lonmin": 5.645713412742111, 
      "sanName": "itterplein", 
      "numOfAddr": 24, 
      "lonmax": 5.64838237288644, 
      "latmin": 51.11606386607472
    }, 
    {
      "latmax": 51.15503197446926, 
      "name": "Jef van Hoofstraat", 
      "lonmin": 5.603145015190826, 
      "sanName": "jefvanhoofstraat", 
      "numOfAddr": 20, 
      "lonmax": 5.606614232545903, 
      "latmin": 51.15369981626343
    }, 
    {
      "latmax": 51.152538996340326, 
      "name": "Jennenstraat", 
      "lonmin": 5.619948538034374, 
      "sanName": "jennenstraat", 
      "numOfAddr": 1, 
      "lonmax": 5.619948538034374, 
      "latmin": 51.152538996340326
    }, 
    {
      "latmax": 51.14439612919971, 
      "name": "Kanaalkaai", 
      "lonmin": 5.615141124462185, 
      "sanName": "kanaalkaai", 
      "numOfAddr": 6, 
      "lonmax": 5.616812664878399, 
      "latmin": 51.14333995806316
    }, 
    {
      "latmax": 51.149568461233414, 
      "name": "Kanaalkom", 
      "lonmin": 5.611016120310864, 
      "sanName": "kanaalkom", 
      "numOfAddr": 22, 
      "lonmax": 5.611937181445311, 
      "latmin": 51.14672991566025
    }, 
    {
      "latmax": 51.14642539845262, 
      "name": "Kanaallaan", 
      "lonmin": 5.604013866954299, 
      "sanName": "kanaallaan", 
      "numOfAddr": 59, 
      "lonmax": 5.61431720284428, 
      "latmin": 51.1428423786403
    }, 
    {
      "latmax": 51.14695525090892, 
      "name": "Kanaalsteeg", 
      "lonmin": 5.6116333266103755, 
      "sanName": "kanaalsteeg", 
      "numOfAddr": 2, 
      "lonmax": 5.611773689481486, 
      "latmin": 51.14689120235332
    }, 
    {
      "latmax": 51.16164336386053, 
      "name": "Kapelstraat", 
      "lonmin": 5.593543649488218, 
      "sanName": "kapelstraat", 
      "numOfAddr": 2, 
      "lonmax": 5.605746156395848, 
      "latmin": 51.1592760568379
    }, 
    {
      "latmax": 51.137322988456425, 
      "name": "Keerpuntstraat", 
      "lonmin": 5.593991271183384, 
      "sanName": "keerpuntstraat", 
      "numOfAddr": 7, 
      "lonmax": 5.594946687345215, 
      "latmin": 51.1364204436009
    }, 
    {
      "latmax": 51.14165646117366, 
      "name": "Kempstraat", 
      "lonmin": 5.659201615523256, 
      "sanName": "kempstraat", 
      "numOfAddr": 26, 
      "lonmax": 5.667464133178449, 
      "latmin": 51.14007634935049
    }, 
    {
      "latmax": 51.129302179975426, 
      "name": "Kerkhofstraat", 
      "lonmin": 5.656492990564609, 
      "sanName": "kerkhofstraat", 
      "numOfAddr": 14, 
      "lonmax": 5.6590420967167425, 
      "latmin": 51.126769293629735
    }, 
    {
      "latmax": 51.16191069343096, 
      "name": "Kerkstraat", 
      "lonmin": 5.602058354018245, 
      "sanName": "kerkstraat", 
      "numOfAddr": 56, 
      "lonmax": 5.608644277464557, 
      "latmin": 51.15364989876116
    }, 
    {
      "latmax": 51.12664813110368, 
      "name": "Keyartstraat", 
      "lonmin": 5.654723924287365, 
      "sanName": "keyartstraat", 
      "numOfAddr": 38, 
      "lonmax": 5.6592922589429895, 
      "latmin": 51.12326832905711
    }, 
    {
      "latmax": 51.12010065837448, 
      "name": "Kievitstraat", 
      "lonmin": 5.644020847845221, 
      "sanName": "kievitstraat", 
      "numOfAddr": 7, 
      "lonmax": 5.6450404682394995, 
      "latmin": 51.119676982049036
    }, 
    {
      "latmax": 51.12127310830732, 
      "name": "Kipdorpstraat", 
      "lonmin": 5.584596117305158, 
      "sanName": "kipdorpstraat", 
      "numOfAddr": 27, 
      "lonmax": 5.5914708570762555, 
      "latmin": 51.11956883871034
    }, 
    {
      "latmax": 51.1411592953177, 
      "name": "Klaverstraat", 
      "lonmin": 5.67074432682641, 
      "sanName": "klaverstraat", 
      "numOfAddr": 5, 
      "lonmax": 5.671859816862529, 
      "latmin": 51.13628001535181
    }, 
    {
      "latmax": 51.14762536652884, 
      "name": "Kleine Genatteweg", 
      "lonmin": 5.591793900279326, 
      "sanName": "kleinegenatteweg", 
      "numOfAddr": 12, 
      "lonmax": 5.593110738509808, 
      "latmin": 51.145168275599595
    }, 
    {
      "latmax": 51.11618030875219, 
      "name": "Kleine Neyenstraat", 
      "lonmin": 5.580170550167242, 
      "sanName": "kleineneyenstraat", 
      "numOfAddr": 1, 
      "lonmax": 5.580170550167242, 
      "latmin": 51.11618030875219
    }, 
    {
      "latmax": 51.11835049785224, 
      "name": "Kleine Roodakkerstraat", 
      "lonmin": 5.637965767329788, 
      "sanName": "kleineroodakkerstraat", 
      "numOfAddr": 17, 
      "lonmax": 5.640537952938135, 
      "latmin": 51.1169287482423
    }, 
    {
      "latmax": 51.14278335114954, 
      "name": "Kleine Schoolstraat", 
      "lonmin": 5.588269237634951, 
      "sanName": "kleineschoolstraat", 
      "numOfAddr": 15, 
      "lonmax": 5.5898808260746184, 
      "latmin": 51.14122896153434
    }, 
    {
      "latmax": 51.14672598206111, 
      "name": "Kleine Swennenstraat", 
      "lonmin": 5.603518302361053, 
      "sanName": "kleineswennenstraat", 
      "numOfAddr": 13, 
      "lonmax": 5.6052263310891615, 
      "latmin": 51.146087110155314
    }, 
    {
      "latmax": 51.12572207313124, 
      "name": "Klein Rozenlaan", 
      "lonmin": 5.58922718184755, 
      "sanName": "kleinrozenlaan", 
      "numOfAddr": 16, 
      "lonmax": 5.590383723941255, 
      "latmin": 51.12479456027949
    }, 
    {
      "latmax": 51.128770014334265, 
      "name": "Klein Stukkenstraat", 
      "lonmin": 5.593085916851173, 
      "sanName": "kleinstukkenstraat", 
      "numOfAddr": 6, 
      "lonmax": 5.602948867435094, 
      "latmin": 51.122276673294515
    }, 
    {
      "latmax": 51.13982350400878, 
      "name": "Kloosterpoort", 
      "lonmin": 5.594541069452229, 
      "sanName": "kloosterpoort", 
      "numOfAddr": 35, 
      "lonmax": 5.596375057570374, 
      "latmin": 51.13790930594122
    }, 
    {
      "latmax": 51.140735364815896, 
      "name": "Kloosterstraat", 
      "lonmin": 5.596570227506883, 
      "sanName": "kloosterstraat", 
      "numOfAddr": 18, 
      "lonmax": 5.5978268631248564, 
      "latmin": 51.14007471917006
    }, 
    {
      "latmax": 51.12986314185431, 
      "name": "Kluisstraat", 
      "lonmin": 5.584843185993815, 
      "sanName": "kluisstraat", 
      "numOfAddr": 1, 
      "lonmax": 5.584843185993815, 
      "latmin": 51.12986314185431
    }, 
    {
      "latmax": 51.12861509415831, 
      "name": "Kluitshofweg", 
      "lonmin": 5.579065197207827, 
      "sanName": "kluitshofweg", 
      "numOfAddr": 6, 
      "lonmax": 5.580964251933793, 
      "latmin": 51.11960030519951
    }, 
    {
      "latmax": 51.14050285552769, 
      "name": "Kolisboomstraat", 
      "lonmin": 5.579897175023015, 
      "sanName": "kolisboomstraat", 
      "numOfAddr": 7, 
      "lonmax": 5.5815546541940595, 
      "latmin": 51.14017803903609
    }, 
    {
      "latmax": 51.149029567357545, 
      "name": "Kookshofstraat", 
      "lonmin": 5.589792975168688, 
      "sanName": "kookshofstraat", 
      "numOfAddr": 15, 
      "lonmax": 5.594111328379153, 
      "latmin": 51.14726684113139
    }, 
    {
      "latmax": 51.15265950314889, 
      "name": "Korenbloemstraat", 
      "lonmin": 5.602990183874185, 
      "sanName": "korenbloemstraat", 
      "numOfAddr": 28, 
      "lonmax": 5.60576608965159, 
      "latmin": 51.149679583739754
    }, 
    {
      "latmax": 51.15760746179882, 
      "name": "Kraegshofstraat", 
      "lonmin": 5.586150228511822, 
      "sanName": "kraegshofstraat", 
      "numOfAddr": 2, 
      "lonmax": 5.586829711842842, 
      "latmin": 51.156960734787454
    }, 
    {
      "latmax": 51.141595619061995, 
      "name": "Kromstraat", 
      "lonmin": 5.582332970874185, 
      "sanName": "kromstraat", 
      "numOfAddr": 7, 
      "lonmax": 5.584073756909391, 
      "latmin": 51.1409265434301
    }, 
    {
      "latmax": 51.142231640002656, 
      "name": "Kruittorenwal", 
      "lonmin": 5.593839554076543, 
      "sanName": "kruittorenwal", 
      "numOfAddr": 27, 
      "lonmax": 5.59506260139953, 
      "latmin": 51.14089829853731
    }, 
    {
      "latmax": 51.164006836915256, 
      "name": "Kuilenstraat", 
      "lonmin": 5.614836845609506, 
      "sanName": "kuilenstraat", 
      "numOfAddr": 32, 
      "lonmax": 5.637897531378721, 
      "latmin": 51.1459148048077
    }, 
    {
      "latmax": 51.12608186928197, 
      "name": "Langensveld", 
      "lonmin": 5.653563160696335, 
      "sanName": "langensveld", 
      "numOfAddr": 25, 
      "lonmax": 5.656650658546973, 
      "latmin": 51.12476076656124
    }, 
    {
      "latmax": 51.13956885178757, 
      "name": "Leeuwerikstraat", 
      "lonmin": 5.600215678687785, 
      "sanName": "leeuwerikstraat", 
      "numOfAddr": 31, 
      "lonmax": 5.602481184456227, 
      "latmin": 51.13771414169292
    }, 
    {
      "latmax": 51.13643873089755, 
      "name": "Leliestraat", 
      "lonmin": 5.606331234322136, 
      "sanName": "leliestraat", 
      "numOfAddr": 2, 
      "lonmax": 5.606686424159267, 
      "latmin": 51.13632720756629
    }, 
    {
      "latmax": 51.12637576665032, 
      "name": "Lieve Vrouwstraat", 
      "lonmin": 5.652237792054806, 
      "sanName": "lievevrouwstraat", 
      "numOfAddr": 7, 
      "lonmax": 5.6541254510660615, 
      "latmin": 51.125669302132984
    }, 
    {
      "latmax": 51.145759503348145, 
      "name": "Lindehofstraat", 
      "lonmin": 5.596443991264703, 
      "sanName": "lindehofstraat", 
      "numOfAddr": 27, 
      "lonmax": 5.5981474865649465, 
      "latmin": 51.14494241315223
    }, 
    {
      "latmax": 51.17475447354412, 
      "name": "Luysenstraat", 
      "lonmin": 5.625567502481946, 
      "sanName": "luysenstraat", 
      "numOfAddr": 2, 
      "lonmax": 5.628982134017494, 
      "latmin": 51.17182162455536
    }, 
    {
      "latmax": 51.11837973946739, 
      "name": "Luytenstraat", 
      "lonmin": 5.592994952663305, 
      "sanName": "luytenstraat", 
      "numOfAddr": 10, 
      "lonmax": 5.6330173172895135, 
      "latmin": 51.11308024407899
    }, 
    {
      "latmax": 51.138787125389264, 
      "name": "Maalbosstraat", 
      "lonmin": 5.610970328805659, 
      "sanName": "maalbosstraat", 
      "numOfAddr": 28, 
      "lonmax": 5.6176568310854575, 
      "latmin": 51.13619737444991
    }, 
    {
      "latmax": 51.116877473117675, 
      "name": "Maaseikerbaan", 
      "lonmin": 5.648391442924557, 
      "sanName": "maaseikerbaan", 
      "numOfAddr": 79, 
      "lonmax": 5.666477118521555, 
      "latmin": 51.11365797123042
    }, 
    {
      "latmax": 51.14345452945787, 
      "name": "Malta", 
      "lonmin": 5.600981945594513, 
      "sanName": "malta", 
      "numOfAddr": 30, 
      "lonmax": 5.603982398430449, 
      "latmin": 51.14157660727603
    }, 
    {
      "latmax": 51.17794026154339, 
      "name": "Mariahofstraat", 
      "lonmin": 5.614269498598842, 
      "sanName": "mariahofstraat", 
      "numOfAddr": 11, 
      "lonmax": 5.664043889097794, 
      "latmin": 51.16358128460324
    }, 
    {
      "latmax": 51.14164457263425, 
      "name": "Markt", 
      "lonmin": 5.5961895579466105, 
      "sanName": "markt", 
      "numOfAddr": 24, 
      "lonmax": 5.597390069918651, 
      "latmin": 51.14075606530751
    }, 
    {
      "latmax": 51.138491393449044, 
      "name": "Meeuwerkiezel", 
      "lonmin": 5.55791497119735, 
      "sanName": "meeuwerkiezel", 
      "numOfAddr": 108, 
      "lonmax": 5.592027985689698, 
      "latmin": 51.1222695442346
    }, 
    {
      "latmax": 51.142413615443665, 
      "name": "Meinestraat", 
      "lonmin": 5.597801884841326, 
      "sanName": "meinestraat", 
      "numOfAddr": 45, 
      "lonmax": 5.599710340112488, 
      "latmin": 51.14179716614762
    }, 
    {
      "latmax": 51.11978945665448, 
      "name": "Merelstraat", 
      "lonmin": 5.645295373377882, 
      "sanName": "merelstraat", 
      "numOfAddr": 6, 
      "lonmax": 5.64619144577599, 
      "latmin": 51.119161548978816
    }, 
    {
      "latmax": 51.141603416883775, 
      "name": "Merisstraat", 
      "lonmin": 5.598014736427794, 
      "sanName": "merisstraat", 
      "numOfAddr": 4, 
      "lonmax": 5.598533645880925, 
      "latmin": 51.141315732205406
    }, 
    {
      "latmax": 51.156136272208, 
      "name": "Mgr. Kestersstraat", 
      "lonmin": 5.597097839649086, 
      "sanName": "mgrkestersstraat", 
      "numOfAddr": 2, 
      "lonmax": 5.597606889901678, 
      "latmin": 51.155804820424024
    }, 
    {
      "latmax": 51.11373415151433, 
      "name": "Mgr. Monnensstraat", 
      "lonmin": 5.658669732254477, 
      "sanName": "mgrmonnensstraat", 
      "numOfAddr": 8, 
      "lonmax": 5.659832474218133, 
      "latmin": 51.11321015012357
    }, 
    {
      "latmax": 51.115787513708746, 
      "name": "Mgr. Paredisstraat", 
      "lonmin": 5.652044719187521, 
      "sanName": "mgrparedisstraat", 
      "numOfAddr": 4, 
      "lonmax": 5.653264114007491, 
      "latmin": 51.115547263345015
    }, 
    {
      "latmax": 51.14245589739118, 
      "name": "Millenstraat", 
      "lonmin": 5.6041179670817876, 
      "sanName": "millenstraat", 
      "numOfAddr": 33, 
      "lonmax": 5.609203482055805, 
      "latmin": 51.138659047471826
    }, 
    {
      "latmax": 51.119957477237726, 
      "name": "Molenstraat", 
      "lonmin": 5.635339318345628, 
      "sanName": "molenstraat", 
      "numOfAddr": 58, 
      "lonmax": 5.6398442087785385, 
      "latmin": 51.11320480167025
    }, 
    {
      "latmax": 51.11346036548481, 
      "name": "Muizendijkstraat", 
      "lonmin": 5.569002958806867, 
      "sanName": "muizendijkstraat", 
      "numOfAddr": 67, 
      "lonmax": 5.591723516973707, 
      "latmin": 51.108294392483636
    }, 
    {
      "latmax": 51.142283628602094, 
      "name": "Mussenburgstraat", 
      "lonmin": 5.602146731753304, 
      "sanName": "mussenburgstraat", 
      "numOfAddr": 22, 
      "lonmax": 5.606587023381296, 
      "latmin": 51.14049253592792
    }, 
    {
      "latmax": 51.14118568191112, 
      "name": "Mussenburgveld", 
      "lonmin": 5.6089423029496155, 
      "sanName": "mussenburgveld", 
      "numOfAddr": 11, 
      "lonmax": 5.610472722967594, 
      "latmin": 51.1405142893893
    }, 
    {
      "latmax": 51.158434489338575, 
      "name": "Neerstraat", 
      "lonmin": 5.613046193263829, 
      "sanName": "neerstraat", 
      "numOfAddr": 13, 
      "lonmax": 5.623460788208045, 
      "latmin": 51.15523433813702
    }, 
    {
      "latmax": 51.11508159647951, 
      "name": "Neyenstraat", 
      "lonmin": 5.564963178845855, 
      "sanName": "neyenstraat", 
      "numOfAddr": 31, 
      "lonmax": 5.57817473055914, 
      "latmin": 51.11117190303374
    }, 
    {
      "latmax": 51.14083821796565, 
      "name": "Nieuwstadpoort", 
      "lonmin": 5.589222263051001, 
      "sanName": "nieuwstadpoort", 
      "numOfAddr": 63, 
      "lonmax": 5.594842459334293, 
      "latmin": 51.13979638656588
    }, 
    {
      "latmax": 51.141388730336224, 
      "name": "Nieuwstadstraat", 
      "lonmin": 5.595022955050234, 
      "sanName": "nieuwstadstraat", 
      "numOfAddr": 19, 
      "lonmax": 5.596048467476702, 
      "latmin": 51.14081866951488
    }, 
    {
      "latmax": 51.14190730526557, 
      "name": "Nieuwstadweg", 
      "lonmin": 5.592005649204361, 
      "sanName": "nieuwstadweg", 
      "numOfAddr": 44, 
      "lonmax": 5.5939603170412475, 
      "latmin": 51.14044112367047
    }, 
    {
      "latmax": 51.13939706535274, 
      "name": "Niskensstraat", 
      "lonmin": 5.588268488321819, 
      "sanName": "niskensstraat", 
      "numOfAddr": 6, 
      "lonmax": 5.588870115431764, 
      "latmin": 51.13878770822978
    }, 
    {
      "latmax": 51.11647221616023, 
      "name": "Omselweg", 
      "lonmin": 5.649598715143667, 
      "sanName": "omselweg", 
      "numOfAddr": 60, 
      "lonmax": 5.6577138309406285, 
      "latmin": 51.11275362500842
    }, 
    {
      "latmax": 51.13771932037359, 
      "name": "Opitterkiezel", 
      "lonmin": 5.60655820049978, 
      "sanName": "opitterkiezel", 
      "numOfAddr": 221, 
      "lonmax": 5.64564016681441, 
      "latmin": 51.11708260791057
    }, 
    {
      "latmax": 51.14046962200603, 
      "name": "Opitterpoort", 
      "lonmin": 5.601305331576397, 
      "sanName": "opitterpoort", 
      "numOfAddr": 80, 
      "lonmax": 5.605569508917392, 
      "latmin": 51.138104308278905
    }, 
    {
      "latmax": 51.14148128157605, 
      "name": "Opitterstraat", 
      "lonmin": 5.599328954865781, 
      "sanName": "opitterstraat", 
      "numOfAddr": 39, 
      "lonmax": 5.600790332041423, 
      "latmin": 51.1404499566055
    }, 
    {
      "latmax": 51.11710409408498, 
      "name": "Opstraat", 
      "lonmin": 5.630264189201403, 
      "sanName": "opstraat", 
      "numOfAddr": 67, 
      "lonmax": 5.645441088516784, 
      "latmin": 51.11047315884303
    }, 
    {
      "latmax": 51.13932555710523, 
      "name": "Oudestraat", 
      "lonmin": 5.596713071772387, 
      "sanName": "oudestraat", 
      "numOfAddr": 40, 
      "lonmax": 5.598968826760536, 
      "latmin": 51.13732701492161
    }, 
    {
      "latmax": 51.12484674370184, 
      "name": "Oudstukkenstraat", 
      "lonmin": 5.600636038684831, 
      "sanName": "oudstukkenstraat", 
      "numOfAddr": 2, 
      "lonmax": 5.60455195194493, 
      "latmin": 51.12326458319498
    }, 
    {
      "latmax": 51.147566869788164, 
      "name": "Palmenhofstraat", 
      "lonmin": 5.577035795046559, 
      "sanName": "palmenhofstraat", 
      "numOfAddr": 4, 
      "lonmax": 5.578629348792873, 
      "latmin": 51.1471449476939
    }, 
    {
      "latmax": 51.14034507000275, 
      "name": "Panhovenstraat", 
      "lonmin": 5.615758825650366, 
      "sanName": "panhovenstraat", 
      "numOfAddr": 26, 
      "lonmax": 5.624852108028357, 
      "latmin": 51.13338150208372
    }, 
    {
      "latmax": 51.148147101621916, 
      "name": "Pannenbakkersstraat", 
      "lonmin": 5.580886125243122, 
      "sanName": "pannenbakkersstraat", 
      "numOfAddr": 2, 
      "lonmax": 5.58117480251101, 
      "latmin": 51.14810457944986
    }, 
    {
      "latmax": 51.118087886921124, 
      "name": "Parkdreef", 
      "lonmin": 5.637738348431853, 
      "sanName": "parkdreef", 
      "numOfAddr": 17, 
      "lonmax": 5.642622629584865, 
      "latmin": 51.11589382270844
    }, 
    {
      "latmax": 51.13919370447037, 
      "name": "Parkstraat", 
      "lonmin": 5.596852601946104, 
      "sanName": "parkstraat", 
      "numOfAddr": 18, 
      "lonmax": 5.598220154304935, 
      "latmin": 51.13870327645852
    }, 
    {
      "latmax": 51.1434035596109, 
      "name": "Passtraat", 
      "lonmin": 5.59099750813366, 
      "sanName": "passtraat", 
      "numOfAddr": 17, 
      "lonmax": 5.592691938274162, 
      "latmin": 51.142445925677364
    }, 
    {
      "latmax": 51.12662223028535, 
      "name": "Pastorijstraat", 
      "lonmin": 5.66097320766182, 
      "sanName": "pastorijstraat", 
      "numOfAddr": 4, 
      "lonmax": 5.662040944276775, 
      "latmin": 51.12631783838879
    }, 
    {
      "latmax": 51.131895839171534, 
      "name": "Pater Coninxlaan", 
      "lonmin": 5.588829391726993, 
      "sanName": "paterconinxlaan", 
      "numOfAddr": 33, 
      "lonmax": 5.591999735405488, 
      "latmin": 51.12678121928749
    }, 
    {
      "latmax": 51.13903760287506, 
      "name": "Pater Lambertusstraat", 
      "lonmin": 5.594966487033813, 
      "sanName": "paterlambertusstraat", 
      "numOfAddr": 7, 
      "lonmax": 5.59685911786349, 
      "latmin": 51.13787455675096
    }, 
    {
      "latmax": 51.1211201964965, 
      "name": "Pater Neyenslaan", 
      "lonmin": 5.639243403837375, 
      "sanName": "paterneyenslaan", 
      "numOfAddr": 32, 
      "lonmax": 5.646235000627173, 
      "latmin": 51.118217454493426
    }, 
    {
      "latmax": 51.1405879036227, 
      "name": "Peerderbaan", 
      "lonmin": 5.559621837161283, 
      "sanName": "peerderbaan", 
      "numOfAddr": 96, 
      "lonmax": 5.58739456126434, 
      "latmin": 51.138063466251594
    }, 
    {
      "latmax": 51.13087318760818, 
      "name": "Poststraat", 
      "lonmin": 5.659944997802734, 
      "sanName": "poststraat", 
      "numOfAddr": 24, 
      "lonmax": 5.662052558206656, 
      "latmin": 51.1278396353447
    }, 
    {
      "latmax": 51.14756159339723, 
      "name": "Processieweg", 
      "lonmin": 5.653937087029226, 
      "sanName": "processieweg", 
      "numOfAddr": 5, 
      "lonmax": 5.6598398035803035, 
      "latmin": 51.14454940767172
    }, 
    {
      "latmax": 51.14068602881885, 
      "name": "Regenboogstraat", 
      "lonmin": 5.6028156702235075, 
      "sanName": "regenboogstraat", 
      "numOfAddr": 17, 
      "lonmax": 5.60727995136484, 
      "latmin": 51.13858816599462
    }, 
    {
      "latmax": 51.134548084761555, 
      "name": "Renkensweg", 
      "lonmin": 5.581770740834177, 
      "sanName": "renkensweg", 
      "numOfAddr": 17, 
      "lonmax": 5.583690625469125, 
      "latmin": 51.133434942535466
    }, 
    {
      "latmax": 51.1538836633173, 
      "name": "Reppelerweg", 
      "lonmin": 5.590806206725115, 
      "sanName": "reppelerweg", 
      "numOfAddr": 1, 
      "lonmax": 5.590806206725115, 
      "latmin": 51.1538836633173
    }, 
    {
      "latmax": 51.1393427567631, 
      "name": "Riekskensstraat", 
      "lonmin": 5.58186244214866, 
      "sanName": "riekskensstraat", 
      "numOfAddr": 25, 
      "lonmax": 5.5852834286797455, 
      "latmin": 51.1346068945131
    }, 
    {
      "latmax": 51.15296653169647, 
      "name": "Robijnstraat", 
      "lonmin": 5.5971888317854255, 
      "sanName": "robijnstraat", 
      "numOfAddr": 20, 
      "lonmax": 5.5991290646913, 
      "latmin": 51.15150095845811
    }, 
    {
      "latmax": 51.13970223465111, 
      "name": "Rode Kruislaan", 
      "lonmin": 5.589488353984442, 
      "sanName": "rodekruislaan", 
      "numOfAddr": 30, 
      "lonmax": 5.605928245907325, 
      "latmin": 51.136232181076366
    }, 
    {
      "latmax": 51.142306515612084, 
      "name": "Roermonderstraat", 
      "lonmin": 5.6370351097573685, 
      "sanName": "roermonderstraat", 
      "numOfAddr": 9, 
      "lonmax": 5.6500626487188494, 
      "latmin": 51.13907111880971
    }, 
    {
      "latmax": 51.11906400243857, 
      "name": "Roodakkerstraat", 
      "lonmin": 5.639000905466925, 
      "sanName": "roodakkerstraat", 
      "numOfAddr": 20, 
      "lonmax": 5.6434910106338, 
      "latmin": 51.11727363620192
    }, 
    {
      "latmax": 51.1183903592171, 
      "name": "Rooierhagen", 
      "lonmin": 5.589250157616563, 
      "sanName": "rooierhagen", 
      "numOfAddr": 3, 
      "lonmax": 5.59095744049095, 
      "latmin": 51.11735424373335
    }, 
    {
      "latmax": 51.120860744005995, 
      "name": "Rooyerstraat", 
      "lonmin": 5.593824547340209, 
      "sanName": "rooyerstraat", 
      "numOfAddr": 7, 
      "lonmax": 5.599569991592959, 
      "latmin": 51.11504578988708
    }, 
    {
      "latmax": 51.136270958804616, 
      "name": "Rorenweg", 
      "lonmin": 5.618434419050886, 
      "sanName": "rorenweg", 
      "numOfAddr": 64, 
      "lonmax": 5.643260411780191, 
      "latmin": 51.12076307607088
    }, 
    {
      "latmax": 51.13721775715767, 
      "name": "Roterstraat", 
      "lonmin": 5.6062085521030935, 
      "sanName": "roterstraat", 
      "numOfAddr": 49, 
      "lonmax": 5.608115551722124, 
      "latmin": 51.12993643754253
    }, 
    {
      "latmax": 51.12468434364035, 
      "name": "Rozenlaan", 
      "lonmin": 5.589071917405328, 
      "sanName": "rozenlaan", 
      "numOfAddr": 22, 
      "lonmax": 5.591193024180439, 
      "latmin": 51.12391083695727
    }, 
    {
      "latmax": 51.15304572766386, 
      "name": "Saffierstraat", 
      "lonmin": 5.597010373138841, 
      "sanName": "saffierstraat", 
      "numOfAddr": 7, 
      "lonmax": 5.5980920048004235, 
      "latmin": 51.15215611955558
    }, 
    {
      "latmax": 51.168690257590725, 
      "name": "Schaafdijkstraat", 
      "lonmin": 5.631238621090563, 
      "sanName": "schaafdijkstraat", 
      "numOfAddr": 2, 
      "lonmax": 5.632867755947418, 
      "latmin": 51.16667482118893
    }, 
    {
      "latmax": 51.12750589918512, 
      "name": "Schansstraat", 
      "lonmin": 5.66234978335037, 
      "sanName": "schansstraat", 
      "numOfAddr": 9, 
      "lonmax": 5.662886479864451, 
      "latmin": 51.126771176339055
    }, 
    {
      "latmax": 51.14709188479414, 
      "name": "Schoolstraat", 
      "lonmin": 5.586971611762125, 
      "sanName": "schoolstraat", 
      "numOfAddr": 71, 
      "lonmax": 5.59151197982169, 
      "latmin": 51.14150917316621
    }, 
    {
      "latmax": 51.1597432178903, 
      "name": "Schootstraat", 
      "lonmin": 5.582130611231966, 
      "sanName": "schootstraat", 
      "numOfAddr": 3, 
      "lonmax": 5.5834756908481555, 
      "latmin": 51.157450464216325
    }, 
    {
      "latmax": 51.156801541396106, 
      "name": "Schraalerstraatje", 
      "lonmin": 5.595130217209479, 
      "sanName": "schraalerstraatje", 
      "numOfAddr": 2, 
      "lonmax": 5.595298240339542, 
      "latmin": 51.15642976025059
    }, 
    {
      "latmax": 51.153453113325554, 
      "name": "Schutterijstraat", 
      "lonmin": 5.59527187326269, 
      "sanName": "schutterijstraat", 
      "numOfAddr": 50, 
      "lonmax": 5.602169685353879, 
      "latmin": 51.148912955680935
    }, 
    {
      "latmax": 51.145580348141806, 
      "name": "Siemenstraat", 
      "lonmin": 5.5872739659049815, 
      "sanName": "siemenstraat", 
      "numOfAddr": 36, 
      "lonmax": 5.591771745943037, 
      "latmin": 51.14252692570989
    }, 
    {
      "latmax": 51.137003016962815, 
      "name": "Sint-Jacobstraat", 
      "lonmin": 5.602908966864488, 
      "sanName": "sintjacobstraat", 
      "numOfAddr": 25, 
      "lonmax": 5.606638170297977, 
      "latmin": 51.13328790774678
    }, 
    {
      "latmax": 51.14837196460886, 
      "name": "Sint-Jansstraat", 
      "lonmin": 5.582553482701859, 
      "sanName": "sintjansstraat", 
      "numOfAddr": 2, 
      "lonmax": 5.583309243060083, 
      "latmin": 51.147991018266694
    }, 
    {
      "latmax": 51.138719156808854, 
      "name": "Sint-Jobstraat", 
      "lonmin": 5.598552542768174, 
      "sanName": "sintjobstraat", 
      "numOfAddr": 29, 
      "lonmax": 5.601523325036932, 
      "latmin": 51.13749124573049
    }, 
    {
      "latmax": 51.11597322920215, 
      "name": "Sint-Jozefstraat", 
      "lonmin": 5.645509171888493, 
      "sanName": "sintjozefstraat", 
      "numOfAddr": 6, 
      "lonmax": 5.646483784222947, 
      "latmin": 51.115401785593505
    }, 
    {
      "latmax": 51.16127073585954, 
      "name": "Sint-Michielsstraat", 
      "lonmin": 5.623897629726604, 
      "sanName": "sintmichielsstraat", 
      "numOfAddr": 1, 
      "lonmax": 5.623897629726604, 
      "latmin": 51.16127073585954
    }, 
    {
      "latmax": 51.15452237799453, 
      "name": "Smaragdstraat", 
      "lonmin": 5.597978290088749, 
      "sanName": "smaragdstraat", 
      "numOfAddr": 31, 
      "lonmax": 5.601196446292248, 
      "latmin": 51.15345295165998
    }, 
    {
      "latmax": 51.15493115903148, 
      "name": "Soerbeekstraat", 
      "lonmin": 5.601533527931467, 
      "sanName": "soerbeekstraat", 
      "numOfAddr": 10, 
      "lonmax": 5.60239011525426, 
      "latmin": 51.15436356935488
    }, 
    {
      "latmax": 51.12698354658628, 
      "name": "Soezenstraat", 
      "lonmin": 5.657464382338258, 
      "sanName": "soezenstraat", 
      "numOfAddr": 5, 
      "lonmax": 5.6581435112422085, 
      "latmin": 51.1263550014878
    }, 
    {
      "latmax": 51.11342901080624, 
      "name": "Solterveldstraat", 
      "lonmin": 5.651253990167686, 
      "sanName": "solterveldstraat", 
      "numOfAddr": 73, 
      "lonmax": 5.655715315704715, 
      "latmin": 51.11152722315502
    }, 
    {
      "latmax": 51.126736588093635, 
      "name": "Solterweg", 
      "lonmin": 5.660270875007627, 
      "sanName": "solterweg", 
      "numOfAddr": 40, 
      "lonmax": 5.677630250437577, 
      "latmin": 51.11599726157816
    }, 
    {
      "latmax": 51.11556875737216, 
      "name": "Soltkapelstraat", 
      "lonmin": 5.6579277753795445, 
      "sanName": "soltkapelstraat", 
      "numOfAddr": 5, 
      "lonmax": 5.659509639575011, 
      "latmin": 51.11496938777891
    }, 
    {
      "latmax": 51.1182844227235, 
      "name": "Spilstraat", 
      "lonmin": 5.646954048219666, 
      "sanName": "spilstraat", 
      "numOfAddr": 13, 
      "lonmax": 5.6488230970493305, 
      "latmin": 51.117517875535334
    }, 
    {
      "latmax": 51.14777290917823, 
      "name": "Sportlaan", 
      "lonmin": 5.594919703615881, 
      "sanName": "sportlaan", 
      "numOfAddr": 13, 
      "lonmax": 5.600178561763691, 
      "latmin": 51.145612981566146
    }, 
    {
      "latmax": 51.13643373000437, 
      "name": "Stadsbeekstraat", 
      "lonmin": 5.594624637901116, 
      "sanName": "stadsbeekstraat", 
      "numOfAddr": 10, 
      "lonmax": 5.595475625390363, 
      "latmin": 51.135632250364125
    }, 
    {
      "latmax": 51.14002490569666, 
      "name": "Stadsplein", 
      "lonmin": 5.596578721725916, 
      "sanName": "stadsplein", 
      "numOfAddr": 5, 
      "lonmax": 5.597495392917565, 
      "latmin": 51.1393789915321
    }, 
    {
      "latmax": 51.11427642904615, 
      "name": "St.-Antoniusstraat", 
      "lonmin": 5.658792862078701, 
      "sanName": "stantoniusstraat", 
      "numOfAddr": 18, 
      "lonmax": 5.662438662585849, 
      "latmin": 51.1131505299307
    }, 
    {
      "latmax": 51.142038172270226, 
      "name": "Stationswal", 
      "lonmin": 5.600594452325441, 
      "sanName": "stationswal", 
      "numOfAddr": 27, 
      "lonmax": 5.60203594314046, 
      "latmin": 51.140610126986
    }, 
    {
      "latmax": 51.12983086801174, 
      "name": "Steenbergstraat", 
      "lonmin": 5.617753901077405, 
      "sanName": "steenbergstraat", 
      "numOfAddr": 22, 
      "lonmax": 5.625446673884947, 
      "latmin": 51.12345938729633
    }, 
    {
      "latmax": 51.14837117713343, 
      "name": "Steyvenstraat", 
      "lonmin": 5.606612426624014, 
      "sanName": "steyvenstraat", 
      "numOfAddr": 63, 
      "lonmax": 5.609126430245859, 
      "latmin": 51.14488496550523
    }, 
    {
      "latmax": 51.14676489193319, 
      "name": "Stift", 
      "lonmin": 5.594521713208026, 
      "sanName": "stift", 
      "numOfAddr": 84, 
      "lonmax": 5.601011861089817, 
      "latmin": 51.14295974320972
    }, 
    {
      "latmax": 51.140472094564025, 
      "name": "Straterhofweg", 
      "lonmin": 5.644963801668892, 
      "sanName": "straterhofweg", 
      "numOfAddr": 1, 
      "lonmax": 5.644963801668892, 
      "latmin": 51.140472094564025
    }, 
    {
      "latmax": 51.12986393024265, 
      "name": "Stukkenstraat", 
      "lonmin": 5.605306106279025, 
      "sanName": "stukkenstraat", 
      "numOfAddr": 17, 
      "lonmax": 5.607600414176975, 
      "latmin": 51.121021551485306
    }, 
    {
      "latmax": 51.147872492223215, 
      "name": "Swennenstraat", 
      "lonmin": 5.604006626592119, 
      "sanName": "swennenstraat", 
      "numOfAddr": 54, 
      "lonmax": 5.607531738602105, 
      "latmin": 51.14542396474723
    }, 
    {
      "latmax": 51.114505162417274, 
      "name": "Teelestraat", 
      "lonmin": 5.656919569853125, 
      "sanName": "teelestraat", 
      "numOfAddr": 17, 
      "lonmax": 5.6583625384026695, 
      "latmin": 51.112713248907795
    }, 
    {
      "latmax": 51.140840129127305, 
      "name": "Ter Rivierenwal", 
      "lonmin": 5.594986037824159, 
      "sanName": "terrivierenwal", 
      "numOfAddr": 25, 
      "lonmax": 5.596642038710858, 
      "latmin": 51.139864095438256
    }, 
    {
      "latmax": 51.14008565972359, 
      "name": "'t Hasselt", 
      "lonmin": 5.654503238170892, 
      "sanName": "thasselt", 
      "numOfAddr": 4, 
      "lonmax": 5.657754396026575, 
      "latmin": 51.138482214349374
    }, 
    {
      "latmax": 51.14565547142597, 
      "name": "'t Hasseltkiezel", 
      "lonmin": 5.625087580630876, 
      "sanName": "thasseltkiezel", 
      "numOfAddr": 45, 
      "lonmax": 5.709021602652505, 
      "latmin": 51.141614739103886
    }, 
    {
      "latmax": 51.14926867690477, 
      "name": "Thijsstraat", 
      "lonmin": 5.5855058164321525, 
      "sanName": "thijsstraat", 
      "numOfAddr": 20, 
      "lonmax": 5.589503051269024, 
      "latmin": 51.14805952237973
    }, 
    {
      "latmax": 51.1417363103596, 
      "name": "Toekomststraat", 
      "lonmin": 5.561689550776855, 
      "sanName": "toekomststraat", 
      "numOfAddr": 2, 
      "lonmax": 5.561942088216174, 
      "latmin": 51.14068435888964
    }, 
    {
      "latmax": 51.146699103002014, 
      "name": "Toleikstraat", 
      "lonmin": 5.601339959329125, 
      "sanName": "toleikstraat", 
      "numOfAddr": 31, 
      "lonmax": 5.604366040043288, 
      "latmin": 51.14360223465557
    }, 
    {
      "latmax": 51.126127052560676, 
      "name": "Tongerlostraat", 
      "lonmin": 5.646373532092014, 
      "sanName": "tongerlostraat", 
      "numOfAddr": 39, 
      "lonmax": 5.6529709349463335, 
      "latmin": 51.11786156501097
    }, 
    {
      "latmax": 51.145484637189895, 
      "name": "Truyenhofstraat", 
      "lonmin": 5.5720909252911035, 
      "sanName": "truyenhofstraat", 
      "numOfAddr": 11, 
      "lonmax": 5.577925604919185, 
      "latmin": 51.139916267787775
    }, 
    {
      "latmax": 51.14596041150765, 
      "name": "Tuinstraat", 
      "lonmin": 5.604429382900874, 
      "sanName": "tuinstraat", 
      "numOfAddr": 6, 
      "lonmax": 5.604735728503388, 
      "latmin": 51.145202629424446
    }, 
    {
      "latmax": 51.12675150845551, 
      "name": "Tulpenlaan", 
      "lonmin": 5.588596291223788, 
      "sanName": "tulpenlaan", 
      "numOfAddr": 21, 
      "lonmax": 5.591256394803061, 
      "latmin": 51.1260103420715
    }, 
    {
      "latmax": 51.12758197869441, 
      "name": "Vaartstraat", 
      "lonmin": 5.6487350914895025, 
      "sanName": "vaartstraat", 
      "numOfAddr": 13, 
      "lonmax": 5.6560724925936015, 
      "latmin": 51.12655788190093
    }, 
    {
      "latmax": 51.141026248512844, 
      "name": "Vaesstraat", 
      "lonmin": 5.598404537236295, 
      "sanName": "vaesstraat", 
      "numOfAddr": 11, 
      "lonmax": 5.599942457263773, 
      "latmin": 51.14028207591715
    }, 
    {
      "latmax": 51.135752735011025, 
      "name": "Veestraat", 
      "lonmin": 5.672276295122261, 
      "sanName": "veestraat", 
      "numOfAddr": 31, 
      "lonmax": 5.676703595861588, 
      "latmin": 51.13320055664279
    }, 
    {
      "latmax": 51.15334219050291, 
      "name": "Veeweidestraat", 
      "lonmin": 5.603485173322669, 
      "sanName": "veeweidestraat", 
      "numOfAddr": 56, 
      "lonmax": 5.611463414136498, 
      "latmin": 51.1465266246618
    }, 
    {
      "latmax": 51.13130186503158, 
      "name": "Veldekensweg", 
      "lonmin": 5.5634337481963305, 
      "sanName": "veldekensweg", 
      "numOfAddr": 2, 
      "lonmax": 5.565246196064014, 
      "latmin": 51.1309702647068
    }, 
    {
      "latmax": 51.13893456780452, 
      "name": "Veldstraat", 
      "lonmin": 5.645090199159688, 
      "sanName": "veldstraat", 
      "numOfAddr": 4, 
      "lonmax": 5.647185019573161, 
      "latmin": 51.13788418414983
    }, 
    {
      "latmax": 51.14169571885925, 
      "name": "Veldweg", 
      "lonmin": 5.590063536478561, 
      "sanName": "veldweg", 
      "numOfAddr": 2, 
      "lonmax": 5.5903158760099005, 
      "latmin": 51.14164509999782
    }, 
    {
      "latmax": 51.13976706637616, 
      "name": "Velkuilenstraat", 
      "lonmin": 5.593552389397948, 
      "sanName": "velkuilenstraat", 
      "numOfAddr": 30, 
      "lonmax": 5.59465815495456, 
      "latmin": 51.138089343651544
    }, 
    {
      "latmax": 51.1588032392098, 
      "name": "Vennestraat", 
      "lonmin": 5.583911487010438, 
      "sanName": "vennestraat", 
      "numOfAddr": 4, 
      "lonmax": 5.592375147892436, 
      "latmin": 51.1578835196923
    }, 
    {
      "latmax": 51.11532750387266, 
      "name": "Verbindingsstraat", 
      "lonmin": 5.653332245528554, 
      "sanName": "verbindingsstraat", 
      "numOfAddr": 27, 
      "lonmax": 5.656301242287078, 
      "latmin": 51.11380104149344
    }, 
    {
      "latmax": 51.13504503437564, 
      "name": "Verlorenkoststraat", 
      "lonmin": 5.594078206935505, 
      "sanName": "verlorenkoststraat", 
      "numOfAddr": 3, 
      "lonmax": 5.594315683201812, 
      "latmin": 51.134675050125814
    }, 
    {
      "latmax": 51.12030950446632, 
      "name": "Vinkstraat", 
      "lonmin": 5.644227963405607, 
      "sanName": "vinkstraat", 
      "numOfAddr": 7, 
      "lonmax": 5.64525223786029, 
      "latmin": 51.11987831427713
    }, 
    {
      "latmax": 51.14136560371031, 
      "name": "Voortbemdenstraat", 
      "lonmin": 5.563691343252661, 
      "sanName": "voortbemdenstraat", 
      "numOfAddr": 3, 
      "lonmax": 5.566807905048944, 
      "latmin": 51.13979010581067
    }, 
    {
      "latmax": 51.12599287186925, 
      "name": "Vostertstraat", 
      "lonmin": 5.587763548829218, 
      "sanName": "vostertstraat", 
      "numOfAddr": 94, 
      "lonmax": 5.590844833980146, 
      "latmin": 51.12135191759778
    }, 
    {
      "latmax": 51.153282504245965, 
      "name": "Vrijheidslaan", 
      "lonmin": 5.600543482583369, 
      "sanName": "vrijheidslaan", 
      "numOfAddr": 38, 
      "lonmax": 5.60308774489757, 
      "latmin": 51.14734212350987
    }, 
    {
      "latmax": 51.141953925402994, 
      "name": "Vrijthof", 
      "lonmin": 5.59699240594771, 
      "sanName": "vrijthof", 
      "numOfAddr": 13, 
      "lonmax": 5.598199368823112, 
      "latmin": 51.141424578893876
    }, 
    {
      "latmax": 51.17072970838897, 
      "name": "Waterstraat", 
      "lonmin": 5.605243243234307, 
      "sanName": "waterstraat", 
      "numOfAddr": 13, 
      "lonmax": 5.615836985642173, 
      "latmin": 51.16635850593457
    }, 
    {
      "latmax": 51.135526069838306, 
      "name": "Watertorenstraat", 
      "lonmin": 5.587623782110555, 
      "sanName": "watertorenstraat", 
      "numOfAddr": 25, 
      "lonmax": 5.5929407002091995, 
      "latmin": 51.13180601085445
    }, 
    {
      "latmax": 51.15180234955166, 
      "name": "Weegbreestraat", 
      "lonmin": 5.5996518038599294, 
      "sanName": "weegbreestraat", 
      "numOfAddr": 18, 
      "lonmax": 5.601254580535933, 
      "latmin": 51.15021928545069
    }, 
    {
      "latmax": 51.137166529660966, 
      "name": "Wiekersbeekstraat", 
      "lonmin": 5.603610783912274, 
      "sanName": "wiekersbeekstraat", 
      "numOfAddr": 41, 
      "lonmax": 5.606570232854464, 
      "latmin": 51.13417235824234
    }, 
    {
      "latmax": 51.14744304713566, 
      "name": "Wijkstraat", 
      "lonmin": 5.590607486099665, 
      "sanName": "wijkstraat", 
      "numOfAddr": 17, 
      "lonmax": 5.591985589921042, 
      "latmin": 51.146202651401445
    }, 
    {
      "latmax": 51.1257859881421, 
      "name": "Wijshagerstraat", 
      "lonmin": 5.586879813266866, 
      "sanName": "wijshagerstraat", 
      "numOfAddr": 4, 
      "lonmax": 5.587390780698484, 
      "latmin": 51.12556319348162
    }, 
    {
      "latmax": 51.13806489209088, 
      "name": "Wilgenstraat", 
      "lonmin": 5.5979408240346045, 
      "sanName": "wilgenstraat", 
      "numOfAddr": 13, 
      "lonmax": 5.598957458588866, 
      "latmin": 51.13748252156806
    }, 
    {
      "latmax": 51.14497638158878, 
      "name": "Witte Torenstraat", 
      "lonmin": 5.598118984325073, 
      "sanName": "wittetorenstraat", 
      "numOfAddr": 41, 
      "lonmax": 5.600946643877905, 
      "latmin": 51.14264849496057
    }, 
    {
      "latmax": 51.14310654272251, 
      "name": "Witte Torenwal", 
      "lonmin": 5.595517210122124, 
      "sanName": "wittetorenwal", 
      "numOfAddr": 34, 
      "lonmax": 5.600882834349079, 
      "latmin": 51.142075194541114
    }, 
    {
      "latmax": 51.12943690721703, 
      "name": "Wolfstraat", 
      "lonmin": 5.566478244045411, 
      "sanName": "wolfstraat", 
      "numOfAddr": 1, 
      "lonmax": 5.566478244045411, 
      "latmin": 51.12943690721703
    }, 
    {
      "latmax": 51.15817676800232, 
      "name": "Wolstraat", 
      "lonmin": 5.593986562719297, 
      "sanName": "wolstraat", 
      "numOfAddr": 50, 
      "lonmax": 5.602485970953353, 
      "latmin": 51.15534389551725
    }, 
    {
      "latmax": 51.121633108530276, 
      "name": "Woonparkweg", 
      "lonmin": 5.593622688071276, 
      "sanName": "woonparkweg", 
      "numOfAddr": 6, 
      "lonmax": 5.594716936352892, 
      "latmin": 51.121272477190224
    }, 
    {
      "latmax": 51.13237806864663, 
      "name": "Woutershoefweg", 
      "lonmin": 5.694678772791635, 
      "sanName": "woutershoefweg", 
      "numOfAddr": 1, 
      "lonmax": 5.694678772791635, 
      "latmin": 51.13237806864663
    }, 
    {
      "latmax": 51.11263073254673, 
      "name": "Zandbergstraat", 
      "lonmin": 5.639299858868215, 
      "sanName": "zandbergstraat", 
      "numOfAddr": 5, 
      "lonmax": 5.640237019489511, 
      "latmin": 51.11195247941543
    }, 
    {
      "latmax": 51.117190847201584, 
      "name": "Ziepstraat", 
      "lonmin": 5.663805959478385, 
      "sanName": "ziepstraat", 
      "numOfAddr": 13, 
      "lonmax": 5.667931810958543, 
      "latmin": 51.11431075143693
    }, 
    {
      "latmax": 51.139779326511864, 
      "name": "Zijstraat", 
      "lonmin": 5.589909220311752, 
      "sanName": "zijstraat", 
      "numOfAddr": 4, 
      "lonmax": 5.590032001090089, 
      "latmin": 51.13947446707293
    }, 
    {
      "latmax": 51.120516313078255, 
      "name": "Zwaluwstraat", 
      "lonmin": 5.643606922684289, 
      "sanName": "zwaluwstraat", 
      "numOfAddr": 5, 
      "lonmax": 5.643941919402467, 
      "latmin": 51.12019107961156
    }
  ]
}