{
  "streets": [
    {
      "latmax": 51.06165005498688, 
      "name": "Aardstraat", 
      "lonmin": 5.11363109903751, 
      "sanName": "aardstraat", 
      "numOfAddr": 13, 
      "lonmax": 5.122859273507009, 
      "latmin": 51.057908793842955
    }, 
    {
      "latmax": 51.033254446638836, 
      "name": "Achterheide", 
      "lonmin": 5.013192583421696, 
      "sanName": "achterheide", 
      "numOfAddr": 36, 
      "lonmax": 5.022889570361711, 
      "latmin": 51.02018654491393
    }, 
    {
      "latmax": 51.07274486148158, 
      "name": "Albertkade", 
      "lonmin": 5.1641976708373285, 
      "sanName": "albertkade", 
      "numOfAddr": 4, 
      "lonmax": 5.1757253123957785, 
      "latmin": 51.07126705331273
    }, 
    {
      "latmax": 51.07899226410845, 
      "name": "Ambachtsstraat", 
      "lonmin": 5.150388958787787, 
      "sanName": "ambachtsstraat", 
      "numOfAddr": 12, 
      "lonmax": 5.155140046852723, 
      "latmin": 51.07603518236047
    }, 
    {
      "latmax": 51.02880779498021, 
      "name": "Asdonkstraat", 
      "lonmin": 5.052078645962492, 
      "sanName": "asdonkstraat", 
      "numOfAddr": 23, 
      "lonmax": 5.056338909176587, 
      "latmin": 51.024325122573586
    }, 
    {
      "latmax": 51.081481950989165, 
      "name": "Baal", 
      "lonmin": 5.053537826386496, 
      "sanName": "baal", 
      "numOfAddr": 82, 
      "lonmax": 5.090367149339018, 
      "latmin": 51.0736386994223
    }, 
    {
      "latmax": 51.078510402958095, 
      "name": "Baalbergstraat", 
      "lonmin": 5.075643996884248, 
      "sanName": "baalbergstraat", 
      "numOfAddr": 28, 
      "lonmax": 5.083259523881339, 
      "latmin": 51.07588490860177
    }, 
    {
      "latmax": 51.07996154653248, 
      "name": "Baalmolenstraat", 
      "lonmin": 5.082557370311963, 
      "sanName": "baalmolenstraat", 
      "numOfAddr": 45, 
      "lonmax": 5.087906010355086, 
      "latmin": 51.07462622739214
    }, 
    {
      "latmax": 51.081677933610635, 
      "name": "Beekstraat", 
      "lonmin": 5.091067236328045, 
      "sanName": "beekstraat", 
      "numOfAddr": 24, 
      "lonmax": 5.09397897224006, 
      "latmin": 51.0782653394069
    }, 
    {
      "latmax": 51.07350359610046, 
      "name": "Begijnenwinning", 
      "lonmin": 5.095821072000693, 
      "sanName": "begijnenwinning", 
      "numOfAddr": 196, 
      "lonmax": 5.105297738672649, 
      "latmin": 51.07009105166566
    }, 
    {
      "latmax": 51.035047848427446, 
      "name": "Belledreef", 
      "lonmin": 5.035810941870787, 
      "sanName": "belledreef", 
      "numOfAddr": 12, 
      "lonmax": 5.037660468940758, 
      "latmin": 51.02885526191757
    }, 
    {
      "latmax": 51.07533838928756, 
      "name": "Biesdelle", 
      "lonmin": 5.0764146558766585, 
      "sanName": "biesdelle", 
      "numOfAddr": 76, 
      "lonmax": 5.081869720387369, 
      "latmin": 51.07211156947982
    }, 
    {
      "latmax": 51.0672330232445, 
      "name": "Binnenhof", 
      "lonmin": 5.089837702422013, 
      "sanName": "binnenhof", 
      "numOfAddr": 12, 
      "lonmax": 5.091024493028874, 
      "latmin": 51.06660106570303
    }, 
    {
      "latmax": 51.06578381052674, 
      "name": "Boekdonkstraat", 
      "lonmin": 5.017156623396163, 
      "sanName": "boekdonkstraat", 
      "numOfAddr": 34, 
      "lonmax": 5.022380397798428, 
      "latmin": 51.06247353215518
    }, 
    {
      "latmax": 51.0580059989467, 
      "name": "Boshuis", 
      "lonmin": 5.060462083739631, 
      "sanName": "boshuis", 
      "numOfAddr": 20, 
      "lonmax": 5.071349163968354, 
      "latmin": 51.04679352586775
    }, 
    {
      "latmax": 51.07308046332473, 
      "name": "Broekstraat", 
      "lonmin": 5.127768106106578, 
      "sanName": "broekstraat", 
      "numOfAddr": 12, 
      "lonmax": 5.130148502031091, 
      "latmin": 51.071960553318696
    }, 
    {
      "latmax": 51.06931345578886, 
      "name": "Collegestraat", 
      "lonmin": 5.098277699952822, 
      "sanName": "collegestraat", 
      "numOfAddr": 14, 
      "lonmax": 5.099100252274508, 
      "latmin": 51.06806598828151
    }, 
    {
      "latmax": 51.06444392671617, 
      "name": "Dennenhof", 
      "lonmin": 5.089871565101095, 
      "sanName": "dennenhof", 
      "numOfAddr": 91, 
      "lonmax": 5.094157763978186, 
      "latmin": 51.06239089478557
    }, 
    {
      "latmax": 51.05195206522297, 
      "name": "Deurnestraat", 
      "lonmin": 5.09124061599713, 
      "sanName": "deurnestraat", 
      "numOfAddr": 21, 
      "lonmax": 5.092588392518648, 
      "latmin": 51.04939677432997
    }, 
    {
      "latmax": 51.06714446106164, 
      "name": "Diesterstraat", 
      "lonmin": 5.0867758557861515, 
      "sanName": "diesterstraat", 
      "numOfAddr": 214, 
      "lonmax": 5.09092960472939, 
      "latmin": 51.04989342499056
    }, 
    {
      "latmax": 51.069824051740156, 
      "name": "Eersels", 
      "lonmin": 5.093882034049791, 
      "sanName": "eersels", 
      "numOfAddr": 113, 
      "lonmax": 5.0987149698544565, 
      "latmin": 51.06714268508076
    }, 
    {
      "latmax": 51.05700895236468, 
      "name": "Egelpad", 
      "lonmin": 5.049855437171607, 
      "sanName": "egelpad", 
      "numOfAddr": 9, 
      "lonmax": 5.051771836796605, 
      "latmin": 51.05584849450403
    }, 
    {
      "latmax": 51.03223532139448, 
      "name": "Eggers", 
      "lonmin": 5.065905126376497, 
      "sanName": "eggers", 
      "numOfAddr": 32, 
      "lonmax": 5.066889040338038, 
      "latmin": 51.02646417253388
    }, 
    {
      "latmax": 51.068986131259265, 
      "name": "Eikelplein", 
      "lonmin": 5.126408974638655, 
      "sanName": "eikelplein", 
      "numOfAddr": 38, 
      "lonmax": 5.128674006957084, 
      "latmin": 51.06763736327303
    }, 
    {
      "latmax": 51.07379702863354, 
      "name": "Engelendries", 
      "lonmin": 5.09040296878939, 
      "sanName": "engelendries", 
      "numOfAddr": 31, 
      "lonmax": 5.092980235637447, 
      "latmin": 51.071927644045424
    }, 
    {
      "latmax": 51.03637715435679, 
      "name": "Engsbergseweg", 
      "lonmin": 5.020645654815755, 
      "sanName": "engsbergseweg", 
      "numOfAddr": 224, 
      "lonmax": 5.074457584330131, 
      "latmin": 51.02211931707817
    }, 
    {
      "latmax": 51.06815393131589, 
      "name": "Essenschotstraat", 
      "lonmin": 5.1403929681118425, 
      "sanName": "essenschotstraat", 
      "numOfAddr": 11, 
      "lonmax": 5.146784658792288, 
      "latmin": 51.0630959145248
    }, 
    {
      "latmax": 51.06659336392699, 
      "name": "Everslag", 
      "lonmin": 5.0253755804874345, 
      "sanName": "everslag", 
      "numOfAddr": 37, 
      "lonmax": 5.033092623902219, 
      "latmin": 51.061673177572175
    }, 
    {
      "latmax": 51.065642049510195, 
      "name": "Fabrieksstraat", 
      "lonmin": 5.1031256887090315, 
      "sanName": "fabrieksstraat", 
      "numOfAddr": 9, 
      "lonmax": 5.107789314552884, 
      "latmin": 51.058388083232856
    }, 
    {
      "latmax": 51.0648331873129, 
      "name": "Fonteinstraat", 
      "lonmin": 5.087522794336544, 
      "sanName": "fonteinstraat", 
      "numOfAddr": 2, 
      "lonmax": 5.087995812180868, 
      "latmin": 51.06438496709771
    }, 
    {
      "latmax": 51.07960188650941, 
      "name": "Geelsebaan", 
      "lonmin": 5.075638172637056, 
      "sanName": "geelsebaan", 
      "numOfAddr": 141, 
      "lonmax": 5.088257175905306, 
      "latmin": 51.069640424022566
    }, 
    {
      "latmax": 51.07529280604994, 
      "name": "Genenbosstraat", 
      "lonmin": 5.124264738741054, 
      "sanName": "genenbosstraat", 
      "numOfAddr": 42, 
      "lonmax": 5.125755664355672, 
      "latmin": 51.06921209352658
    }, 
    {
      "latmax": 51.06670624061583, 
      "name": "Gerhagenstraat", 
      "lonmin": 5.0498966031008035, 
      "sanName": "gerhagenstraat", 
      "numOfAddr": 125, 
      "lonmax": 5.087310347995958, 
      "latmin": 51.05301336591158
    }, 
    {
      "latmax": 51.06176462952413, 
      "name": "Gerhees", 
      "lonmin": 5.025143268604224, 
      "sanName": "gerhees", 
      "numOfAddr": 16, 
      "lonmax": 5.03954543143882, 
      "latmin": 51.055882875848425
    }, 
    {
      "latmax": 51.06342900644286, 
      "name": "Gettendonkstraat", 
      "lonmin": 5.133511317522579, 
      "sanName": "gettendonkstraat", 
      "numOfAddr": 12, 
      "lonmax": 5.141279485634449, 
      "latmin": 51.06091239153862
    }, 
    {
      "latmax": 51.02905799043364, 
      "name": "Goor", 
      "lonmin": 5.040668410342096, 
      "sanName": "goor", 
      "numOfAddr": 11, 
      "lonmax": 5.047466205295462, 
      "latmin": 51.02434332718446
    }, 
    {
      "latmax": 51.078099824097556, 
      "name": "Groenpoort", 
      "lonmin": 5.0604190590788125, 
      "sanName": "groenpoort", 
      "numOfAddr": 29, 
      "lonmax": 5.079925810333904, 
      "latmin": 51.069874287016454
    }, 
    {
      "latmax": 51.07678527275158, 
      "name": "Groenstraat", 
      "lonmin": 5.090551045146203, 
      "sanName": "groenstraat", 
      "numOfAddr": 44, 
      "lonmax": 5.096490284475307, 
      "latmin": 51.07038209894619
    }, 
    {
      "latmax": 51.05107890823476, 
      "name": "Hasseltseweg", 
      "lonmin": 5.087789271878382, 
      "sanName": "hasseltseweg", 
      "numOfAddr": 10, 
      "lonmax": 5.090120967283337, 
      "latmin": 51.049701972250496
    }, 
    {
      "latmax": 51.07437647017035, 
      "name": "Havenlaan", 
      "lonmin": 5.151349646570536, 
      "sanName": "havenlaan", 
      "numOfAddr": 14, 
      "lonmax": 5.1657829243614195, 
      "latmin": 51.061481480043696
    }, 
    {
      "latmax": 51.060743752598704, 
      "name": "Hazepad", 
      "lonmin": 5.050483135446826, 
      "sanName": "hazepad", 
      "numOfAddr": 27, 
      "lonmax": 5.053617478351646, 
      "latmin": 51.05740898607303
    }, 
    {
      "latmax": 51.06489657367722, 
      "name": "Heggebossenweg", 
      "lonmin": 5.038317748964348, 
      "sanName": "heggebossenweg", 
      "numOfAddr": 28, 
      "lonmax": 5.068376668629342, 
      "latmin": 51.05587776663831
    }, 
    {
      "latmax": 51.02889023468879, 
      "name": "Heidestraat", 
      "lonmin": 5.037773023449841, 
      "sanName": "heidestraat", 
      "numOfAddr": 20, 
      "lonmax": 5.040576492824062, 
      "latmin": 51.02476075985503
    }, 
    {
      "latmax": 51.02923433115561, 
      "name": "Heiveld", 
      "lonmin": 5.053420607522721, 
      "sanName": "heiveld", 
      "numOfAddr": 84, 
      "lonmax": 5.061956918069301, 
      "latmin": 51.02569699318547
    }, 
    {
      "latmax": 51.072042487869254, 
      "name": "Hemelrijk", 
      "lonmin": 5.089489422276324, 
      "sanName": "hemelrijk", 
      "numOfAddr": 28, 
      "lonmax": 5.094551767747156, 
      "latmin": 51.070772922203666
    }, 
    {
      "latmax": 51.05828116585134, 
      "name": "Hertepad", 
      "lonmin": 5.047397753103739, 
      "sanName": "hertepad", 
      "numOfAddr": 16, 
      "lonmax": 5.04917769935998, 
      "latmin": 51.055143769070256
    }, 
    {
      "latmax": 51.064457006098515, 
      "name": "Heuvelheemstraat", 
      "lonmin": 5.083621851165558, 
      "sanName": "heuvelheemstraat", 
      "numOfAddr": 29, 
      "lonmax": 5.085691235822096, 
      "latmin": 51.06324943885117
    }, 
    {
      "latmax": 51.030712973309896, 
      "name": "Heuvelken", 
      "lonmin": 5.019396632163974, 
      "sanName": "heuvelken", 
      "numOfAddr": 16, 
      "lonmax": 5.026969540733765, 
      "latmin": 51.02464026889373
    }, 
    {
      "latmax": 51.067213026474526, 
      "name": "H. Hartlaan", 
      "lonmin": 5.090971575536408, 
      "sanName": "hhartlaan", 
      "numOfAddr": 25, 
      "lonmax": 5.095826732458835, 
      "latmin": 51.053193996884055
    }, 
    {
      "latmax": 51.06854565594904, 
      "name": "Hofstraat", 
      "lonmin": 5.10627112038264, 
      "sanName": "hofstraat", 
      "numOfAddr": 69, 
      "lonmax": 5.126227739427884, 
      "latmin": 51.06217802917229
    }, 
    {
      "latmax": 51.06461279774695, 
      "name": "Hommelbeek", 
      "lonmin": 5.0702835533354875, 
      "sanName": "hommelbeek", 
      "numOfAddr": 49, 
      "lonmax": 5.07286263810902, 
      "latmin": 51.05862108954324
    }, 
    {
      "latmax": 51.06695285950446, 
      "name": "Hooiman", 
      "lonmin": 5.032938119036226, 
      "sanName": "hooiman", 
      "numOfAddr": 41, 
      "lonmax": 5.042630497930656, 
      "latmin": 51.06484614599401
    }, 
    {
      "latmax": 51.04391706636775, 
      "name": "Houterenberg", 
      "lonmin": 5.035644319722715, 
      "sanName": "houterenberg", 
      "numOfAddr": 11, 
      "lonmax": 5.047585740547876, 
      "latmin": 51.03801643470398
    }, 
    {
      "latmax": 51.071033097760626, 
      "name": "Hulsterweg", 
      "lonmin": 2.306689562140502, 
      "sanName": "hulsterweg", 
      "numOfAddr": 157, 
      "lonmax": 5.13354230938987, 
      "latmin": 49.293335165093566
    }, 
    {
      "latmax": 51.062008430114105, 
      "name": "Industrieweg", 
      "lonmin": 5.088517045788004, 
      "sanName": "industrieweg", 
      "numOfAddr": 71, 
      "lonmax": 5.160480914955921, 
      "latmin": 51.0501171663912
    }, 
    {
      "latmax": 51.05066941545139, 
      "name": "Jagersweg", 
      "lonmin": 5.027708867932128, 
      "sanName": "jagersweg", 
      "numOfAddr": 8, 
      "lonmax": 5.049280107816846, 
      "latmin": 51.04069367757106
    }, 
    {
      "latmax": 51.0773601047145, 
      "name": "Kanaalweg", 
      "lonmin": 5.133787774536712, 
      "sanName": "kanaalweg", 
      "numOfAddr": 91, 
      "lonmax": 5.179787046384696, 
      "latmin": 51.07158759935213
    }, 
    {
      "latmax": 51.03151078276876, 
      "name": "Kapelstraat", 
      "lonmin": 5.05208580016988, 
      "sanName": "kapelstraat", 
      "numOfAddr": 9, 
      "lonmax": 5.053179505908171, 
      "latmin": 51.029930440662405
    }, 
    {
      "latmax": 51.06943778910607, 
      "name": "Kerkstraat", 
      "lonmin": 5.088460254029373, 
      "sanName": "kerkstraat", 
      "numOfAddr": 30, 
      "lonmax": 5.090720784841712, 
      "latmin": 51.06808263129285
    }, 
    {
      "latmax": 51.035047977083956, 
      "name": "Klokkeveld", 
      "lonmin": 5.053806895833333, 
      "sanName": "klokkeveld", 
      "numOfAddr": 28, 
      "lonmax": 5.063395332365956, 
      "latmin": 51.03043716001907
    }, 
    {
      "latmax": 51.06878521456035, 
      "name": "Klonkaartstraat", 
      "lonmin": 5.128509126490793, 
      "sanName": "klonkaartstraat", 
      "numOfAddr": 31, 
      "lonmax": 5.1307308331453, 
      "latmin": 51.06819076814089
    }, 
    {
      "latmax": 51.0703241694858, 
      "name": "Kolmen", 
      "lonmin": 5.085613407114819, 
      "sanName": "kolmen", 
      "numOfAddr": 40, 
      "lonmax": 5.087096410258889, 
      "latmin": 51.06617940088134
    }, 
    {
      "latmax": 51.06149566832859, 
      "name": "Konijnepad", 
      "lonmin": 5.055632785358851, 
      "sanName": "konijnepad", 
      "numOfAddr": 28, 
      "lonmax": 5.059676474465364, 
      "latmin": 51.05879010831481
    }, 
    {
      "latmax": 51.07283784782175, 
      "name": "Kraaienweg", 
      "lonmin": 5.137460681247103, 
      "sanName": "kraaienweg", 
      "numOfAddr": 45, 
      "lonmax": 5.142513009635397, 
      "latmin": 51.069888389074855
    }, 
    {
      "latmax": 51.060028311039076, 
      "name": "Kromme Hoorn", 
      "lonmin": 5.076634708398653, 
      "sanName": "krommehoorn", 
      "numOfAddr": 14, 
      "lonmax": 5.077448557433181, 
      "latmin": 51.05850416054568
    }, 
    {
      "latmax": 51.05375491928268, 
      "name": "Kruisstraat", 
      "lonmin": 5.081406558663372, 
      "sanName": "kruisstraat", 
      "numOfAddr": 33, 
      "lonmax": 5.089674276670798, 
      "latmin": 51.052463059738976
    }, 
    {
      "latmax": 51.06320032365525, 
      "name": "Laar", 
      "lonmin": 5.0783576743505225, 
      "sanName": "laar", 
      "numOfAddr": 72, 
      "lonmax": 5.088501544601542, 
      "latmin": 51.05904034782136
    }, 
    {
      "latmax": 51.06078095861765, 
      "name": "Laarbossenstraat", 
      "lonmin": 5.079842413861368, 
      "sanName": "laarbossenstraat", 
      "numOfAddr": 62, 
      "lonmax": 5.087088881827721, 
      "latmin": 51.05909251485373
    }, 
    {
      "latmax": 51.02885905979339, 
      "name": "Lapseheide", 
      "lonmin": 5.071439019242995, 
      "sanName": "lapseheide", 
      "numOfAddr": 27, 
      "lonmax": 5.077758570350562, 
      "latmin": 51.02171838585502
    }, 
    {
      "latmax": 51.06527338954118, 
      "name": "Lichtveld", 
      "lonmin": 5.088560054531185, 
      "sanName": "lichtveld", 
      "numOfAddr": 64, 
      "lonmax": 5.09430419940614, 
      "latmin": 51.06432606788227
    }, 
    {
      "latmax": 51.06883368719888, 
      "name": "Liebroek", 
      "lonmin": 5.061496487528829, 
      "sanName": "liebroek", 
      "numOfAddr": 5, 
      "lonmax": 5.062760327702136, 
      "latmin": 51.06675286644444
    }, 
    {
      "latmax": 51.03460920732404, 
      "name": "Lindenstraat", 
      "lonmin": 5.045132353309954, 
      "sanName": "lindenstraat", 
      "numOfAddr": 55, 
      "lonmax": 5.052121065346006, 
      "latmin": 51.03001546219021
    }, 
    {
      "latmax": 51.07392231928008, 
      "name": "Maaivenstraat", 
      "lonmin": 5.132434127793973, 
      "sanName": "maaivenstraat", 
      "numOfAddr": 30, 
      "lonmax": 5.137738677577056, 
      "latmin": 51.07265595607436
    }, 
    {
      "latmax": 51.06816288478667, 
      "name": "Markt", 
      "lonmin": 5.087092904359217, 
      "sanName": "markt", 
      "numOfAddr": 20, 
      "lonmax": 5.089509386464691, 
      "latmin": 51.06711204242033
    }, 
    {
      "latmax": 51.062965893248666, 
      "name": "Marterpad", 
      "lonmin": 5.05807625383365, 
      "sanName": "marterpad", 
      "numOfAddr": 37, 
      "lonmax": 5.062319185082085, 
      "latmin": 51.059347780374274
    }, 
    {
      "latmax": 51.03254254846256, 
      "name": "Mispad", 
      "lonmin": 5.037357892354065, 
      "sanName": "mispad", 
      "numOfAddr": 20, 
      "lonmax": 5.043384409873752, 
      "latmin": 51.03028152154779
    }, 
    {
      "latmax": 51.05870009850569, 
      "name": "Molenhoeven", 
      "lonmin": 5.085464130044624, 
      "sanName": "molenhoeven", 
      "numOfAddr": 32, 
      "lonmax": 5.087919298824079, 
      "latmin": 51.05384274636009
    }, 
    {
      "latmax": 51.0576404306896, 
      "name": "Molenhuizen", 
      "lonmin": 5.07378040607692, 
      "sanName": "molenhuizen", 
      "numOfAddr": 65, 
      "lonmax": 5.088131279674978, 
      "latmin": 51.05261752762946
    }, 
    {
      "latmax": 51.06072348205991, 
      "name": "Molenstraat", 
      "lonmin": 5.0722223429984155, 
      "sanName": "molenstraat", 
      "numOfAddr": 77, 
      "lonmax": 5.091873395845397, 
      "latmin": 51.057899320613764
    }, 
    {
      "latmax": 51.0815415377789, 
      "name": "Neerstraat", 
      "lonmin": 5.087089749028174, 
      "sanName": "neerstraat", 
      "numOfAddr": 154, 
      "lonmax": 5.091699099464555, 
      "latmin": 51.06792100017268
    }, 
    {
      "latmax": 51.051683628482614, 
      "name": "Oosterbergen", 
      "lonmin": 5.115643497486372, 
      "sanName": "oosterbergen", 
      "numOfAddr": 5, 
      "lonmax": 5.119986852010102, 
      "latmin": 51.04964806904859
    }, 
    {
      "latmax": 51.071299304703864, 
      "name": "Paalseweg", 
      "lonmin": 5.133219385814933, 
      "sanName": "paalseweg", 
      "numOfAddr": 118, 
      "lonmax": 5.144904696112833, 
      "latmin": 51.05753128364631
    }, 
    {
      "latmax": 51.06994185432153, 
      "name": "Paddenhoek", 
      "lonmin": 5.035174946845705, 
      "sanName": "paddenhoek", 
      "numOfAddr": 51, 
      "lonmax": 5.042496361974452, 
      "latmin": 51.06743964928702
    }, 
    {
      "latmax": 51.03184102128107, 
      "name": "Portiersveld", 
      "lonmin": 5.03782168023818, 
      "sanName": "portiersveld", 
      "numOfAddr": 54, 
      "lonmax": 5.04367002085308, 
      "latmin": 51.02964789457717
    }, 
    {
      "latmax": 51.06681292374754, 
      "name": "Potmolenstraat", 
      "lonmin": 5.083889351347885, 
      "sanName": "potmolenstraat", 
      "numOfAddr": 6, 
      "lonmax": 5.085079814415746, 
      "latmin": 51.06635747454594
    }, 
    {
      "latmax": 51.0241270751233, 
      "name": "Prinsenbos", 
      "lonmin": 5.024696721612943, 
      "sanName": "prinsenbos", 
      "numOfAddr": 53, 
      "lonmax": 5.0330847049467735, 
      "latmin": 51.020920654183406
    }, 
    {
      "latmax": 51.071897660690915, 
      "name": "Processieweg", 
      "lonmin": 5.077155134774567, 
      "sanName": "processieweg", 
      "numOfAddr": 53, 
      "lonmax": 5.0838474750935285, 
      "latmin": 51.06754690627527
    }, 
    {
      "latmax": 51.057785230976975, 
      "name": "Putstraat", 
      "lonmin": 5.072574004121013, 
      "sanName": "putstraat", 
      "numOfAddr": 36, 
      "lonmax": 5.0789354316845134, 
      "latmin": 51.053797333141894
    }, 
    {
      "latmax": 51.07389506787907, 
      "name": "Ravenshoutstraat", 
      "lonmin": 5.139499325337035, 
      "sanName": "ravenshoutstraat", 
      "numOfAddr": 11, 
      "lonmax": 5.142762177571267, 
      "latmin": 51.071071820485386
    }, 
    {
      "latmax": 51.074684168750665, 
      "name": "Rijt", 
      "lonmin": 5.083890311388223, 
      "sanName": "rijt", 
      "numOfAddr": 57, 
      "lonmax": 5.089118357848484, 
      "latmin": 51.073033779885606
    }, 
    {
      "latmax": 51.07039092975006, 
      "name": "Rodeheide", 
      "lonmin": 5.08877900785809, 
      "sanName": "rodeheide", 
      "numOfAddr": 94, 
      "lonmax": 5.111567644393364, 
      "latmin": 51.06810070999956
    }, 
    {
      "latmax": 51.046235320344714, 
      "name": "Rodenberg", 
      "lonmin": 5.053379045024495, 
      "sanName": "rodenberg", 
      "numOfAddr": 42, 
      "lonmax": 5.076623644317696, 
      "latmin": 51.034713190615186
    }, 
    {
      "latmax": 51.07067328638225, 
      "name": "Rooierbeemden", 
      "lonmin": 5.0310668769988975, 
      "sanName": "rooierbeemden", 
      "numOfAddr": 54, 
      "lonmax": 5.036259204952133, 
      "latmin": 51.06821100654074
    }, 
    {
      "latmax": 51.06615403413285, 
      "name": "Russelenberg", 
      "lonmin": 5.074013612198881, 
      "sanName": "russelenberg", 
      "numOfAddr": 70, 
      "lonmax": 5.084058333580071, 
      "latmin": 51.06005703119239
    }, 
    {
      "latmax": 51.07296918600734, 
      "name": "Schans", 
      "lonmin": 5.0766636009503525, 
      "sanName": "schans", 
      "numOfAddr": 54, 
      "lonmax": 5.082951109656358, 
      "latmin": 51.06895647169885
    }, 
    {
      "latmax": 51.052851293808814, 
      "name": "Schoonhees", 
      "lonmin": 5.097767796683043, 
      "sanName": "schoonhees", 
      "numOfAddr": 1, 
      "lonmax": 5.097767796683043, 
      "latmin": 51.052851293808814
    }, 
    {
      "latmax": 51.03590536458333, 
      "name": "Schoorstraat", 
      "lonmin": 5.050502994390871, 
      "sanName": "schoorstraat", 
      "numOfAddr": 12, 
      "lonmax": 5.051665244253746, 
      "latmin": 51.03463637477726
    }, 
    {
      "latmax": 51.06110685415816, 
      "name": "Schoterheide", 
      "lonmin": 4.99894049297281, 
      "sanName": "schoterheide", 
      "numOfAddr": 130, 
      "lonmax": 5.0204110608250305, 
      "latmin": 51.05126354904497
    }, 
    {
      "latmax": 51.069447932799534, 
      "name": "Schoterweg", 
      "lonmin": 5.0104406707489195, 
      "sanName": "schoterweg", 
      "numOfAddr": 310, 
      "lonmax": 5.087082902666378, 
      "latmin": 51.06484994904402
    }, 
    {
      "latmax": 51.06582101930478, 
      "name": "Schrikhoek", 
      "lonmin": 5.00974090141569, 
      "sanName": "schrikhoek", 
      "numOfAddr": 29, 
      "lonmax": 5.017297051895323, 
      "latmin": 51.06220005014126
    }, 
    {
      "latmax": 51.071812956806795, 
      "name": "Schutpenning", 
      "lonmin": 5.125603115444903, 
      "sanName": "schutpenning", 
      "numOfAddr": 40, 
      "lonmax": 5.131541347531496, 
      "latmin": 51.070159862137665
    }, 
    {
      "latmax": 51.03478402623285, 
      "name": "Smisstraat", 
      "lonmin": 5.039442187103217, 
      "sanName": "smisstraat", 
      "numOfAddr": 12, 
      "lonmax": 5.04451309150604, 
      "latmin": 51.03050087510604
    }, 
    {
      "latmax": 51.076088433123694, 
      "name": "Snelwegstraat", 
      "lonmin": 5.151289105805692, 
      "sanName": "snelwegstraat", 
      "numOfAddr": 1, 
      "lonmax": 5.151289105805692, 
      "latmin": 51.076088433123694
    }, 
    {
      "latmax": 51.06595375027537, 
      "name": "Solveld", 
      "lonmin": 5.08256485370232, 
      "sanName": "solveld", 
      "numOfAddr": 104, 
      "lonmax": 5.0873836018420295, 
      "latmin": 51.060301616354835
    }, 
    {
      "latmax": 51.07154001738476, 
      "name": "Sparrenweg", 
      "lonmin": 5.036710153992423, 
      "sanName": "sparrenweg", 
      "numOfAddr": 220, 
      "lonmax": 5.071485811201824, 
      "latmin": 51.020895662651625
    }, 
    {
      "latmax": 51.06888997812766, 
      "name": "Spekestraat", 
      "lonmin": 5.125971204535839, 
      "sanName": "spekestraat", 
      "numOfAddr": 37, 
      "lonmax": 5.13195040718507, 
      "latmin": 51.066271867940934
    }, 
    {
      "latmax": 51.0703859014718, 
      "name": "Spoorwegstraat", 
      "lonmin": 5.101395777149351, 
      "sanName": "spoorwegstraat", 
      "numOfAddr": 22, 
      "lonmax": 5.10516514515389, 
      "latmin": 51.06679251395835
    }, 
    {
      "latmax": 51.07731760010839, 
      "name": "Sportlaan", 
      "lonmin": 5.0863468186683525, 
      "sanName": "sportlaan", 
      "numOfAddr": 7, 
      "lonmax": 5.08980980232164, 
      "latmin": 51.07550878661872
    }, 
    {
      "latmax": 51.06776409884279, 
      "name": "Stationsstraat", 
      "lonmin": 5.088949846619727, 
      "sanName": "stationsstraat", 
      "numOfAddr": 101, 
      "lonmax": 5.102455709371068, 
      "latmin": 51.06631283688721
    }, 
    {
      "latmax": 51.0733927371479, 
      "name": "St. Barbarastraat", 
      "lonmin": 5.084430456779813, 
      "sanName": "stbarbarastraat", 
      "numOfAddr": 45, 
      "lonmax": 5.088770410515705, 
      "latmin": 51.07209309450791
    }, 
    {
      "latmax": 51.06971787379633, 
      "name": "Steendriesen", 
      "lonmin": 5.091161262934186, 
      "sanName": "steendriesen", 
      "numOfAddr": 60, 
      "lonmax": 5.093479845150826, 
      "latmin": 51.06783707298462
    }, 
    {
      "latmax": 51.02584506037699, 
      "name": "Steenovenstraat", 
      "lonmin": 5.061399076339009, 
      "sanName": "steenovenstraat", 
      "numOfAddr": 10, 
      "lonmax": 5.070108198214736, 
      "latmin": 51.02002047037991
    }, 
    {
      "latmax": 51.0647891995846, 
      "name": "Stemberg", 
      "lonmin": 5.078215556214067, 
      "sanName": "stemberg", 
      "numOfAddr": 40, 
      "lonmax": 5.080794680641687, 
      "latmin": 51.06281071090734
    }, 
    {
      "latmax": 51.066614297595734, 
      "name": "St.-Jozefsplein", 
      "lonmin": 5.034234596921852, 
      "sanName": "stjozefsplein", 
      "numOfAddr": 21, 
      "lonmax": 5.0376291410258816, 
      "latmin": 51.06570679567805
    }, 
    {
      "latmax": 51.03654888355994, 
      "name": "Streekbossenstraat", 
      "lonmin": 5.012670089196159, 
      "sanName": "streekbossenstraat", 
      "numOfAddr": 11, 
      "lonmax": 5.022086004408677, 
      "latmin": 51.033565031333
    }, 
    {
      "latmax": 51.07180247538007, 
      "name": "Terbeemden", 
      "lonmin": 5.134694421601404, 
      "sanName": "terbeemden", 
      "numOfAddr": 105, 
      "lonmax": 5.139894402166251, 
      "latmin": 51.06730496863688
    }, 
    {
      "latmax": 51.07753591391685, 
      "name": "Terlaak", 
      "lonmin": 5.143843070360863, 
      "sanName": "terlaak", 
      "numOfAddr": 75, 
      "lonmax": 5.156168622746816, 
      "latmin": 51.07366736677662
    }, 
    {
      "latmax": 51.072243521880175, 
      "name": "Termaden", 
      "lonmin": 5.125394756841043, 
      "sanName": "termaden", 
      "numOfAddr": 38, 
      "lonmax": 5.129979244015729, 
      "latmin": 51.071144001875616
    }, 
    {
      "latmax": 51.07201803816423, 
      "name": "Terploeg", 
      "lonmin": 5.120434814892107, 
      "sanName": "terploeg", 
      "numOfAddr": 76, 
      "lonmax": 5.124949304712544, 
      "latmin": 51.07011978850954
    }, 
    {
      "latmax": 51.057990354628934, 
      "name": "Torenveld", 
      "lonmin": 5.077904971401315, 
      "sanName": "torenveld", 
      "numOfAddr": 120, 
      "lonmax": 5.084226675841654, 
      "latmin": 51.05464768057586
    }, 
    {
      "latmax": 51.069085274994954, 
      "name": "Transportstraat", 
      "lonmin": 5.1438528539800314, 
      "sanName": "transportstraat", 
      "numOfAddr": 7, 
      "lonmax": 5.15509135678467, 
      "latmin": 51.06236182193354
    }, 
    {
      "latmax": 51.070563811140666, 
      "name": "Turfstraat", 
      "lonmin": 5.027536133492085, 
      "sanName": "turfstraat", 
      "numOfAddr": 5, 
      "lonmax": 5.0313287764963865, 
      "latmin": 51.068479112726834
    }, 
    {
      "latmax": 51.0550192598479, 
      "name": "Turnhoutsebaan", 
      "lonmin": 4.995902649237937, 
      "sanName": "turnhoutsebaan", 
      "numOfAddr": 60, 
      "lonmax": 5.013414767214243, 
      "latmin": 51.03275728675573
    }, 
    {
      "latmax": 51.07017421413076, 
      "name": "Tushoekstraat", 
      "lonmin": 5.128895195161249, 
      "sanName": "tushoekstraat", 
      "numOfAddr": 45, 
      "lonmax": 5.13481493908312, 
      "latmin": 51.06902613831812
    }, 
    {
      "latmax": 51.072036788936934, 
      "name": "Tusvoort", 
      "lonmin": 5.1353889572382005, 
      "sanName": "tusvoort", 
      "numOfAddr": 76, 
      "lonmax": 5.140310899736606, 
      "latmin": 51.06951038652158
    }, 
    {
      "latmax": 51.07390058483746, 
      "name": "Ulfheide", 
      "lonmin": 5.148240288540545, 
      "sanName": "ulfheide", 
      "numOfAddr": 15, 
      "lonmax": 5.151769442523844, 
      "latmin": 51.07268821032684
    }, 
    {
      "latmax": 51.05321015170714, 
      "name": "Varode", 
      "lonmin": 5.077274974510468, 
      "sanName": "varode", 
      "numOfAddr": 27, 
      "lonmax": 5.084675469442384, 
      "latmin": 51.04881955294876
    }, 
    {
      "latmax": 51.06813796879068, 
      "name": "Veldstraat", 
      "lonmin": 5.039134917045767, 
      "sanName": "veldstraat", 
      "numOfAddr": 10, 
      "lonmax": 5.0496790806301926, 
      "latmin": 51.061496823668726
    }, 
    {
      "latmax": 51.06869787942097, 
      "name": "Vijver", 
      "lonmin": 5.122044231650506, 
      "sanName": "vijver", 
      "numOfAddr": 14, 
      "lonmax": 5.125002402268478, 
      "latmin": 51.067261846190135
    }, 
    {
      "latmax": 51.071099638566125, 
      "name": "Vismarkt", 
      "lonmin": 5.089889365065944, 
      "sanName": "vismarkt", 
      "numOfAddr": 21, 
      "lonmax": 5.091583374349647, 
      "latmin": 51.06998341421383
    }, 
    {
      "latmax": 51.030910310401616, 
      "name": "Vlassen", 
      "lonmin": 5.063126591094283, 
      "sanName": "vlassen", 
      "numOfAddr": 39, 
      "lonmax": 5.066053025836245, 
      "latmin": 51.02739472059978
    }, 
    {
      "latmax": 51.07664789220928, 
      "name": "Vlietstraat", 
      "lonmin": 5.080601156349789, 
      "sanName": "vlietstraat", 
      "numOfAddr": 51, 
      "lonmax": 5.084542146393829, 
      "latmin": 51.07422758298532
    }, 
    {
      "latmax": 51.05254672705032, 
      "name": "Vlugt", 
      "lonmin": 5.0689860405826845, 
      "sanName": "vlugt", 
      "numOfAddr": 19, 
      "lonmax": 5.081996341012585, 
      "latmin": 51.04463701585931
    }, 
    {
      "latmax": 51.08301677687526, 
      "name": "Vorsterweg", 
      "lonmin": 5.08421007387901, 
      "sanName": "vorsterweg", 
      "numOfAddr": 29, 
      "lonmax": 5.095940488554584, 
      "latmin": 51.08162291482496
    }, 
    {
      "latmax": 51.059173225543724, 
      "name": "Vossepad", 
      "lonmin": 5.055889054524595, 
      "sanName": "vossepad", 
      "numOfAddr": 8, 
      "lonmax": 5.063484644375901, 
      "latmin": 51.05809124630563
    }, 
    {
      "latmax": 51.0773084668294, 
      "name": "Vroentestraat", 
      "lonmin": 5.081694013433624, 
      "sanName": "vroentestraat", 
      "numOfAddr": 45, 
      "lonmax": 5.083953657732687, 
      "latmin": 51.07576902731475
    }, 
    {
      "latmax": 51.070879968437445, 
      "name": "Warande", 
      "lonmin": 5.139406783364103, 
      "sanName": "warande", 
      "numOfAddr": 66, 
      "lonmax": 5.142194000034225, 
      "latmin": 51.06855608248907
    }, 
    {
      "latmax": 51.07296787742334, 
      "name": "Waterbroek", 
      "lonmin": 5.117156931048687, 
      "sanName": "waterbroek", 
      "numOfAddr": 25, 
      "lonmax": 5.126925275489632, 
      "latmin": 51.07099506833565
    }, 
    {
      "latmax": 51.0673434106385, 
      "name": "Waterstraat", 
      "lonmin": 5.119418086242126, 
      "sanName": "waterstraat", 
      "numOfAddr": 86, 
      "lonmax": 5.137133188544308, 
      "latmin": 51.060450919655025
    }, 
    {
      "latmax": 51.06723447386703, 
      "name": "Weggevoerdenstraat", 
      "lonmin": 5.090501687896065, 
      "sanName": "weggevoerdenstraat", 
      "numOfAddr": 30, 
      "lonmax": 5.0919006793606165, 
      "latmin": 51.06495398076556
    }, 
    {
      "latmax": 51.07116018152199, 
      "name": "Wetsberg", 
      "lonmin": 5.0433030119659765, 
      "sanName": "wetsberg", 
      "numOfAddr": 64, 
      "lonmax": 5.053947963360048, 
      "latmin": 51.06852357832264
    }, 
    {
      "latmax": 51.05968899983732, 
      "name": "Wezelpad", 
      "lonmin": 5.0471162491302275, 
      "sanName": "wezelpad", 
      "numOfAddr": 29, 
      "lonmax": 5.0525809389347875, 
      "latmin": 51.05452732409849
    }, 
    {
      "latmax": 51.03040787327931, 
      "name": "Wijerstraat", 
      "lonmin": 5.060729040068671, 
      "sanName": "wijerstraat", 
      "numOfAddr": 21, 
      "lonmax": 5.0632014186250345, 
      "latmin": 51.02832655955493
    }, 
    {
      "latmax": 51.07956916627002, 
      "name": "Windmolen", 
      "lonmin": 5.0775300556764105, 
      "sanName": "windmolen", 
      "numOfAddr": 26, 
      "lonmax": 5.081883414266203, 
      "latmin": 51.07822453805189
    }, 
    {
      "latmax": 51.05163238798561, 
      "name": "Winkeldonkstraat", 
      "lonmin": 5.088577418944991, 
      "sanName": "winkeldonkstraat", 
      "numOfAddr": 39, 
      "lonmax": 5.090866901234511, 
      "latmin": 51.05020991760746
    }, 
    {
      "latmax": 51.02971961096475, 
      "name": "Wolbergenstraat", 
      "lonmin": 5.069222033954287, 
      "sanName": "wolbergenstraat", 
      "numOfAddr": 10, 
      "lonmax": 5.07605021263769, 
      "latmin": 51.02771033569251
    }, 
    {
      "latmax": 51.028026878064814, 
      "name": "Wouwerstraat", 
      "lonmin": 5.036696998489666, 
      "sanName": "wouwerstraat", 
      "numOfAddr": 10, 
      "lonmax": 5.038138467061576, 
      "latmin": 51.0268295469529
    }, 
    {
      "latmax": 51.069275192661436, 
      "name": "Zandstraat", 
      "lonmin": 5.106791353865578, 
      "sanName": "zandstraat", 
      "numOfAddr": 11, 
      "lonmax": 5.107623334447447, 
      "latmin": 51.06764321113887
    }, 
    {
      "latmax": 51.054531512524825, 
      "name": "Zavelberg", 
      "lonmin": 5.035826204648845, 
      "sanName": "zavelberg", 
      "numOfAddr": 16, 
      "lonmax": 5.047533496134393, 
      "latmin": 51.05054152422256
    }, 
    {
      "latmax": 51.06293378537621, 
      "name": "Zillekesstraat", 
      "lonmin": 5.143264843925114, 
      "sanName": "zillekesstraat", 
      "numOfAddr": 14, 
      "lonmax": 5.1523879591727635, 
      "latmin": 51.06198396395959
    }
  ]
}