{
  "streets": [
    {
      "latmax": 51.25008438154822, 
      "name": "Algonquinstraat", 
      "lonmin": 3.339978030546699, 
      "sanName": "algonquinstraat", 
      "numOfAddr": 13, 
      "lonmax": 3.343399676571537, 
      "latmin": 51.24847189751821
    }, 
    {
      "latmax": 51.20754345027435, 
      "name": "Allekerkestraat", 
      "lonmin": 3.3404975691821996, 
      "sanName": "allekerkestraat", 
      "numOfAddr": 4, 
      "lonmax": 3.3412971197276384, 
      "latmin": 51.206312283214416
    }, 
    {
      "latmax": 51.23261581628734, 
      "name": "Altenaweg", 
      "lonmin": 3.3277570787610524, 
      "sanName": "altenaweg", 
      "numOfAddr": 1, 
      "lonmax": 3.3277570787610524, 
      "latmin": 51.23261581628734
    }, 
    {
      "latmax": 51.25700357407825, 
      "name": "Amelinsbrugstraat", 
      "lonmin": 3.2514597327609365, 
      "sanName": "amelinsbrugstraat", 
      "numOfAddr": 3, 
      "lonmax": 3.256357720782096, 
      "latmin": 51.25591892305245
    }, 
    {
      "latmax": 51.21847979883426, 
      "name": "Anna Casteleinstraat", 
      "lonmin": 3.3140848563686136, 
      "sanName": "annacasteleinstraat", 
      "numOfAddr": 35, 
      "lonmax": 3.317292098238863, 
      "latmin": 51.21610153524706
    }, 
    {
      "latmax": 51.2145031911742, 
      "name": "Antwerpse Heirweg", 
      "lonmin": 3.332036020142458, 
      "sanName": "antwerpseheirweg", 
      "numOfAddr": 61, 
      "lonmax": 3.3786434198858526, 
      "latmin": 51.20645866189326
    }, 
    {
      "latmax": 51.20815203927881, 
      "name": "Awalstraat", 
      "lonmin": 3.381627874883409, 
      "sanName": "awalstraat", 
      "numOfAddr": 1, 
      "lonmax": 3.381627874883409, 
      "latmin": 51.20815203927881
    }, 
    {
      "latmax": 51.23773227411938, 
      "name": "Barrendweg", 
      "lonmin": 3.38746689533863, 
      "sanName": "barrendweg", 
      "numOfAddr": 1, 
      "lonmax": 3.38746689533863, 
      "latmin": 51.23773227411938
    }, 
    {
      "latmax": 51.26898520450455, 
      "name": "Bekofstraat", 
      "lonmin": 3.305791269476126, 
      "sanName": "bekofstraat", 
      "numOfAddr": 2, 
      "lonmax": 3.3075450187158104, 
      "latmin": 51.268980706194796
    }, 
    {
      "latmax": 51.24297825173672, 
      "name": "Belle Maertensstraat", 
      "lonmin": 3.3425127261936374, 
      "sanName": "bellemaertensstraat", 
      "numOfAddr": 35, 
      "lonmax": 3.3456632254398184, 
      "latmin": 51.24128895662749
    }, 
    {
      "latmax": 51.28017804751043, 
      "name": "Bloedputstraat", 
      "lonmin": 3.312096556028189, 
      "sanName": "bloedputstraat", 
      "numOfAddr": 1, 
      "lonmax": 3.312096556028189, 
      "latmin": 51.28017804751043
    }, 
    {
      "latmax": 51.20455280218636, 
      "name": "Bloemisterijstraat", 
      "lonmin": 3.3125545174969053, 
      "sanName": "bloemisterijstraat", 
      "numOfAddr": 19, 
      "lonmax": 3.3147553915408956, 
      "latmin": 51.20322676670849
    }, 
    {
      "latmax": 51.20963320095745, 
      "name": "Bolakkerstraat", 
      "lonmin": 3.3604873983011467, 
      "sanName": "bolakkerstraat", 
      "numOfAddr": 10, 
      "lonmax": 3.3643121740592634, 
      "latmin": 51.20527065202854
    }, 
    {
      "latmax": 51.24275399579385, 
      "name": "Bonemstraat", 
      "lonmin": 3.301599938964688, 
      "sanName": "bonemstraat", 
      "numOfAddr": 3, 
      "lonmax": 3.301768655609187, 
      "latmin": 51.24146521577104
    }, 
    {
      "latmax": 51.24414962153313, 
      "name": "Boogschutterspad", 
      "lonmin": 3.335148957504002, 
      "sanName": "boogschutterspad", 
      "numOfAddr": 14, 
      "lonmax": 3.335994353313975, 
      "latmin": 51.24257194372881
    }, 
    {
      "latmax": 51.245356235396365, 
      "name": "Boomgaard", 
      "lonmin": 3.3418615165439065, 
      "sanName": "boomgaard", 
      "numOfAddr": 50, 
      "lonmax": 3.3439262217409795, 
      "latmin": 51.2439383079139
    }, 
    {
      "latmax": 51.28341703283403, 
      "name": "Braambeierhoekstraat", 
      "lonmin": 3.28494420673143, 
      "sanName": "braambeierhoekstraat", 
      "numOfAddr": 26, 
      "lonmax": 3.2864931974786957, 
      "latmin": 51.282249989252705
    }, 
    {
      "latmax": 51.23186970691433, 
      "name": "Bradericplein", 
      "lonmin": 3.3055956374870457, 
      "sanName": "bradericplein", 
      "numOfAddr": 27, 
      "lonmax": 3.3084591202532305, 
      "latmin": 51.23072035422776
    }, 
    {
      "latmax": 51.24549277856097, 
      "name": "Branddijk", 
      "lonmin": 3.290567924141587, 
      "sanName": "branddijk", 
      "numOfAddr": 3, 
      "lonmax": 3.30380223361257, 
      "latmin": 51.242637920665
    }, 
    {
      "latmax": 51.24223965900772, 
      "name": "Brieversweg", 
      "lonmin": 3.3095199863334916, 
      "sanName": "brieversweg", 
      "numOfAddr": 96, 
      "lonmax": 3.3970425021138686, 
      "latmin": 51.21727566516788
    }, 
    {
      "latmax": 51.230924867184534, 
      "name": "Broekweg", 
      "lonmin": 3.277033511721384, 
      "sanName": "broekweg", 
      "numOfAddr": 2, 
      "lonmax": 3.278896762185627, 
      "latmin": 51.2302849233342
    }, 
    {
      "latmax": 51.20726273053977, 
      "name": "Brouwerijstraat", 
      "lonmin": 3.318456997477244, 
      "sanName": "brouwerijstraat", 
      "numOfAddr": 3, 
      "lonmax": 3.3194142989976845, 
      "latmin": 51.207166841667195
    }, 
    {
      "latmax": 51.207746759611666, 
      "name": "Bruggesteenweg", 
      "lonmin": 3.301496962158125, 
      "sanName": "bruggesteenweg", 
      "numOfAddr": 40, 
      "lonmax": 3.3108027425226103, 
      "latmin": 51.20292777061441
    }, 
    {
      "latmax": 51.21274061869486, 
      "name": "Burg. Capellelaan", 
      "lonmin": 3.310245527902643, 
      "sanName": "burgcapellelaan", 
      "numOfAddr": 87, 
      "lonmax": 3.3131492990674363, 
      "latmin": 51.209618799265975
    }, 
    {
      "latmax": 51.21252311370063, 
      "name": "Burg. Sabotlaan", 
      "lonmin": 3.308632712582742, 
      "sanName": "burgsabotlaan", 
      "numOfAddr": 54, 
      "lonmax": 3.3106484232508717, 
      "latmin": 51.20952837493126
    }, 
    {
      "latmax": 51.25070416461629, 
      "name": "Burgstraat", 
      "lonmin": 3.2805301751303992, 
      "sanName": "burgstraat", 
      "numOfAddr": 11, 
      "lonmax": 3.2814094070203246, 
      "latmin": 51.2493422154496
    }, 
    {
      "latmax": 51.20365476977266, 
      "name": "Coppieterstraat", 
      "lonmin": 3.3233240009520215, 
      "sanName": "coppieterstraat", 
      "numOfAddr": 26, 
      "lonmax": 3.3245358948858343, 
      "latmin": 51.2028176816909
    }, 
    {
      "latmax": 51.251863608905865, 
      "name": "Corneliestraat", 
      "lonmin": 3.282793425711727, 
      "sanName": "corneliestraat", 
      "numOfAddr": 27, 
      "lonmax": 3.2836669942400154, 
      "latmin": 51.251197993632665
    }, 
    {
      "latmax": 51.262208894997826, 
      "name": "Dammesteenweg", 
      "lonmin": 3.2716876282115988, 
      "sanName": "dammesteenweg", 
      "numOfAddr": 7, 
      "lonmax": 3.279616963561466, 
      "latmin": 51.25254892199253
    }, 
    {
      "latmax": 51.30245391597225, 
      "name": "Damse Vaart-Noord", 
      "lonmin": 3.2970178391093246, 
      "sanName": "damsevaartnoord", 
      "numOfAddr": 40, 
      "lonmax": 3.3584702286230086, 
      "latmin": 51.26709832737826
    }, 
    {
      "latmax": 51.29178297183348, 
      "name": "Damse Vaart-Oost", 
      "lonmin": 3.298104135369097, 
      "sanName": "damsevaartoost", 
      "numOfAddr": 16, 
      "lonmax": 3.3393165092194947, 
      "latmin": 51.266536173068225
    }, 
    {
      "latmax": 51.263089873886535, 
      "name": "Damse Vaart West", 
      "lonmin": 3.2653719968247876, 
      "sanName": "damsevaartwest", 
      "numOfAddr": 13, 
      "lonmax": 3.2923690977368647, 
      "latmin": 51.24158960033267
    }, 
    {
      "latmax": 51.26460185460097, 
      "name": "Damse Vaart-Zuid", 
      "lonmin": 3.278000773169574, 
      "sanName": "damsevaartzuid", 
      "numOfAddr": 30, 
      "lonmax": 3.2956972983063726, 
      "latmin": 51.24983448147233
    }, 
    {
      "latmax": 51.259345991792, 
      "name": "Damweg", 
      "lonmin": 3.3465781866427826, 
      "sanName": "damweg", 
      "numOfAddr": 58, 
      "lonmax": 3.3892187811920738, 
      "latmin": 51.24812594034323
    }, 
    {
      "latmax": 51.25832551693607, 
      "name": "Dasseweg", 
      "lonmin": 3.3212045121189293, 
      "sanName": "dasseweg", 
      "numOfAddr": 1, 
      "lonmax": 3.3212045121189293, 
      "latmin": 51.25832551693607
    }, 
    {
      "latmax": 51.20270316768817, 
      "name": "Decloedtstraat", 
      "lonmin": 3.324904405594665, 
      "sanName": "decloedtstraat", 
      "numOfAddr": 14, 
      "lonmax": 3.325627333065495, 
      "latmin": 51.201584474149186
    }, 
    {
      "latmax": 51.245439216100095, 
      "name": "De Dreve", 
      "lonmin": 3.3414661827451986, 
      "sanName": "dedreve", 
      "numOfAddr": 3, 
      "lonmax": 3.3416683031303824, 
      "latmin": 51.24522307275252
    }, 
    {
      "latmax": 51.207664547349886, 
      "name": "De Streep", 
      "lonmin": 3.3097452545073294, 
      "sanName": "destreep", 
      "numOfAddr": 21, 
      "lonmax": 3.3123313739682203, 
      "latmin": 51.206736487654084
    }, 
    {
      "latmax": 51.20377903096046, 
      "name": "Dijken", 
      "lonmin": 3.361397882511116, 
      "sanName": "dijken", 
      "numOfAddr": 9, 
      "lonmax": 3.366131417901758, 
      "latmin": 51.196917036066885
    }, 
    {
      "latmax": 51.22386700332554, 
      "name": "Doornstraat", 
      "lonmin": 3.3314952036638963, 
      "sanName": "doornstraat", 
      "numOfAddr": 37, 
      "lonmax": 3.368085491394051, 
      "latmin": 51.2102345219587
    }, 
    {
      "latmax": 51.20367851949682, 
      "name": "Dorpsstraat", 
      "lonmin": 3.3113484499794614, 
      "sanName": "dorpsstraat", 
      "numOfAddr": 182, 
      "lonmax": 3.3329356611723644, 
      "latmin": 51.200474528318196
    }, 
    {
      "latmax": 51.26993839555039, 
      "name": "Dudzelesteenweg", 
      "lonmin": 3.26349367201166, 
      "sanName": "dudzelesteenweg", 
      "numOfAddr": 5, 
      "lonmax": 3.2661455179943557, 
      "latmin": 51.266696832524225
    }, 
    {
      "latmax": 51.24909858734274, 
      "name": "Edward Steyaertstraat", 
      "lonmin": 3.338990702932487, 
      "sanName": "edwardsteyaertstraat", 
      "numOfAddr": 19, 
      "lonmax": 3.3412418368469634, 
      "latmin": 51.24779563816524
    }, 
    {
      "latmax": 51.21871661843938, 
      "name": "Egidius van Bredenestraat", 
      "lonmin": 3.3148298421218607, 
      "sanName": "egidiusvanbredenestraat", 
      "numOfAddr": 16, 
      "lonmax": 3.316144666120518, 
      "latmin": 51.21767811636772
    }, 
    {
      "latmax": 51.232282895183616, 
      "name": "Eibeistraat", 
      "lonmin": 3.3750695877497305, 
      "sanName": "eibeistraat", 
      "numOfAddr": 5, 
      "lonmax": 3.381264415228338, 
      "latmin": 51.23042017735412
    }, 
    {
      "latmax": 51.28268891469894, 
      "name": "Eienbroekstraat", 
      "lonmin": 3.2883845882489116, 
      "sanName": "eienbroekstraat", 
      "numOfAddr": 28, 
      "lonmax": 3.29304412182412, 
      "latmin": 51.27874233599865
    }, 
    {
      "latmax": 51.21550442237659, 
      "name": "Eikelberg", 
      "lonmin": 3.3093306127643087, 
      "sanName": "eikelberg", 
      "numOfAddr": 2, 
      "lonmax": 3.3102806951507495, 
      "latmin": 51.214445265699055
    }, 
    {
      "latmax": 51.23381873218213, 
      "name": "Engelse straat", 
      "lonmin": 3.3810433263396478, 
      "sanName": "engelsestraat", 
      "numOfAddr": 1, 
      "lonmax": 3.3810433263396478, 
      "latmin": 51.23381873218213
    }, 
    {
      "latmax": 51.24889987133744, 
      "name": "Estegemstraat", 
      "lonmin": 3.340495954118666, 
      "sanName": "estegemstraat", 
      "numOfAddr": 26, 
      "lonmax": 3.3425545788874618, 
      "latmin": 51.247115635462045
    }, 
    {
      "latmax": 51.30163676336829, 
      "name": "Fort Sint-Donaas", 
      "lonmin": 3.3431181155438026, 
      "sanName": "fortsintdonaas", 
      "numOfAddr": 8, 
      "lonmax": 3.362129165043854, 
      "latmin": 51.28949686767149
    }, 
    {
      "latmax": 51.20654255350709, 
      "name": "Gentse Steenweg", 
      "lonmin": 3.333603530113549, 
      "sanName": "gentsesteenweg", 
      "numOfAddr": 133, 
      "lonmax": 3.3827677287758298, 
      "latmin": 51.20176308937435
    }, 
    {
      "latmax": 51.285927829707134, 
      "name": "Groenendijk", 
      "lonmin": 3.3576028332353927, 
      "sanName": "groenendijk", 
      "numOfAddr": 4, 
      "lonmax": 3.3614489452655287, 
      "latmin": 51.28454822441341
    }, 
    {
      "latmax": 51.254920194959304, 
      "name": "Groenestraat", 
      "lonmin": 3.3758804273739753, 
      "sanName": "groenestraat", 
      "numOfAddr": 69, 
      "lonmax": 3.38132415150895, 
      "latmin": 51.25091199097412
    }, 
    {
      "latmax": 51.297308280650846, 
      "name": "Groteboomgaardstraat", 
      "lonmin": 3.2757468996919945, 
      "sanName": "groteboomgaardstraat", 
      "numOfAddr": 2, 
      "lonmax": 3.282261158425589, 
      "latmin": 51.29659657801231
    }, 
    {
      "latmax": 51.24275530781013, 
      "name": "Halvemaanstraat", 
      "lonmin": 3.3413401947670844, 
      "sanName": "halvemaanstraat", 
      "numOfAddr": 17, 
      "lonmax": 3.3425510709967083, 
      "latmin": 51.24177046170903
    }, 
    {
      "latmax": 51.26415309245456, 
      "name": "Haringgat", 
      "lonmin": 3.3743818753949704, 
      "sanName": "haringgat", 
      "numOfAddr": 25, 
      "lonmax": 3.383231016194665, 
      "latmin": 51.25324261468749
    }, 
    {
      "latmax": 51.251048916700256, 
      "name": "Haringmarkt", 
      "lonmin": 3.2838592711245966, 
      "sanName": "haringmarkt", 
      "numOfAddr": 5, 
      "lonmax": 3.2843192820181573, 
      "latmin": 51.2507530766379
    }, 
    {
      "latmax": 51.29215468775254, 
      "name": "Heernisstraat", 
      "lonmin": 3.2754050808259, 
      "sanName": "heernisstraat", 
      "numOfAddr": 6, 
      "lonmax": 3.286308995883544, 
      "latmin": 51.28436656955966
    }, 
    {
      "latmax": 51.238357508672976, 
      "name": "Heetvelddreef", 
      "lonmin": 3.391938442514172, 
      "sanName": "heetvelddreef", 
      "numOfAddr": 1, 
      "lonmax": 3.391938442514172, 
      "latmin": 51.238357508672976
    }, 
    {
      "latmax": 51.28398010377569, 
      "name": "Heitegemstraat", 
      "lonmin": 3.2785589292501807, 
      "sanName": "heitegemstraat", 
      "numOfAddr": 18, 
      "lonmax": 3.287504090556926, 
      "latmin": 51.281748957131526
    }, 
    {
      "latmax": 51.290721474870416, 
      "name": "Hoekestraat", 
      "lonmin": 3.29351510903421, 
      "sanName": "hoekestraat", 
      "numOfAddr": 18, 
      "lonmax": 3.3162616327298853, 
      "latmin": 51.278540949028844
    }, 
    {
      "latmax": 51.20583504153793, 
      "name": "Hoge Akker", 
      "lonmin": 3.3248755342809684, 
      "sanName": "hogeakker", 
      "numOfAddr": 11, 
      "lonmax": 3.32658439840178, 
      "latmin": 51.205468784307044
    }, 
    {
      "latmax": 51.281473442122135, 
      "name": "Hoogstraat", 
      "lonmin": 3.357179977084609, 
      "sanName": "hoogstraat", 
      "numOfAddr": 46, 
      "lonmax": 3.359990847015555, 
      "latmin": 51.27764782649083
    }, 
    {
      "latmax": 51.25314062022884, 
      "name": "Hoornmolenstraat", 
      "lonmin": 3.3776065076803383, 
      "sanName": "hoornmolenstraat", 
      "numOfAddr": 9, 
      "lonmax": 3.3782739351049047, 
      "latmin": 51.252607321671675
    }, 
    {
      "latmax": 51.256181891937885, 
      "name": "Hoornput", 
      "lonmin": 3.38751922732376, 
      "sanName": "hoornput", 
      "numOfAddr": 1, 
      "lonmax": 3.38751922732376, 
      "latmin": 51.256181891937885
    }, 
    {
      "latmax": 51.25527153330398, 
      "name": "Hoornstraat", 
      "lonmin": 3.358503759778638, 
      "sanName": "hoornstraat", 
      "numOfAddr": 154, 
      "lonmax": 3.3920356648357375, 
      "latmin": 51.24488200697762
    }, 
    {
      "latmax": 51.25509676514121, 
      "name": "Houtincwerve", 
      "lonmin": 3.384847381704362, 
      "sanName": "houtincwerve", 
      "numOfAddr": 5, 
      "lonmax": 3.385305412145667, 
      "latmin": 51.2544691792249
    }, 
    {
      "latmax": 51.21423658666354, 
      "name": "Houtstraat", 
      "lonmin": 3.316325141628278, 
      "sanName": "houtstraat", 
      "numOfAddr": 37, 
      "lonmax": 3.3189251683865946, 
      "latmin": 51.21154097354728
    }, 
    {
      "latmax": 51.21127758052702, 
      "name": "Hovingenlaan", 
      "lonmin": 3.313084233925078, 
      "sanName": "hovingenlaan", 
      "numOfAddr": 4, 
      "lonmax": 3.3147931449137022, 
      "latmin": 51.210949757923146
    }, 
    {
      "latmax": 51.25719335837007, 
      "name": "Hulsterlo", 
      "lonmin": 3.3075292598908095, 
      "sanName": "hulsterlo", 
      "numOfAddr": 2, 
      "lonmax": 3.3088656292138725, 
      "latmin": 51.246101069332745
    }, 
    {
      "latmax": 51.25237420399873, 
      "name": "Jacob van Maerlantstraat", 
      "lonmin": 3.2817727285445897, 
      "sanName": "jacobvanmaerlantstraat", 
      "numOfAddr": 14, 
      "lonmax": 3.283889167910199, 
      "latmin": 51.251268171653045
    }, 
    {
      "latmax": 51.25286500982498, 
      "name": "Juliaan Opdedrinckstraat", 
      "lonmin": 3.282723583914158, 
      "sanName": "juliaanopdedrinckstraat", 
      "numOfAddr": 9, 
      "lonmax": 3.283363835509231, 
      "latmin": 51.252238838242285
    }, 
    {
      "latmax": 51.29053834851298, 
      "name": "Kaleshoek", 
      "lonmin": 3.3560703745771847, 
      "sanName": "kaleshoek", 
      "numOfAddr": 10, 
      "lonmax": 3.365286327345384, 
      "latmin": 51.28604759994307
    }, 
    {
      "latmax": 51.23995250262693, 
      "name": "Kalkersstraat", 
      "lonmin": 3.344776070824083, 
      "sanName": "kalkersstraat", 
      "numOfAddr": 5, 
      "lonmax": 3.346448547095191, 
      "latmin": 51.23867877508383
    }, 
    {
      "latmax": 51.21566167296687, 
      "name": "Kan. Bittremieuxlaan", 
      "lonmin": 3.3120268593003233, 
      "sanName": "kanbittremieuxlaan", 
      "numOfAddr": 88, 
      "lonmax": 3.315061117058129, 
      "latmin": 51.20987693655227
    }, 
    {
      "latmax": 51.20427548449147, 
      "name": "Kanthage", 
      "lonmin": 3.3294824615348695, 
      "sanName": "kanthage", 
      "numOfAddr": 30, 
      "lonmax": 3.3314030002648467, 
      "latmin": 51.202514243872365
    }, 
    {
      "latmax": 51.243492229949965, 
      "name": "Karel van Sint-Omaarsstraat", 
      "lonmin": 3.3383690659015195, 
      "sanName": "karelvansintomaarsstraat", 
      "numOfAddr": 10, 
      "lonmax": 3.338972887566057, 
      "latmin": 51.243127619853745
    }, 
    {
      "latmax": 51.24623794245472, 
      "name": "Kasteelstraat", 
      "lonmin": 3.3392972667530456, 
      "sanName": "kasteelstraat", 
      "numOfAddr": 87, 
      "lonmax": 3.3481824003422274, 
      "latmin": 51.24478280626783
    }, 
    {
      "latmax": 51.251041287732804, 
      "name": "Kattestraat", 
      "lonmin": 3.280957079219663, 
      "sanName": "kattestraat", 
      "numOfAddr": 2, 
      "lonmax": 3.281068546697533, 
      "latmin": 51.25073543829385
    }, 
    {
      "latmax": 51.205023046130016, 
      "name": "Kerkakker", 
      "lonmin": 3.3229032326352304, 
      "sanName": "kerkakker", 
      "numOfAddr": 48, 
      "lonmax": 3.324681688639764, 
      "latmin": 51.20366342860971
    }, 
    {
      "latmax": 51.25210094413962, 
      "name": "Kerkstraat", 
      "lonmin": 3.2804333247074813, 
      "sanName": "kerkstraat", 
      "numOfAddr": 88, 
      "lonmax": 3.2867287837393424, 
      "latmin": 51.2434443740013
    }, 
    {
      "latmax": 51.20145720649534, 
      "name": "Kerkweg", 
      "lonmin": 3.309814486187317, 
      "sanName": "kerkweg", 
      "numOfAddr": 41, 
      "lonmax": 3.3206411776628477, 
      "latmin": 51.19897117997127
    }, 
    {
      "latmax": 51.25249137363464, 
      "name": "Ketelstraat", 
      "lonmin": 3.2820954006165213, 
      "sanName": "ketelstraat", 
      "numOfAddr": 10, 
      "lonmax": 3.282696861204141, 
      "latmin": 51.252017740089336
    }, 
    {
      "latmax": 51.2422934194652, 
      "name": "Kleverstraat", 
      "lonmin": 3.3506969700011764, 
      "sanName": "kleverstraat", 
      "numOfAddr": 3, 
      "lonmax": 3.368743580751339, 
      "latmin": 51.23878042186963
    }, 
    {
      "latmax": 51.20491993625784, 
      "name": "Kloosterstraat", 
      "lonmin": 3.3214817588234804, 
      "sanName": "kloosterstraat", 
      "numOfAddr": 49, 
      "lonmax": 3.3232035953527483, 
      "latmin": 51.20169836020283
    }, 
    {
      "latmax": 51.301301226440735, 
      "name": "Knoksebaan", 
      "lonmin": 3.2695910817767446, 
      "sanName": "knoksebaan", 
      "numOfAddr": 7, 
      "lonmax": 3.278356269838109, 
      "latmin": 51.295480094769395
    }, 
    {
      "latmax": 51.24309178789343, 
      "name": "Konduitput", 
      "lonmin": 3.3145444172656586, 
      "sanName": "konduitput", 
      "numOfAddr": 5, 
      "lonmax": 3.325887555497334, 
      "latmin": 51.24203249193837
    }, 
    {
      "latmax": 51.28286253452083, 
      "name": "Koolkerkesteenweg", 
      "lonmin": 3.2480723197381844, 
      "sanName": "koolkerkesteenweg", 
      "numOfAddr": 47, 
      "lonmax": 3.2880894689664304, 
      "latmin": 51.24953620097977
    }, 
    {
      "latmax": 51.20627058763253, 
      "name": "Kouterbilk", 
      "lonmin": 3.3247664736048277, 
      "sanName": "kouterbilk", 
      "numOfAddr": 7, 
      "lonmax": 3.3260339831534735, 
      "latmin": 51.20585346383628
    }, 
    {
      "latmax": 51.29951492292014, 
      "name": "Krakeelboomgaard", 
      "lonmin": 3.28747094059361, 
      "sanName": "krakeelboomgaard", 
      "numOfAddr": 2, 
      "lonmax": 3.2914047120639545, 
      "latmin": 51.29705314103682
    }, 
    {
      "latmax": 51.289851453658436, 
      "name": "Krinkeldijk", 
      "lonmin": 3.3040877935228776, 
      "sanName": "krinkeldijk", 
      "numOfAddr": 6, 
      "lonmax": 3.3239366560521604, 
      "latmin": 51.27655687803438
    }, 
    {
      "latmax": 51.201497526498464, 
      "name": "Kruisstraat", 
      "lonmin": 3.3169329469549744, 
      "sanName": "kruisstraat", 
      "numOfAddr": 23, 
      "lonmax": 3.3201899109474873, 
      "latmin": 51.20084317203232
    }, 
    {
      "latmax": 51.27770420662205, 
      "name": "Kwabettestraat", 
      "lonmin": 3.358340797140031, 
      "sanName": "kwabettestraat", 
      "numOfAddr": 15, 
      "lonmax": 3.3614556889768252, 
      "latmin": 51.27451680193644
    }, 
    {
      "latmax": 51.25399451290718, 
      "name": "Lambrecht Bovijnstraat", 
      "lonmin": 3.3798911266103127, 
      "sanName": "lambrechtbovijnstraat", 
      "numOfAddr": 26, 
      "lonmax": 3.3815752767632072, 
      "latmin": 51.25230961602623
    }, 
    {
      "latmax": 51.20301641074763, 
      "name": "Lampernisse", 
      "lonmin": 3.3560690937367696, 
      "sanName": "lampernisse", 
      "numOfAddr": 2, 
      "lonmax": 3.3567933109684556, 
      "latmin": 51.20036664154714
    }, 
    {
      "latmax": 51.28272375999682, 
      "name": "Landsdijk", 
      "lonmin": 3.330984842722713, 
      "sanName": "landsdijk", 
      "numOfAddr": 4, 
      "lonmax": 3.3321277044257207, 
      "latmin": 51.28041811821261
    }, 
    {
      "latmax": 51.28529005444489, 
      "name": "Lapscheurestraat", 
      "lonmin": 3.3462947761545134, 
      "sanName": "lapscheurestraat", 
      "numOfAddr": 22, 
      "lonmax": 3.3570953130068997, 
      "latmin": 51.27752062802876
    }, 
    {
      "latmax": 51.207121160915655, 
      "name": "Leenstraat", 
      "lonmin": 3.311624751163663, 
      "sanName": "leenstraat", 
      "numOfAddr": 22, 
      "lonmax": 3.313551410656403, 
      "latmin": 51.20587771046506
    }, 
    {
      "latmax": 51.241700869927826, 
      "name": "Leestjesstraat", 
      "lonmin": 3.3708317065974316, 
      "sanName": "leestjesstraat", 
      "numOfAddr": 16, 
      "lonmax": 3.3935195693024345, 
      "latmin": 51.23470703902433
    }, 
    {
      "latmax": 51.2438169553815, 
      "name": "Legeweg", 
      "lonmin": 3.278428722023696, 
      "sanName": "legeweg", 
      "numOfAddr": 51, 
      "lonmax": 3.3395652461335836, 
      "latmin": 51.2276263331501
    }, 
    {
      "latmax": 51.290247463884846, 
      "name": "Leopoldsvaart-Noord", 
      "lonmin": 3.270074015879886, 
      "sanName": "leopoldsvaartnoord", 
      "numOfAddr": 2, 
      "lonmax": 3.2714649943101306, 
      "latmin": 51.28917511612928
    }, 
    {
      "latmax": 51.24616086148868, 
      "name": "Leopoldsvaart-Oost", 
      "lonmin": 3.356712651636665, 
      "sanName": "leopoldsvaartoost", 
      "numOfAddr": 3, 
      "lonmax": 3.3795884644249186, 
      "latmin": 51.2422934194652
    }, 
    {
      "latmax": 51.242629977943, 
      "name": "Lieveberm", 
      "lonmin": 3.3361267564239343, 
      "sanName": "lieveberm", 
      "numOfAddr": 45, 
      "lonmax": 3.355777988730856, 
      "latmin": 51.24003436002025
    }, 
    {
      "latmax": 51.20255790121581, 
      "name": "Lindeplein", 
      "lonmin": 3.3218600363993946, 
      "sanName": "lindeplein", 
      "numOfAddr": 1, 
      "lonmax": 3.3218600363993946, 
      "latmin": 51.20255790121581
    }, 
    {
      "latmax": 51.205752088753066, 
      "name": "Loskaaistraat", 
      "lonmin": 3.316757663949358, 
      "sanName": "loskaaistraat", 
      "numOfAddr": 33, 
      "lonmax": 3.3187718548107568, 
      "latmin": 51.20509273304265
    }, 
    {
      "latmax": 51.25020733949665, 
      "name": "Maleise Weg", 
      "lonmin": 3.378421164323372, 
      "sanName": "maleiseweg", 
      "numOfAddr": 7, 
      "lonmax": 3.3828214364226796, 
      "latmin": 51.24414757822273
    }, 
    {
      "latmax": 51.22910735550829, 
      "name": "Malelei", 
      "lonmin": 3.2934718187509686, 
      "sanName": "malelei", 
      "numOfAddr": 2, 
      "lonmax": 3.293863721288375, 
      "latmin": 51.22810537298866
    }, 
    {
      "latmax": 51.21825841780419, 
      "name": "Margriet Diericxstraat", 
      "lonmin": 3.309343807132005, 
      "sanName": "margrietdiericxstraat", 
      "numOfAddr": 24, 
      "lonmax": 3.3127263962705076, 
      "latmin": 51.216051720388535
    }, 
    {
      "latmax": 51.25165168512106, 
      "name": "Markt", 
      "lonmin": 3.281688155180723, 
      "sanName": "markt", 
      "numOfAddr": 1, 
      "lonmax": 3.281688155180723, 
      "latmin": 51.25165168512106
    }, 
    {
      "latmax": 51.24767796754427, 
      "name": "Markvlietstraat", 
      "lonmin": 3.3450898727293996, 
      "sanName": "markvlietstraat", 
      "numOfAddr": 4, 
      "lonmax": 3.345873575068545, 
      "latmin": 51.24705566450955
    }, 
    {
      "latmax": 51.26878979699099, 
      "name": "Marquettepolderstraat", 
      "lonmin": 3.3633277792527636, 
      "sanName": "marquettepolderstraat", 
      "numOfAddr": 1, 
      "lonmax": 3.3633277792527636, 
      "latmin": 51.26878979699099
    }, 
    {
      "latmax": 51.2483595461899, 
      "name": "Masschersheule", 
      "lonmin": 3.314846971100884, 
      "sanName": "masschersheule", 
      "numOfAddr": 2, 
      "lonmax": 3.3174477206087176, 
      "latmin": 51.248135602526176
    }, 
    {
      "latmax": 51.24129241322429, 
      "name": "Maurice Van Dammestraat", 
      "lonmin": 3.343453266169313, 
      "sanName": "mauricevandammestraat", 
      "numOfAddr": 4, 
      "lonmax": 3.344174930910518, 
      "latmin": 51.241263892559594
    }, 
    {
      "latmax": 51.20026398431169, 
      "name": "Meibosweg", 
      "lonmin": 3.317938448182671, 
      "sanName": "meibosweg", 
      "numOfAddr": 5, 
      "lonmax": 3.320853524434654, 
      "latmin": 51.196369274273465
    }, 
    {
      "latmax": 51.241422805384985, 
      "name": "Melkerijstraat", 
      "lonmin": 3.339618319374218, 
      "sanName": "melkerijstraat", 
      "numOfAddr": 8, 
      "lonmax": 3.340190967989414, 
      "latmin": 51.24101123085854
    }, 
    {
      "latmax": 51.24542068547403, 
      "name": "Middelburgsesteenweg", 
      "lonmin": 3.3404265247017424, 
      "sanName": "middelburgsesteenweg", 
      "numOfAddr": 67, 
      "lonmax": 3.353759104292762, 
      "latmin": 51.2428681786883
    }, 
    {
      "latmax": 51.25279720201629, 
      "name": "Mikhemstraat", 
      "lonmin": 3.255784721155248, 
      "sanName": "mikhemstraat", 
      "numOfAddr": 4, 
      "lonmax": 3.2590565830329385, 
      "latmin": 51.25140946578072
    }, 
    {
      "latmax": 51.24331539051156, 
      "name": "Moerkerkebrug", 
      "lonmin": 3.3449054519410644, 
      "sanName": "moerkerkebrug", 
      "numOfAddr": 24, 
      "lonmax": 3.3485974604508577, 
      "latmin": 51.238139945904365
    }, 
    {
      "latmax": 51.23168091077122, 
      "name": "Moerkerkesteenweg", 
      "lonmin": 3.284810861851952, 
      "sanName": "moerkerkesteenweg", 
      "numOfAddr": 50, 
      "lonmax": 3.3042285925577985, 
      "latmin": 51.224867716228395
    }, 
    {
      "latmax": 51.207513145991804, 
      "name": "Molenstraat", 
      "lonmin": 3.3231815751271596, 
      "sanName": "molenstraat", 
      "numOfAddr": 79, 
      "lonmax": 3.33117998287868, 
      "latmin": 51.202005950399965
    }, 
    {
      "latmax": 51.27091469801784, 
      "name": "Molentje", 
      "lonmin": 3.3372185810968817, 
      "sanName": "molentje", 
      "numOfAddr": 17, 
      "lonmax": 3.3452103275349367, 
      "latmin": 51.251668068963575
    }, 
    {
      "latmax": 51.278362663505646, 
      "name": "Monnikeredestraat", 
      "lonmin": 3.2969006793288393, 
      "sanName": "monnikeredestraat", 
      "numOfAddr": 20, 
      "lonmax": 3.3034210713625707, 
      "latmin": 51.27308919983561
    }, 
    {
      "latmax": 51.30678120464154, 
      "name": "Nati\u0089nlaan", 
      "lonmin": 3.32683536032443, 
      "sanName": "natinlaan", 
      "numOfAddr": 37, 
      "lonmax": 3.3976389866696164, 
      "latmin": 51.243937826228205
    }, 
    {
      "latmax": 51.24845096408473, 
      "name": "Nieuwdorpstraat", 
      "lonmin": 3.343667178531484, 
      "sanName": "nieuwdorpstraat", 
      "numOfAddr": 51, 
      "lonmax": 3.345436208925658, 
      "latmin": 51.243920091103675
    }, 
    {
      "latmax": 51.20749040675585, 
      "name": "Nieuwe Weg", 
      "lonmin": 3.323509774566597, 
      "sanName": "nieuweweg", 
      "numOfAddr": 39, 
      "lonmax": 3.3258651388641383, 
      "latmin": 51.20295489837781
    }, 
    {
      "latmax": 51.23493363967935, 
      "name": "Nieuwstraat", 
      "lonmin": 3.3417234829881055, 
      "sanName": "nieuwstraat", 
      "numOfAddr": 7, 
      "lonmax": 3.3455899894682553, 
      "latmin": 51.22325900978767
    }, 
    {
      "latmax": 51.26679845117379, 
      "name": "Nonnendijk", 
      "lonmin": 3.381082406932639, 
      "sanName": "nonnendijk", 
      "numOfAddr": 2, 
      "lonmax": 3.3830198206106465, 
      "latmin": 51.26616657405727
    }, 
    {
      "latmax": 51.22086534420439, 
      "name": "Noordermeers", 
      "lonmin": 3.3443693096992866, 
      "sanName": "noordermeers", 
      "numOfAddr": 16, 
      "lonmax": 3.349023973705392, 
      "latmin": 51.210892798810754
    }, 
    {
      "latmax": 51.20469248859552, 
      "name": "Noordstraat", 
      "lonmin": 3.3208421049933334, 
      "sanName": "noordstraat", 
      "numOfAddr": 10, 
      "lonmax": 3.3216393963308404, 
      "latmin": 51.204031149625685
    }, 
    {
      "latmax": 51.201322864835966, 
      "name": "Oedelemse Steenweg", 
      "lonmin": 3.3261729418472847, 
      "sanName": "oedelemsesteenweg", 
      "numOfAddr": 94, 
      "lonmax": 3.3308295461108197, 
      "latmin": 51.194547318170244
    }, 
    {
      "latmax": 51.29378119837628, 
      "name": "Oostkerkestraat", 
      "lonmin": 3.3255419236731765, 
      "sanName": "oostkerkestraat", 
      "numOfAddr": 5, 
      "lonmax": 3.3310133877713324, 
      "latmin": 51.29292927611206
    }, 
    {
      "latmax": 51.23546147560635, 
      "name": "Oude Damse Weg", 
      "lonmin": 3.2939155240758593, 
      "sanName": "oudedamseweg", 
      "numOfAddr": 10, 
      "lonmax": 3.2993708392667185, 
      "latmin": 51.22900700724978
    }, 
    {
      "latmax": 51.20509381752858, 
      "name": "Oude Dosweg", 
      "lonmin": 3.298443669224489, 
      "sanName": "oudedosweg", 
      "numOfAddr": 5, 
      "lonmax": 3.3020027595233103, 
      "latmin": 51.19976627076992
    }, 
    {
      "latmax": 51.20861148056643, 
      "name": "Oude Molendreef", 
      "lonmin": 3.307774842941994, 
      "sanName": "oudemolendreef", 
      "numOfAddr": 6, 
      "lonmax": 3.309911123411678, 
      "latmin": 51.206072078689665
    }, 
    {
      "latmax": 51.24548904473389, 
      "name": "Oude Pastoriestraat", 
      "lonmin": 3.335023206786401, 
      "sanName": "oudepastoriestraat", 
      "numOfAddr": 22, 
      "lonmax": 3.3387625426367027, 
      "latmin": 51.24427841517921
    }, 
    {
      "latmax": 51.30505885718559, 
      "name": "Oude Sabtsweg", 
      "lonmin": 3.3146566182389017, 
      "sanName": "oudesabtsweg", 
      "numOfAddr": 2, 
      "lonmax": 3.3257631972658834, 
      "latmin": 51.298872356470895
    }, 
    {
      "latmax": 51.261769960299496, 
      "name": "Oude Sluissedijk", 
      "lonmin": 3.284573592328542, 
      "sanName": "oudesluissedijk", 
      "numOfAddr": 45, 
      "lonmax": 3.3199321041040286, 
      "latmin": 51.247711430330284
    }, 
    {
      "latmax": 51.29276982556449, 
      "name": "Oude Westkapellestraat", 
      "lonmin": 3.3358469095494563, 
      "sanName": "oudewestkapellestraat", 
      "numOfAddr": 7, 
      "lonmax": 3.3403565550665, 
      "latmin": 51.28888945564937
    }, 
    {
      "latmax": 51.25381670572273, 
      "name": "Paalweg", 
      "lonmin": 3.3343694628928375, 
      "sanName": "paalweg", 
      "numOfAddr": 1, 
      "lonmax": 3.3343694628928375, 
      "latmin": 51.25381670572273
    }, 
    {
      "latmax": 51.28140324315326, 
      "name": "Pannepolderstraat", 
      "lonmin": 3.3600356084799587, 
      "sanName": "pannepolderstraat", 
      "numOfAddr": 6, 
      "lonmax": 3.365399506490692, 
      "latmin": 51.278794522619904
    }, 
    {
      "latmax": 51.204585974096354, 
      "name": "Pardostraat", 
      "lonmin": 3.3158254805381695, 
      "sanName": "pardostraat", 
      "numOfAddr": 13, 
      "lonmax": 3.319153212405257, 
      "latmin": 51.20329494684185
    }, 
    {
      "latmax": 51.276276095461604, 
      "name": "Pereboomstraat", 
      "lonmin": 3.2699312921922905, 
      "sanName": "pereboomstraat", 
      "numOfAddr": 3, 
      "lonmax": 3.2722616420147173, 
      "latmin": 51.26934468069643
    }, 
    {
      "latmax": 51.23748649484084, 
      "name": "Pijpeweg", 
      "lonmin": 3.2824888453163483, 
      "sanName": "pijpeweg", 
      "numOfAddr": 3, 
      "lonmax": 3.2864062320399476, 
      "latmin": 51.23162964523633
    }, 
    {
      "latmax": 51.246474586577456, 
      "name": "Polderstraat", 
      "lonmin": 3.2710758203163883, 
      "sanName": "polderstraat", 
      "numOfAddr": 6, 
      "lonmax": 3.2838426689920586, 
      "latmin": 51.237313567477855
    }, 
    {
      "latmax": 51.269723901622, 
      "name": "Pompestraat", 
      "lonmin": 3.2634382574111096, 
      "sanName": "pompestraat", 
      "numOfAddr": 8, 
      "lonmax": 3.2824859553557206, 
      "latmin": 51.256227233810094
    }, 
    {
      "latmax": 51.251146755252606, 
      "name": "Pottenbakkersstraat", 
      "lonmin": 3.2821751774464802, 
      "sanName": "pottenbakkersstraat", 
      "numOfAddr": 14, 
      "lonmax": 3.283464797731345, 
      "latmin": 51.25072370221065
    }, 
    {
      "latmax": 51.26912346377192, 
      "name": "Preekboomstraat", 
      "lonmin": 3.342752196532597, 
      "sanName": "preekboomstraat", 
      "numOfAddr": 6, 
      "lonmax": 3.369787865671865, 
      "latmin": 51.26051390345364
    }, 
    {
      "latmax": 51.27838466470232, 
      "name": "Processieweg", 
      "lonmin": 3.294672065717515, 
      "sanName": "processieweg", 
      "numOfAddr": 9, 
      "lonmax": 3.296671072360841, 
      "latmin": 51.27752053953154
    }, 
    {
      "latmax": 51.25102750134039, 
      "name": "Rabattestraat", 
      "lonmin": 3.2902813858834463, 
      "sanName": "rabattestraat", 
      "numOfAddr": 10, 
      "lonmax": 3.2941535154391803, 
      "latmin": 51.249135782489546
    }, 
    {
      "latmax": 51.27316864382493, 
      "name": "Respaigneleendreef", 
      "lonmin": 3.3691929984059867, 
      "sanName": "respaigneleendreef", 
      "numOfAddr": 1, 
      "lonmax": 3.3691929984059867, 
      "latmin": 51.27316864382493
    }, 
    {
      "latmax": 51.20221912032225, 
      "name": "Rijckeveldestraat", 
      "lonmin": 3.292609859815194, 
      "sanName": "rijckeveldestraat", 
      "numOfAddr": 8, 
      "lonmax": 3.3076475926087374, 
      "latmin": 51.19545854744662
    }, 
    {
      "latmax": 51.30212152422482, 
      "name": "Roden-Ossestraat", 
      "lonmin": 3.3356563745662067, 
      "sanName": "rodenossestraat", 
      "numOfAddr": 2, 
      "lonmax": 3.3485344036861946, 
      "latmin": 51.30074495591826
    }, 
    {
      "latmax": 51.26414640847349, 
      "name": "Romboutswervedijk", 
      "lonmin": 3.2823864312504907, 
      "sanName": "romboutswervedijk", 
      "numOfAddr": 4, 
      "lonmax": 3.2866971166471695, 
      "latmin": 51.256036209710075
    }, 
    {
      "latmax": 51.273083509431615, 
      "name": "Rondsaartstraat", 
      "lonmin": 3.262245636633659, 
      "sanName": "rondsaartstraat", 
      "numOfAddr": 2, 
      "lonmax": 3.266703146484097, 
      "latmin": 51.26866663426615
    }, 
    {
      "latmax": 51.206549896549575, 
      "name": "Rostuinestraat", 
      "lonmin": 3.3430678296443928, 
      "sanName": "rostuinestraat", 
      "numOfAddr": 5, 
      "lonmax": 3.345901891351979, 
      "latmin": 51.20357651214262
    }, 
    {
      "latmax": 51.21433112710091, 
      "name": "Rozendalestraat", 
      "lonmin": 3.3157566951212387, 
      "sanName": "rozendalestraat", 
      "numOfAddr": 12, 
      "lonmax": 3.317700692096142, 
      "latmin": 51.21338356204914
    }, 
    {
      "latmax": 51.249175880218694, 
      "name": "Ruischer", 
      "lonmin": 3.375860733608653, 
      "sanName": "ruischer", 
      "numOfAddr": 3, 
      "lonmax": 3.3771624056378333, 
      "latmin": 51.247210268636664
    }, 
    {
      "latmax": 51.296154105820754, 
      "name": "Sabtsweg", 
      "lonmin": 3.2896468972596375, 
      "sanName": "sabtsweg", 
      "numOfAddr": 5, 
      "lonmax": 3.315122851224443, 
      "latmin": 51.28245163601552
    }, 
    {
      "latmax": 51.23494374410925, 
      "name": "Sareptastraat", 
      "lonmin": 3.348764605192894, 
      "sanName": "sareptastraat", 
      "numOfAddr": 12, 
      "lonmax": 3.3625187334587054, 
      "latmin": 51.22324650135859
    }, 
    {
      "latmax": 51.20095146673536, 
      "name": "Schardauwstraat", 
      "lonmin": 3.3374782312742757, 
      "sanName": "schardauwstraat", 
      "numOfAddr": 10, 
      "lonmax": 3.34347927874862, 
      "latmin": 51.19494313409658
    }, 
    {
      "latmax": 51.23829227994087, 
      "name": "Scheewege", 
      "lonmin": 3.349037893203286, 
      "sanName": "scheewege", 
      "numOfAddr": 51, 
      "lonmax": 3.3721012419121577, 
      "latmin": 51.230505841801204
    }, 
    {
      "latmax": 51.279448931197315, 
      "name": "Schipdonkvaart-West", 
      "lonmin": 3.273867502099227, 
      "sanName": "schipdonkvaartwest", 
      "numOfAddr": 2, 
      "lonmax": 3.2809866209433984, 
      "latmin": 51.27619473663036
    }, 
    {
      "latmax": 51.258877273891244, 
      "name": "Schipdonkvaart-Zuid", 
      "lonmin": 3.3130067341050684, 
      "sanName": "schipdonkvaartzuid", 
      "numOfAddr": 4, 
      "lonmax": 3.347160262349639, 
      "latmin": 51.24753073738404
    }, 
    {
      "latmax": 51.254691592242345, 
      "name": "Schoeperstraat", 
      "lonmin": 3.369270256704885, 
      "sanName": "schoeperstraat", 
      "numOfAddr": 20, 
      "lonmax": 3.371882940297078, 
      "latmin": 51.24881357095682
    }, 
    {
      "latmax": 51.243859829079575, 
      "name": "Schrammolenstraat", 
      "lonmin": 3.3377966657458575, 
      "sanName": "schrammolenstraat", 
      "numOfAddr": 6, 
      "lonmax": 3.3387914996029093, 
      "latmin": 51.24370405853071
    }, 
    {
      "latmax": 51.248809537353424, 
      "name": "'s Heer Heynsweg", 
      "lonmin": 3.327516146386071, 
      "sanName": "sheerheynsweg", 
      "numOfAddr": 3, 
      "lonmax": 3.3317066615913795, 
      "latmin": 51.2434531765853
    }, 
    {
      "latmax": 51.26654614041943, 
      "name": "Sifon", 
      "lonmin": 3.2958085762718596, 
      "sanName": "sifon", 
      "numOfAddr": 1, 
      "lonmax": 3.2958085762718596, 
      "latmin": 51.26654614041943
    }, 
    {
      "latmax": 51.230684667981485, 
      "name": "Sijseelsesteenweg", 
      "lonmin": 3.3059828689135555, 
      "sanName": "sijseelsesteenweg", 
      "numOfAddr": 20, 
      "lonmax": 3.3119751840283724, 
      "latmin": 51.222710524353054
    }, 
    {
      "latmax": 51.25124552286758, 
      "name": "Sint-Janstraat", 
      "lonmin": 3.280188290736764, 
      "sanName": "sintjanstraat", 
      "numOfAddr": 3, 
      "lonmax": 3.280300476230153, 
      "latmin": 51.25077577104279
    }, 
    {
      "latmax": 51.26906211917286, 
      "name": "Sint-Jobstraat", 
      "lonmin": 3.340702359141393, 
      "sanName": "sintjobstraat", 
      "numOfAddr": 3, 
      "lonmax": 3.345947827415562, 
      "latmin": 51.26745655962214
    }, 
    {
      "latmax": 51.2724981909929, 
      "name": "Sint-Pietersdijk", 
      "lonmin": 3.3205694238656087, 
      "sanName": "sintpietersdijk", 
      "numOfAddr": 12, 
      "lonmax": 3.3602683321506133, 
      "latmin": 51.25961241431022
    }, 
    {
      "latmax": 51.24475313665288, 
      "name": "Slagveldstraat", 
      "lonmin": 3.3361940489287116, 
      "sanName": "slagveldstraat", 
      "numOfAddr": 7, 
      "lonmax": 3.3371605684891774, 
      "latmin": 51.24412536891333
    }, 
    {
      "latmax": 51.25439669951763, 
      "name": "Slekstraat", 
      "lonmin": 3.2808352158249554, 
      "sanName": "slekstraat", 
      "numOfAddr": 22, 
      "lonmax": 3.2837626000391285, 
      "latmin": 51.252059961999265
    }, 
    {
      "latmax": 51.236058082046746, 
      "name": "Sloverhoek", 
      "lonmin": 3.346455105281767, 
      "sanName": "sloverhoek", 
      "numOfAddr": 12, 
      "lonmax": 3.3576218282218884, 
      "latmin": 51.233512873797
    }, 
    {
      "latmax": 51.25544277070761, 
      "name": "Smokkelhoek", 
      "lonmin": 3.3819909712854486, 
      "sanName": "smokkelhoek", 
      "numOfAddr": 24, 
      "lonmax": 3.383822277926125, 
      "latmin": 51.25421005516224
    }, 
    {
      "latmax": 51.204835127809545, 
      "name": "Spaarstraat", 
      "lonmin": 3.3307279440047846, 
      "sanName": "spaarstraat", 
      "numOfAddr": 1, 
      "lonmax": 3.3307279440047846, 
      "latmin": 51.204835127809545
    }, 
    {
      "latmax": 51.27535805869786, 
      "name": "Spegelsweg", 
      "lonmin": 3.2935329173743932, 
      "sanName": "spegelsweg", 
      "numOfAddr": 2, 
      "lonmax": 3.2981454752326758, 
      "latmin": 51.268373210615565
    }, 
    {
      "latmax": 51.22024234964428, 
      "name": "Spermalieweg", 
      "lonmin": 3.3160277764082453, 
      "sanName": "spermalieweg", 
      "numOfAddr": 38, 
      "lonmax": 3.3281560621786195, 
      "latmin": 51.211611710435676
    }, 
    {
      "latmax": 51.252281862869594, 
      "name": "Speystraat", 
      "lonmin": 3.2781174576595355, 
      "sanName": "speystraat", 
      "numOfAddr": 27, 
      "lonmax": 3.2820817420612, 
      "latmin": 51.24994745582614
    }, 
    {
      "latmax": 51.20604586907344, 
      "name": "Splithage", 
      "lonmin": 3.313811957456688, 
      "sanName": "splithage", 
      "numOfAddr": 21, 
      "lonmax": 3.316706625945361, 
      "latmin": 51.20505793471771
    }, 
    {
      "latmax": 51.247330925968484, 
      "name": "Sportstraat", 
      "lonmin": 3.3397509728609074, 
      "sanName": "sportstraat", 
      "numOfAddr": 24, 
      "lonmax": 3.342042495600539, 
      "latmin": 51.24679560592685
    }, 
    {
      "latmax": 51.20798283736471, 
      "name": "Stakendijke", 
      "lonmin": 3.3160112322069395, 
      "sanName": "stakendijke", 
      "numOfAddr": 25, 
      "lonmax": 3.3176842119115975, 
      "latmin": 51.205885304074684
    }, 
    {
      "latmax": 51.218587830387, 
      "name": "Stationsstraat", 
      "lonmin": 3.3127487644659803, 
      "sanName": "stationsstraat", 
      "numOfAddr": 203, 
      "lonmax": 3.3215148220991866, 
      "latmin": 51.20195080949118
    }, 
    {
      "latmax": 51.247421568835186, 
      "name": "St.-Dionisiusstraat", 
      "lonmin": 3.340227973316799, 
      "sanName": "stdionisiusstraat", 
      "numOfAddr": 33, 
      "lonmax": 3.344015916032801, 
      "latmin": 51.24607836329481
    }, 
    {
      "latmax": 51.24372848979493, 
      "name": "Stepstraat", 
      "lonmin": 3.3359614771379995, 
      "sanName": "stepstraat", 
      "numOfAddr": 5, 
      "lonmax": 3.3367958687282564, 
      "latmin": 51.24335019857411
    }, 
    {
      "latmax": 51.27887177549157, 
      "name": "St.-Guthagostraat", 
      "lonmin": 3.2952825397454846, 
      "sanName": "stguthagostraat", 
      "numOfAddr": 8, 
      "lonmax": 3.296191941330776, 
      "latmin": 51.27825033392666
    }, 
    {
      "latmax": 51.29286619126973, 
      "name": "St. Jacobsstraat", 
      "lonmin": 3.330217416473327, 
      "sanName": "stjacobsstraat", 
      "numOfAddr": 12, 
      "lonmax": 3.3346456345085906, 
      "latmin": 51.291190958767075
    }, 
    {
      "latmax": 51.27849440075348, 
      "name": "St.-Kwintensstraat", 
      "lonmin": 3.293836179049683, 
      "sanName": "stkwintensstraat", 
      "numOfAddr": 26, 
      "lonmax": 3.296544798880002, 
      "latmin": 51.276986160000575
    }, 
    {
      "latmax": 51.25537570129275, 
      "name": "St.-Lievenspad", 
      "lonmin": 3.3841662923468103, 
      "sanName": "stlievenspad", 
      "numOfAddr": 10, 
      "lonmax": 3.384700583319521, 
      "latmin": 51.25416535778937
    }, 
    {
      "latmax": 51.21312103521024, 
      "name": "St.-Maartensstraat", 
      "lonmin": 3.3790597865930905, 
      "sanName": "stmaartensstraat", 
      "numOfAddr": 1, 
      "lonmax": 3.3790597865930905, 
      "latmin": 51.21312103521024
    }, 
    {
      "latmax": 51.2136518368783, 
      "name": "Stoofweg", 
      "lonmin": 3.3542216313242834, 
      "sanName": "stoofweg", 
      "numOfAddr": 4, 
      "lonmax": 3.360118050904635, 
      "latmin": 51.21227436271331
    }, 
    {
      "latmax": 51.236567143279565, 
      "name": "Strijktiende", 
      "lonmin": 3.3639971863319076, 
      "sanName": "strijktiende", 
      "numOfAddr": 2, 
      "lonmax": 3.3656684122418854, 
      "latmin": 51.23564123355293
    }, 
    {
      "latmax": 51.25274879657402, 
      "name": "St-Ritastraat", 
      "lonmin": 3.3844155919230903, 
      "sanName": "stritastraat", 
      "numOfAddr": 5, 
      "lonmax": 3.3850388828478284, 
      "latmin": 51.25241277300391
    }, 
    {
      "latmax": 51.291204832207974, 
      "name": "Stropuitstraat", 
      "lonmin": 3.288530297558569, 
      "sanName": "stropuitstraat", 
      "numOfAddr": 2, 
      "lonmax": 3.289831498679805, 
      "latmin": 51.290365261928
    }, 
    {
      "latmax": 51.25584158202325, 
      "name": "Stuivenberge", 
      "lonmin": 3.385635620279946, 
      "sanName": "stuivenberge", 
      "numOfAddr": 8, 
      "lonmax": 3.386309190128263, 
      "latmin": 51.25462554975593
    }, 
    {
      "latmax": 51.239066734520165, 
      "name": "Tarwerentestraat", 
      "lonmin": 3.34572607959273, 
      "sanName": "tarwerentestraat", 
      "numOfAddr": 10, 
      "lonmax": 3.347135993950973, 
      "latmin": 51.23787778740806
    }, 
    {
      "latmax": 51.29951119222768, 
      "name": "Ten Doelestraat", 
      "lonmin": 3.2981194234802307, 
      "sanName": "tendoelestraat", 
      "numOfAddr": 2, 
      "lonmax": 3.302107546033477, 
      "latmin": 51.29771276206423
    }, 
    {
      "latmax": 51.207928640359384, 
      "name": "Timmermansstraat", 
      "lonmin": 3.3244870436185026, 
      "sanName": "timmermansstraat", 
      "numOfAddr": 29, 
      "lonmax": 3.3279802327726142, 
      "latmin": 51.20643024791848
    }, 
    {
      "latmax": 51.25335781053488, 
      "name": "Tramweg", 
      "lonmin": 3.384257730885657, 
      "sanName": "tramweg", 
      "numOfAddr": 11, 
      "lonmax": 3.3918303955225837, 
      "latmin": 51.25129566087959
    }, 
    {
      "latmax": 51.25846160972999, 
      "name": "Uudsdale", 
      "lonmin": 3.3492989829221234, 
      "sanName": "uudsdale", 
      "numOfAddr": 4, 
      "lonmax": 3.3542014730434957, 
      "latmin": 51.252507937854716
    }, 
    {
      "latmax": 51.21688929478742, 
      "name": "Valkeniersstraat", 
      "lonmin": 3.3102908722882955, 
      "sanName": "valkeniersstraat", 
      "numOfAddr": 10, 
      "lonmax": 3.3123739951360403, 
      "latmin": 51.21626812094381
    }, 
    {
      "latmax": 51.27195809119087, 
      "name": "Valslag", 
      "lonmin": 3.337422726006567, 
      "sanName": "valslag", 
      "numOfAddr": 1, 
      "lonmax": 3.337422726006567, 
      "latmin": 51.27195809119087
    }, 
    {
      "latmax": 51.19887996907322, 
      "name": "Vandenberghewegel", 
      "lonmin": 3.3325311548027394, 
      "sanName": "vandenberghewegel", 
      "numOfAddr": 6, 
      "lonmax": 3.339261523474636, 
      "latmin": 51.196123913859104
    }, 
    {
      "latmax": 51.24511887760664, 
      "name": "Van Praetstraat", 
      "lonmin": 3.3372220537238566, 
      "sanName": "vanpraetstraat", 
      "numOfAddr": 12, 
      "lonmax": 3.3380405499422015, 
      "latmin": 51.244268139287485
    }, 
    {
      "latmax": 51.20132573156667, 
      "name": "Veldhoekstraat", 
      "lonmin": 3.358901925800211, 
      "sanName": "veldhoekstraat", 
      "numOfAddr": 12, 
      "lonmax": 3.382967712386171, 
      "latmin": 51.19389501740735
    }, 
    {
      "latmax": 51.20958698647079, 
      "name": "Veldstraat", 
      "lonmin": 3.3050528317526293, 
      "sanName": "veldstraat", 
      "numOfAddr": 146, 
      "lonmax": 3.3314946242660266, 
      "latmin": 51.207636117743796
    }, 
    {
      "latmax": 51.27145021644022, 
      "name": "Versevaartdijk", 
      "lonmin": 3.274976661399202, 
      "sanName": "versevaartdijk", 
      "numOfAddr": 2, 
      "lonmax": 3.275904471222517, 
      "latmin": 51.2709399655058
    }, 
    {
      "latmax": 51.23052392756621, 
      "name": "Vierscharestraat", 
      "lonmin": 3.293276092361517, 
      "sanName": "vierscharestraat", 
      "numOfAddr": 66, 
      "lonmax": 3.3059291792123626, 
      "latmin": 51.225748669794484
    }, 
    {
      "latmax": 51.25041949943743, 
      "name": "Vissersstraat", 
      "lonmin": 3.3374999513487897, 
      "sanName": "vissersstraat", 
      "numOfAddr": 126, 
      "lonmax": 3.3428404106940897, 
      "latmin": 51.23828406907007
    }, 
    {
      "latmax": 51.22969476607976, 
      "name": "Vivenmolenstraat", 
      "lonmin": 3.300650131059578, 
      "sanName": "vivenmolenstraat", 
      "numOfAddr": 16, 
      "lonmax": 3.302975633143353, 
      "latmin": 51.22889334291528
    }, 
    {
      "latmax": 51.24090821933731, 
      "name": "Vivensteenweg", 
      "lonmin": 3.2897883312459197, 
      "sanName": "vivensteenweg", 
      "numOfAddr": 11, 
      "lonmax": 3.3052835364916926, 
      "latmin": 51.231499025992115
    }, 
    {
      "latmax": 51.28281190937916, 
      "name": "Vlienderhaag", 
      "lonmin": 3.316991571522321, 
      "sanName": "vlienderhaag", 
      "numOfAddr": 12, 
      "lonmax": 3.347767103884065, 
      "latmin": 51.266012289442706
    }, 
    {
      "latmax": 51.2044805353251, 
      "name": "Vossenberg", 
      "lonmin": 3.3027451771143754, 
      "sanName": "vossenberg", 
      "numOfAddr": 13, 
      "lonmax": 3.3049628415306476, 
      "latmin": 51.199442276120934
    }, 
    {
      "latmax": 51.20093096937742, 
      "name": "Vredesplein", 
      "lonmin": 3.3220383244561664, 
      "sanName": "vredesplein", 
      "numOfAddr": 1, 
      "lonmax": 3.3220383244561664, 
      "latmin": 51.20093096937742
    }, 
    {
      "latmax": 51.2778557553347, 
      "name": "Vredestraat", 
      "lonmin": 3.320478082519284, 
      "sanName": "vredestraat", 
      "numOfAddr": 24, 
      "lonmax": 3.3562258949338446, 
      "latmin": 51.26196103862973
    }, 
    {
      "latmax": 51.24946925590274, 
      "name": "Vriezeganzenstraat", 
      "lonmin": 3.2590827925778743, 
      "sanName": "vriezeganzenstraat", 
      "numOfAddr": 3, 
      "lonmax": 3.267050445844183, 
      "latmin": 51.24318375639989
    }, 
    {
      "latmax": 51.213605543057135, 
      "name": "Warandelaan", 
      "lonmin": 3.3089576495608295, 
      "sanName": "warandelaan", 
      "numOfAddr": 27, 
      "lonmax": 3.314097370416579, 
      "latmin": 51.2125794650934
    }, 
    {
      "latmax": 51.24158076537627, 
      "name": "Watergangstraat", 
      "lonmin": 3.3414523269294802, 
      "sanName": "watergangstraat", 
      "numOfAddr": 24, 
      "lonmax": 3.343264681211676, 
      "latmin": 51.240742946534965
    }, 
    {
      "latmax": 51.25275823259487, 
      "name": "Waterhoek", 
      "lonmin": 3.320884549730451, 
      "sanName": "waterhoek", 
      "numOfAddr": 7, 
      "lonmax": 3.33777745225323, 
      "latmin": 51.248729629010796
    }, 
    {
      "latmax": 51.249590922119175, 
      "name": "Waterpolder", 
      "lonmin": 3.3705734293141196, 
      "sanName": "waterpolder", 
      "numOfAddr": 28, 
      "lonmax": 3.3950003636927364, 
      "latmin": 51.24551943698644
    }, 
    {
      "latmax": 51.208685749815764, 
      "name": "Weidepenningstraat", 
      "lonmin": 3.30983710306606, 
      "sanName": "weidepenningstraat", 
      "numOfAddr": 26, 
      "lonmax": 3.312043942873791, 
      "latmin": 51.207605788958794
    }, 
    {
      "latmax": 51.28895239998255, 
      "name": "Westkapellesteenweg", 
      "lonmin": 3.288459811137269, 
      "sanName": "westkapellesteenweg", 
      "numOfAddr": 18, 
      "lonmax": 3.2926048693972194, 
      "latmin": 51.28282191565134
    }, 
    {
      "latmax": 51.238227784507366, 
      "name": "Weststraat", 
      "lonmin": 3.3087699676220113, 
      "sanName": "weststraat", 
      "numOfAddr": 81, 
      "lonmax": 3.3452166148381983, 
      "latmin": 51.22874431635454
    }, 
    {
      "latmax": 51.208918553537494, 
      "name": "Woestinestraat", 
      "lonmin": 3.312500769790425, 
      "sanName": "woestinestraat", 
      "numOfAddr": 34, 
      "lonmax": 3.3146206944599803, 
      "latmin": 51.20680864442327
    }, 
    {
      "latmax": 51.21740699464224, 
      "name": "Wouter van Sijselestraat", 
      "lonmin": 3.3144605126609794, 
      "sanName": "woutervansijselestraat", 
      "numOfAddr": 1, 
      "lonmax": 3.3144605126609794, 
      "latmin": 51.21740699464224
    }, 
    {
      "latmax": 51.29753846635266, 
      "name": "Zeedijk", 
      "lonmin": 3.364940405884897, 
      "sanName": "zeedijk", 
      "numOfAddr": 10, 
      "lonmax": 3.3723433692376408, 
      "latmin": 51.280643416594366
    }, 
    {
      "latmax": 51.19553665142123, 
      "name": "Zomerstraat-Oost", 
      "lonmin": 3.3304351652670943, 
      "sanName": "zomerstraatoost", 
      "numOfAddr": 22, 
      "lonmax": 3.3624398198427654, 
      "latmin": 51.19290875848346
    }, 
    {
      "latmax": 51.197970276394926, 
      "name": "Zomerstraat-West", 
      "lonmin": 3.30985604972348, 
      "sanName": "zomerstraatwest", 
      "numOfAddr": 4, 
      "lonmax": 3.3274003114672372, 
      "latmin": 51.19450328358636
    }, 
    {
      "latmax": 51.278201856030805, 
      "name": "Zuidbroekstraat", 
      "lonmin": 3.2871477266732376, 
      "sanName": "zuidbroekstraat", 
      "numOfAddr": 5, 
      "lonmax": 3.293473172930617, 
      "latmin": 51.27428912512823
    }, 
    {
      "latmax": 51.2564771821468, 
      "name": "Zuiddijk", 
      "lonmin": 3.297162575214694, 
      "sanName": "zuiddijk", 
      "numOfAddr": 19, 
      "lonmax": 3.321002938298293, 
      "latmin": 51.248135290619174
    }, 
    {
      "latmax": 51.20800567915614, 
      "name": "Zwaanstraat", 
      "lonmin": 3.330870174853296, 
      "sanName": "zwaanstraat", 
      "numOfAddr": 62, 
      "lonmax": 3.333226781339623, 
      "latmin": 51.202196264451345
    }, 
    {
      "latmax": 51.2086970472133, 
      "name": "Zwinstraat", 
      "lonmin": 3.308582912271502, 
      "sanName": "zwinstraat", 
      "numOfAddr": 71, 
      "lonmax": 3.316402053072576, 
      "latmin": 51.198091293577775
    }
  ]
}