{
  "streets": [
    {
      "latmax": 51.22271470071982, 
      "name": "17 Oktoberstraat", 
      "lonmin": 2.894015364190047, 
      "sanName": "17oktoberstraat", 
      "numOfAddr": 1, 
      "lonmax": 2.894015364190047, 
      "latmin": 51.22271470071982
    }, 
    {
      "latmax": 51.224074863213914, 
      "name": "3de en 23ste Linieregimentsplein", 
      "lonmin": 2.9221571624240235, 
      "sanName": "3deen23stelinieregimentsplein", 
      "numOfAddr": 3, 
      "lonmax": 2.9253409844666893, 
      "latmin": 51.22279670299909
    }, 
    {
      "latmax": 51.205836179622935, 
      "name": "Aalbessenlaan", 
      "lonmin": 2.909948457647923, 
      "sanName": "aalbessenlaan", 
      "numOfAddr": 14, 
      "lonmax": 2.911106777491367, 
      "latmin": 51.20472856455255
    }, 
    {
      "latmax": 51.21413620160282, 
      "name": "Aalscholverstraat", 
      "lonmin": 2.8955025817527047, 
      "sanName": "aalscholverstraat", 
      "numOfAddr": 7, 
      "lonmax": 2.8967722350812593, 
      "latmin": 51.21365678173093
    }, 
    {
      "latmax": 51.23053634429809, 
      "name": "Aartshertoginnestraat", 
      "lonmin": 2.916811757283538, 
      "sanName": "aartshertoginnestraat", 
      "numOfAddr": 41, 
      "lonmax": 2.9187563374387415, 
      "latmin": 51.22771575166984
    }, 
    {
      "latmax": 51.216879251942146, 
      "name": "Aartshertogstraat", 
      "lonmin": 2.883159345593624, 
      "sanName": "aartshertogstraat", 
      "numOfAddr": 78, 
      "lonmax": 2.887152124150776, 
      "latmin": 51.214981048938796
    }, 
    {
      "latmax": 51.21532228860213, 
      "name": "Acacialaan", 
      "lonmin": 2.8811864747034233, 
      "sanName": "acacialaan", 
      "numOfAddr": 41, 
      "lonmax": 2.8836075578470632, 
      "latmin": 51.2132153243696
    }, 
    {
      "latmax": 51.205494880072614, 
      "name": "Adelaarstraat", 
      "lonmin": 2.9283733032287476, 
      "sanName": "adelaarstraat", 
      "numOfAddr": 30, 
      "lonmax": 2.9295743949592428, 
      "latmin": 51.20432075635247
    }, 
    {
      "latmax": 51.23208365713918, 
      "name": "Adolf Buylstraat", 
      "lonmin": 2.9142912516050754, 
      "sanName": "adolfbuylstraat", 
      "numOfAddr": 61, 
      "lonmax": 2.9169620626926647, 
      "latmin": 51.23084695465429
    }, 
    {
      "latmax": 51.23354613796353, 
      "name": "Afrikalaan", 
      "lonmin": 2.9458774853900165, 
      "sanName": "afrikalaan", 
      "numOfAddr": 27, 
      "lonmax": 2.94751273270404, 
      "latmin": 51.23228658889398
    }, 
    {
      "latmax": 51.23022431179577, 
      "name": "Aim\u0082 Liebaertstraat", 
      "lonmin": 2.9413236775646747, 
      "sanName": "aimliebaertstraat", 
      "numOfAddr": 77, 
      "lonmax": 2.9457767614016417, 
      "latmin": 51.229113067698314
    }, 
    {
      "latmax": 51.213799128077966, 
      "name": "Akkerstraat", 
      "lonmin": 2.9426424522682044, 
      "sanName": "akkerstraat", 
      "numOfAddr": 3, 
      "lonmax": 2.9428627519603086, 
      "latmin": 51.21357865088366
    }, 
    {
      "latmax": 51.2073963774839, 
      "name": "Albatrosstraat", 
      "lonmin": 2.9306333399516076, 
      "sanName": "albatrosstraat", 
      "numOfAddr": 19, 
      "lonmax": 2.932008179526232, 
      "latmin": 51.205812350645694
    }, 
    {
      "latmax": 51.23518253320234, 
      "name": "Albert I-Promenade", 
      "lonmin": 2.907571013562579, 
      "sanName": "albertipromenade", 
      "numOfAddr": 73, 
      "lonmax": 2.920736512926991, 
      "latmin": 51.22865910213835
    }, 
    {
      "latmax": 51.217388834510594, 
      "name": "Albertushelling", 
      "lonmin": 2.8812643877516413, 
      "sanName": "albertushelling", 
      "numOfAddr": 3, 
      "lonmax": 2.8816871310144516, 
      "latmin": 51.21728428004983
    }, 
    {
      "latmax": 51.214172678178414, 
      "name": "Albrecht Rodenbachstraat", 
      "lonmin": 2.8762313129251194, 
      "sanName": "albrechtrodenbachstraat", 
      "numOfAddr": 25, 
      "lonmax": 2.8787869052255406, 
      "latmin": 51.21203179662502
    }, 
    {
      "latmax": 51.22682222921606, 
      "name": "Alfons Pieterslaan", 
      "lonmin": 2.9094566186401347, 
      "sanName": "alfonspieterslaan", 
      "numOfAddr": 114, 
      "lonmax": 2.916257252128611, 
      "latmin": 51.224579890804144
    }, 
    {
      "latmax": 51.208377125041, 
      "name": "Amandinestraat", 
      "lonmin": 2.9740359987879588, 
      "sanName": "amandinestraat", 
      "numOfAddr": 1, 
      "lonmax": 2.9740359987879588, 
      "latmin": 51.208377125041
    }, 
    {
      "latmax": 51.22608572864156, 
      "name": "Amsterdamstraat", 
      "lonmin": 2.912168023292638, 
      "sanName": "amsterdamstraat", 
      "numOfAddr": 74, 
      "lonmax": 2.9170328592103445, 
      "latmin": 51.22406727106637
    }, 
    {
      "latmax": 51.208827400468614, 
      "name": "Andr\u0082 Chocqueelstraat", 
      "lonmin": 2.874585880355008, 
      "sanName": "andrchocqueelstraat", 
      "numOfAddr": 13, 
      "lonmax": 2.8770527393518575, 
      "latmin": 51.208099350645675
    }, 
    {
      "latmax": 51.21616464242992, 
      "name": "Anjelierenlaan", 
      "lonmin": 2.8840644227814276, 
      "sanName": "anjelierenlaan", 
      "numOfAddr": 18, 
      "lonmax": 2.884653491098268, 
      "latmin": 51.21532492846885
    }, 
    {
      "latmax": 51.236198172763956, 
      "name": "Ankerstraat", 
      "lonmin": 2.937908678597719, 
      "sanName": "ankerstraat", 
      "numOfAddr": 13, 
      "lonmax": 2.9400991202485987, 
      "latmin": 51.227402922731514
    }, 
    {
      "latmax": 51.20960200969038, 
      "name": "Annemie Brackxstraat", 
      "lonmin": 2.978483621086978, 
      "sanName": "annemiebrackxstraat", 
      "numOfAddr": 6, 
      "lonmax": 2.9804838688904316, 
      "latmin": 51.20847008867861
    }, 
    {
      "latmax": 51.231969152377694, 
      "name": "Antoon Belpairestraat", 
      "lonmin": 2.9138426762727416, 
      "sanName": "antoonbelpairestraat", 
      "numOfAddr": 4, 
      "lonmax": 2.914022514496689, 
      "latmin": 51.23189662009625
    }, 
    {
      "latmax": 51.236807825571134, 
      "name": "Antoon Moucqu\u0082straat", 
      "lonmin": 2.940821806727264, 
      "sanName": "antoonmoucqustraat", 
      "numOfAddr": 4, 
      "lonmax": 2.9414104572420525, 
      "latmin": 51.23663692554177
    }, 
    {
      "latmax": 51.225508455780314, 
      "name": "Antwerpenstraat", 
      "lonmin": 2.912642266094271, 
      "sanName": "antwerpenstraat", 
      "numOfAddr": 18, 
      "lonmax": 2.9132255906824307, 
      "latmin": 51.224658698524614
    }, 
    {
      "latmax": 51.212718795746675, 
      "name": "Archimedesstraat", 
      "lonmin": 2.937890492202113, 
      "sanName": "archimedesstraat", 
      "numOfAddr": 16, 
      "lonmax": 2.9454730526096746, 
      "latmin": 51.210287471880406
    }, 
    {
      "latmax": 51.20850110252018, 
      "name": "Arendstraat", 
      "lonmin": 2.932731847842574, 
      "sanName": "arendstraat", 
      "numOfAddr": 15, 
      "lonmax": 2.93393104842109, 
      "latmin": 51.2079320939241
    }, 
    {
      "latmax": 51.21352050308756, 
      "name": "Arthur Vanhouttelaan", 
      "lonmin": 2.8849243200883112, 
      "sanName": "arthurvanhouttelaan", 
      "numOfAddr": 17, 
      "lonmax": 2.887365225831098, 
      "latmin": 51.21268238943282
    }, 
    {
      "latmax": 51.20960994686453, 
      "name": "Assisi\u0089laan", 
      "lonmin": 2.8877822280748795, 
      "sanName": "assisilaan", 
      "numOfAddr": 4, 
      "lonmax": 2.8895716196862633, 
      "latmin": 51.208838345615
    }, 
    {
      "latmax": 51.21232065398819, 
      "name": "Asterlaan", 
      "lonmin": 2.8799608537901706, 
      "sanName": "asterlaan", 
      "numOfAddr": 2, 
      "lonmax": 2.88001912743106, 
      "latmin": 51.21208797259975
    }, 
    {
      "latmax": 51.21324805168817, 
      "name": "August Beernaertstraat", 
      "lonmin": 2.9336369668420796, 
      "sanName": "augustbeernaertstraat", 
      "numOfAddr": 27, 
      "lonmax": 2.934698458719092, 
      "latmin": 51.21275171497494
    }, 
    {
      "latmax": 51.230124399641475, 
      "name": "August Strack\u0082straat", 
      "lonmin": 2.921456213938989, 
      "sanName": "auguststrackstraat", 
      "numOfAddr": 3, 
      "lonmax": 2.9217075728767106, 
      "latmin": 51.23004200093958
    }, 
    {
      "latmax": 51.217617797930146, 
      "name": "August Vermeylenstraat", 
      "lonmin": 2.926914480981499, 
      "sanName": "augustvermeylenstraat", 
      "numOfAddr": 96, 
      "lonmax": 2.934125258963317, 
      "latmin": 51.21675442989263
    }, 
    {
      "latmax": 51.21314271360265, 
      "name": "Azalealaan", 
      "lonmin": 2.929593952714558, 
      "sanName": "azalealaan", 
      "numOfAddr": 19, 
      "lonmax": 2.9307328671097905, 
      "latmin": 51.21269397454863
    }, 
    {
      "latmax": 51.238125347944184, 
      "name": "Bakboordstraat", 
      "lonmin": 2.9434387363198335, 
      "sanName": "bakboordstraat", 
      "numOfAddr": 20, 
      "lonmax": 2.9460682107934826, 
      "latmin": 51.23700585160777
    }, 
    {
      "latmax": 51.20903406174236, 
      "name": "Balspelpad", 
      "lonmin": 2.9233714434807503, 
      "sanName": "balspelpad", 
      "numOfAddr": 4, 
      "lonmax": 2.9235426025820885, 
      "latmin": 51.20890984236233
    }, 
    {
      "latmax": 51.21561353300691, 
      "name": "Bargestraat", 
      "lonmin": 2.9880261693399244, 
      "sanName": "bargestraat", 
      "numOfAddr": 4, 
      "lonmax": 2.999379160100144, 
      "latmin": 51.21212545565209
    }, 
    {
      "latmax": 51.21366593285908, 
      "name": "Batterijstraat", 
      "lonmin": 2.901636859112088, 
      "sanName": "batterijstraat", 
      "numOfAddr": 12, 
      "lonmax": 2.9024697920417117, 
      "latmin": 51.21228623426884
    }, 
    {
      "latmax": 51.211890358445615, 
      "name": "Bauwensplein", 
      "lonmin": 2.884949516036158, 
      "sanName": "bauwensplein", 
      "numOfAddr": 19, 
      "lonmax": 2.8863668821389634, 
      "latmin": 51.21085940176368
    }, 
    {
      "latmax": 51.2178370542763, 
      "name": "Beekstraat", 
      "lonmin": 2.9261001191430207, 
      "sanName": "beekstraat", 
      "numOfAddr": 31, 
      "lonmax": 2.927304184174878, 
      "latmin": 51.21707642927344
    }, 
    {
      "latmax": 51.221171894959646, 
      "name": "Beeldhouwersstraat", 
      "lonmin": 2.9054155732046, 
      "sanName": "beeldhouwersstraat", 
      "numOfAddr": 7, 
      "lonmax": 2.9058142259002384, 
      "latmin": 51.22096358040414
    }, 
    {
      "latmax": 51.213895405782566, 
      "name": "Begonialaan", 
      "lonmin": 2.92873077320662, 
      "sanName": "begonialaan", 
      "numOfAddr": 25, 
      "lonmax": 2.9296966845878987, 
      "latmin": 51.212053399315266
    }, 
    {
      "latmax": 51.210336054081765, 
      "name": "Berkenlaan", 
      "lonmin": 2.894881835948711, 
      "sanName": "berkenlaan", 
      "numOfAddr": 25, 
      "lonmax": 2.900301167030416, 
      "latmin": 51.20969874940572
    }, 
    {
      "latmax": 51.21160541090056, 
      "name": "Beukenlaan", 
      "lonmin": 2.895019474447875, 
      "sanName": "beukenlaan", 
      "numOfAddr": 45, 
      "lonmax": 2.897447317095417, 
      "latmin": 51.210368655504986
    }, 
    {
      "latmax": 51.21926669016606, 
      "name": "Biekorfstraat", 
      "lonmin": 2.958665585468843, 
      "sanName": "biekorfstraat", 
      "numOfAddr": 16, 
      "lonmax": 2.959853497943098, 
      "latmin": 51.2179402171401
    }, 
    {
      "latmax": 51.20869674494166, 
      "name": "Bikkelpad", 
      "lonmin": 2.922805688517454, 
      "sanName": "bikkelpad", 
      "numOfAddr": 9, 
      "lonmax": 2.9233340902523226, 
      "latmin": 51.20841482718731
    }, 
    {
      "latmax": 51.21067405817736, 
      "name": "Binnenpad", 
      "lonmin": 2.9231080902985993, 
      "sanName": "binnenpad", 
      "numOfAddr": 6, 
      "lonmax": 2.9237646342176102, 
      "latmin": 51.210262333540825
    }, 
    {
      "latmax": 51.23549332837491, 
      "name": "Blankenbergestraat", 
      "lonmin": 2.9408207597791782, 
      "sanName": "blankenbergestraat", 
      "numOfAddr": 9, 
      "lonmax": 2.941387754162535, 
      "latmin": 51.235025006740514
    }, 
    {
      "latmax": 51.21706006977112, 
      "name": "Blauwkasteelstraat", 
      "lonmin": 2.905996561872673, 
      "sanName": "blauwkasteelstraat", 
      "numOfAddr": 94, 
      "lonmax": 2.9137436022384198, 
      "latmin": 51.21612371109242
    }, 
    {
      "latmax": 51.20602690851477, 
      "name": "Blauwvoetstraat", 
      "lonmin": 2.9293860302972323, 
      "sanName": "blauwvoetstraat", 
      "numOfAddr": 13, 
      "lonmax": 2.93028085189233, 
      "latmin": 51.204938972006424
    }, 
    {
      "latmax": 51.21877994601475, 
      "name": "Bloemenstraat", 
      "lonmin": 2.9596438410097865, 
      "sanName": "bloemenstraat", 
      "numOfAddr": 13, 
      "lonmax": 2.9605860032657567, 
      "latmin": 51.21859239758661
    }, 
    {
      "latmax": 51.23490448976226, 
      "name": "Boekareststraat", 
      "lonmin": 2.9181635113946434, 
      "sanName": "boekareststraat", 
      "numOfAddr": 12, 
      "lonmax": 2.918961976708266, 
      "latmin": 51.23452337342089
    }, 
    {
      "latmax": 51.23215327520304, 
      "name": "Bonenstraat", 
      "lonmin": 2.9210654446350315, 
      "sanName": "bonenstraat", 
      "numOfAddr": 9, 
      "lonmax": 2.9216748508081443, 
      "latmin": 51.231953972095155
    }, 
    {
      "latmax": 51.21854883135518, 
      "name": "Boogschuttersstraat", 
      "lonmin": 2.9170004081517327, 
      "sanName": "boogschuttersstraat", 
      "numOfAddr": 4, 
      "lonmax": 2.9183744305687247, 
      "latmin": 51.21799990797656
    }, 
    {
      "latmax": 51.20056392205146, 
      "name": "Boomgaardlaan", 
      "lonmin": 2.9732902966737256, 
      "sanName": "boomgaardlaan", 
      "numOfAddr": 4, 
      "lonmax": 2.9743892820463973, 
      "latmin": 51.19968349565327
    }, 
    {
      "latmax": 51.209106694208785, 
      "name": "Bosbessenlaan", 
      "lonmin": 2.9088389402183017, 
      "sanName": "bosbessenlaan", 
      "numOfAddr": 6, 
      "lonmax": 2.9092581924799257, 
      "latmin": 51.208567581831126
    }, 
    {
      "latmax": 51.21558382822841, 
      "name": "Bosduiflaan", 
      "lonmin": 2.917453807355912, 
      "sanName": "bosduiflaan", 
      "numOfAddr": 8, 
      "lonmax": 2.917956044193768, 
      "latmin": 51.2151184984117
    }, 
    {
      "latmax": 51.21263905023906, 
      "name": "Bosvoordelaan", 
      "lonmin": 2.8861417758974532, 
      "sanName": "bosvoordelaan", 
      "numOfAddr": 13, 
      "lonmax": 2.8870672581861294, 
      "latmin": 51.21182083579789
    }, 
    {
      "latmax": 51.21786642070788, 
      "name": "Bosweg", 
      "lonmin": 2.9241162896953807, 
      "sanName": "bosweg", 
      "numOfAddr": 3, 
      "lonmax": 2.92513502409962, 
      "latmin": 51.21748931861734
    }, 
    {
      "latmax": 51.202103811406765, 
      "name": "Boterbloemstraat", 
      "lonmin": 2.975882273140233, 
      "sanName": "boterbloemstraat", 
      "numOfAddr": 27, 
      "lonmax": 2.9784724282689363, 
      "latmin": 51.20097852019379
    }, 
    {
      "latmax": 51.22165876198458, 
      "name": "Bouwmeestersstraat", 
      "lonmin": 2.9061102436924346, 
      "sanName": "bouwmeestersstraat", 
      "numOfAddr": 7, 
      "lonmax": 2.906513697223652, 
      "latmin": 51.22141607227583
    }, 
    {
      "latmax": 51.240581882951645, 
      "name": "Braamstraat", 
      "lonmin": 2.9390157026963344, 
      "sanName": "braamstraat", 
      "numOfAddr": 5, 
      "lonmax": 2.941113323120224, 
      "latmin": 51.239867927886515
    }, 
    {
      "latmax": 51.23292731035377, 
      "name": "Brabantstraat", 
      "lonmin": 2.9181003153280085, 
      "sanName": "brabantstraat", 
      "numOfAddr": 11, 
      "lonmax": 2.918988066852139, 
      "latmin": 51.23254246523597
    }, 
    {
      "latmax": 51.227430822160514, 
      "name": "Brandariskaai", 
      "lonmin": 2.925732195946689, 
      "sanName": "brandariskaai", 
      "numOfAddr": 1, 
      "lonmax": 2.925732195946689, 
      "latmin": 51.227430822160514
    }, 
    {
      "latmax": 51.22386762638034, 
      "name": "Bredensesteenweg", 
      "lonmin": 2.9439181869955515, 
      "sanName": "bredensesteenweg", 
      "numOfAddr": 2, 
      "lonmax": 2.9439301142811996, 
      "latmin": 51.22385680220921
    }, 
    {
      "latmax": 51.23235760948558, 
      "name": "Breidelstraat", 
      "lonmin": 2.9184548721966053, 
      "sanName": "breidelstraat", 
      "numOfAddr": 8, 
      "lonmax": 2.9189910498491036, 
      "latmin": 51.231981679195435
    }, 
    {
      "latmax": 51.21400826712221, 
      "name": "Brigade Pironlaan", 
      "lonmin": 2.915455573410776, 
      "sanName": "brigadepironlaan", 
      "numOfAddr": 33, 
      "lonmax": 2.9183362358598, 
      "latmin": 51.21318608556457
    }, 
    {
      "latmax": 51.22591300578112, 
      "name": "Brigantijnenstraat", 
      "lonmin": 2.921631082206484, 
      "sanName": "brigantijnenstraat", 
      "numOfAddr": 1, 
      "lonmax": 2.921631082206484, 
      "latmin": 51.22591300578112
    }, 
    {
      "latmax": 51.21733541105524, 
      "name": "Broederlijkheidstraat", 
      "lonmin": 2.9001846557303734, 
      "sanName": "broederlijkheidstraat", 
      "numOfAddr": 44, 
      "lonmax": 2.901012139813719, 
      "latmin": 51.21589610202972
    }, 
    {
      "latmax": 51.21361602599646, 
      "name": "Bronstraat", 
      "lonmin": 2.910864432498255, 
      "sanName": "bronstraat", 
      "numOfAddr": 53, 
      "lonmax": 2.914823299478078, 
      "latmin": 51.21297118128382
    }, 
    {
      "latmax": 51.21658429793311, 
      "name": "Brouwerijstraat", 
      "lonmin": 2.940099251865725, 
      "sanName": "brouwerijstraat", 
      "numOfAddr": 23, 
      "lonmax": 2.9408294135297237, 
      "latmin": 51.2158629399222
    }, 
    {
      "latmax": 51.222762030226036, 
      "name": "Brugsesteenweg", 
      "lonmin": 2.9666925509497437, 
      "sanName": "brugsesteenweg", 
      "numOfAddr": 24, 
      "lonmax": 2.988592944437359, 
      "latmin": 51.21894765272491
    }, 
    {
      "latmax": 51.20547647137574, 
      "name": "Brugstraat", 
      "lonmin": 2.9132785979294096, 
      "sanName": "brugstraat", 
      "numOfAddr": 46, 
      "lonmax": 2.915083504409316, 
      "latmin": 51.20351864980897
    }, 
    {
      "latmax": 51.23006288383901, 
      "name": "Brusselstraat", 
      "lonmin": 2.9125868320673534, 
      "sanName": "brusselstraat", 
      "numOfAddr": 20, 
      "lonmax": 2.9137051390390343, 
      "latmin": 51.22962079122608
    }, 
    {
      "latmax": 51.21045924542017, 
      "name": "Buitenpad", 
      "lonmin": 2.922862268827648, 
      "sanName": "buitenpad", 
      "numOfAddr": 11, 
      "lonmax": 2.9235342464320944, 
      "latmin": 51.21005750998486
    }, 
    {
      "latmax": 51.23599819589911, 
      "name": "Buskruitstraat", 
      "lonmin": 2.9271884034128983, 
      "sanName": "buskruitstraat", 
      "numOfAddr": 1, 
      "lonmax": 2.9271884034128983, 
      "latmin": 51.23599819589911
    }, 
    {
      "latmax": 51.19424511316771, 
      "name": "Caelfstraat", 
      "lonmin": 2.981484263188038, 
      "sanName": "caelfstraat", 
      "numOfAddr": 5, 
      "lonmax": 2.9828114680614894, 
      "latmin": 51.19418314887567
    }, 
    {
      "latmax": 51.20870372083617, 
      "name": "Camelialaan", 
      "lonmin": 2.9221566620171164, 
      "sanName": "camelialaan", 
      "numOfAddr": 17, 
      "lonmax": 2.9227064590301026, 
      "latmin": 51.207936057781374
    }, 
    {
      "latmax": 51.19593406662568, 
      "name": "Camiel Paepelaan", 
      "lonmin": 2.982589047299232, 
      "sanName": "camielpaepelaan", 
      "numOfAddr": 5, 
      "lonmax": 2.982961816365701, 
      "latmin": 51.195429670363495
    }, 
    {
      "latmax": 51.22758722113882, 
      "name": "Canadaplein", 
      "lonmin": 2.9163634928220663, 
      "sanName": "canadaplein", 
      "numOfAddr": 3, 
      "lonmax": 2.916812279428827, 
      "latmin": 51.22703345719003
    }, 
    {
      "latmax": 51.2120913923663, 
      "name": "Cardynplein", 
      "lonmin": 2.916011364433468, 
      "sanName": "cardynplein", 
      "numOfAddr": 9, 
      "lonmax": 2.9174862172343965, 
      "latmin": 51.21109722671398
    }, 
    {
      "latmax": 51.22147132616033, 
      "name": "Cederdreef", 
      "lonmin": 2.92106953936115, 
      "sanName": "cederdreef", 
      "numOfAddr": 1, 
      "lonmax": 2.92106953936115, 
      "latmin": 51.22147132616033
    }, 
    {
      "latmax": 51.22757011829903, 
      "name": "Chaletstraat", 
      "lonmin": 2.908157855053433, 
      "sanName": "chaletstraat", 
      "numOfAddr": 12, 
      "lonmax": 2.908879017476184, 
      "latmin": 51.22676472033781
    }, 
    {
      "latmax": 51.2335557143681, 
      "name": "Christinastraat", 
      "lonmin": 2.9141855414356193, 
      "sanName": "christinastraat", 
      "numOfAddr": 125, 
      "lonmax": 2.9207504673365188, 
      "latmin": 51.2279727956823
    }, 
    {
      "latmax": 51.21189924468179, 
      "name": "Chrysantenstraat", 
      "lonmin": 2.914494599991349, 
      "sanName": "chrysantenstraat", 
      "numOfAddr": 52, 
      "lonmax": 2.9181720056402427, 
      "latmin": 51.20926104585677
    }, 
    {
      "latmax": 51.234107086590015, 
      "name": "Cirkelstraat", 
      "lonmin": 2.9193370516291943, 
      "sanName": "cirkelstraat", 
      "numOfAddr": 27, 
      "lonmax": 2.921239618640871, 
      "latmin": 51.2333651494226
    }, 
    {
      "latmax": 51.212300527647656, 
      "name": "Clivialaan", 
      "lonmin": 2.9192022052643543, 
      "sanName": "clivialaan", 
      "numOfAddr": 17, 
      "lonmax": 2.9246995755833742, 
      "latmin": 51.21116397706396
    }, 
    {
      "latmax": 51.216189909005955, 
      "name": "Constant Permekelaan", 
      "lonmin": 2.917029529818007, 
      "sanName": "constantpermekelaan", 
      "numOfAddr": 41, 
      "lonmax": 2.920477067807789, 
      "latmin": 51.21574524039856
    }, 
    {
      "latmax": 51.20668286923119, 
      "name": "Corneel Heymansstraat", 
      "lonmin": 2.934573884666598, 
      "sanName": "corneelheymansstraat", 
      "numOfAddr": 9, 
      "lonmax": 2.9360147063217665, 
      "latmin": 51.20509708354099
    }, 
    {
      "latmax": 51.21301655546566, 
      "name": "Cyclamenlaan", 
      "lonmin": 2.9192247142642396, 
      "sanName": "cyclamenlaan", 
      "numOfAddr": 12, 
      "lonmax": 2.920896707443703, 
      "latmin": 51.21215849770174
    }, 
    {
      "latmax": 51.21418590714326, 
      "name": "Dageraadstraat", 
      "lonmin": 2.9363226165649046, 
      "sanName": "dageraadstraat", 
      "numOfAddr": 15, 
      "lonmax": 2.9369808670930526, 
      "latmin": 51.21371242036459
    }, 
    {
      "latmax": 51.21422564452412, 
      "name": "Dahlialaan", 
      "lonmin": 2.927949349357311, 
      "sanName": "dahlialaan", 
      "numOfAddr": 46, 
      "lonmax": 2.9324290919358327, 
      "latmin": 51.21232143250519
    }, 
    {
      "latmax": 51.22917272379197, 
      "name": "Dekenijstraat", 
      "lonmin": 2.9211532722610247, 
      "sanName": "dekenijstraat", 
      "numOfAddr": 17, 
      "lonmax": 2.9223011327223727, 
      "latmin": 51.22853644365364
    }, 
    {
      "latmax": 51.209738319827245, 
      "name": "Dennenlaan", 
      "lonmin": 2.8963127437899017, 
      "sanName": "dennenlaan", 
      "numOfAddr": 18, 
      "lonmax": 2.8972285584611814, 
      "latmin": 51.208443283895946
    }, 
    {
      "latmax": 51.21310918097131, 
      "name": "Derbylaan", 
      "lonmin": 2.883542226918661, 
      "sanName": "derbylaan", 
      "numOfAddr": 15, 
      "lonmax": 2.884614105256343, 
      "latmin": 51.21204731771833
    }, 
    {
      "latmax": 51.23262212220664, 
      "name": "De Rudderstraat", 
      "lonmin": 2.944151014297251, 
      "sanName": "derudderstraat", 
      "numOfAddr": 37, 
      "lonmax": 2.946869028304606, 
      "latmin": 51.23038142574218
    }, 
    {
      "latmax": 51.21304666176126, 
      "name": "Deurnelaan", 
      "lonmin": 2.887754990648849, 
      "sanName": "deurnelaan", 
      "numOfAddr": 10, 
      "lonmax": 2.888315814860472, 
      "latmin": 51.212767911772126
    }, 
    {
      "latmax": 51.208526428026296, 
      "name": "Dichterspad", 
      "lonmin": 2.925641500817301, 
      "sanName": "dichterspad", 
      "numOfAddr": 5, 
      "lonmax": 2.9261943619251403, 
      "latmin": 51.20826670004733
    }, 
    {
      "latmax": 51.21571107307124, 
      "name": "Diksmuidestraat", 
      "lonmin": 2.878030136111871, 
      "sanName": "diksmuidestraat", 
      "numOfAddr": 2, 
      "lonmax": 2.878143583170578, 
      "latmin": 51.21562358976962
    }, 
    {
      "latmax": 51.21191015765853, 
      "name": "Dilbeeklaan", 
      "lonmin": 2.8833047685549613, 
      "sanName": "dilbeeklaan", 
      "numOfAddr": 43, 
      "lonmax": 2.884642396258624, 
      "latmin": 51.2104836290883
    }, 
    {
      "latmax": 51.2135416963283, 
      "name": "Distellaan", 
      "lonmin": 2.874876329774572, 
      "sanName": "distellaan", 
      "numOfAddr": 75, 
      "lonmax": 2.8781831410749628, 
      "latmin": 51.210800928355205
    }, 
    {
      "latmax": 51.24149411879563, 
      "name": "Dokter Eduard Moreauxlaan", 
      "lonmin": 2.9406149377533946, 
      "sanName": "doktereduardmoreauxlaan", 
      "numOfAddr": 119, 
      "lonmax": 2.9439941194265784, 
      "latmin": 51.22461352939563
    }, 
    {
      "latmax": 51.21820945194225, 
      "name": "Dokter Verhaeghestraat", 
      "lonmin": 2.8945917801097116, 
      "sanName": "dokterverhaeghestraat", 
      "numOfAddr": 123, 
      "lonmax": 2.9042453864646616, 
      "latmin": 51.21697903992373
    }, 
    {
      "latmax": 51.20969090104238, 
      "name": "Doornenlaan", 
      "lonmin": 2.902460718104395, 
      "sanName": "doornenlaan", 
      "numOfAddr": 15, 
      "lonmax": 2.90317840565157, 
      "latmin": 51.20919398897862
    }, 
    {
      "latmax": 51.21192071928601, 
      "name": "Dorpsstraat", 
      "lonmin": 2.872144911440663, 
      "sanName": "dorpsstraat", 
      "numOfAddr": 37, 
      "lonmax": 2.8741866670869936, 
      "latmin": 51.2092908237307
    }, 
    {
      "latmax": 51.2399643565312, 
      "name": "Dries Claeysstraat", 
      "lonmin": 2.9429248959328684, 
      "sanName": "driesclaeysstraat", 
      "numOfAddr": 18, 
      "lonmax": 2.944537644212221, 
      "latmin": 51.23943376585639
    }, 
    {
      "latmax": 51.2061696983879, 
      "name": "Druivenlaan", 
      "lonmin": 2.911457885875947, 
      "sanName": "druivenlaan", 
      "numOfAddr": 31, 
      "lonmax": 2.9142668557369658, 
      "latmin": 51.20391834618309
    }, 
    {
      "latmax": 51.214713722044756, 
      "name": "Duindoornlaan", 
      "lonmin": 2.878282479358063, 
      "sanName": "duindoornlaan", 
      "numOfAddr": 29, 
      "lonmax": 2.8795353840254196, 
      "latmin": 51.21366495046677
    }, 
    {
      "latmax": 51.214797299814265, 
      "name": "Duinenstraat", 
      "lonmin": 2.842983580395419, 
      "sanName": "duinenstraat", 
      "numOfAddr": 74, 
      "lonmax": 2.877516108896561, 
      "latmin": 51.19851167238626
    }, 
    {
      "latmax": 51.21349367191422, 
      "name": "Duinhelmstraat", 
      "lonmin": 2.8725300413220545, 
      "sanName": "duinhelmstraat", 
      "numOfAddr": 48, 
      "lonmax": 2.8765075698318516, 
      "latmin": 51.21119385824285
    }, 
    {
      "latmax": 51.207077840271126, 
      "name": "Duinkerkseweg", 
      "lonmin": 2.876298007043092, 
      "sanName": "duinkerkseweg", 
      "numOfAddr": 2, 
      "lonmax": 2.9026523162855202, 
      "latmin": 51.204873746902415
    }, 
    {
      "latmax": 51.220820006530666, 
      "name": "Duivenhokstraat", 
      "lonmin": 2.901003216636195, 
      "sanName": "duivenhokstraat", 
      "numOfAddr": 82, 
      "lonmax": 2.904678391536315, 
      "latmin": 51.21835002815112
    }, 
    {
      "latmax": 51.21161081427526, 
      "name": "Duivenstraat", 
      "lonmin": 2.9127445058620323, 
      "sanName": "duivenstraat", 
      "numOfAddr": 19, 
      "lonmax": 2.9136104483332645, 
      "latmin": 51.21086003723959
    }, 
    {
      "latmax": 51.232196989735215, 
      "name": "Dwarsstraat", 
      "lonmin": 2.9202562024546266, 
      "sanName": "dwarsstraat", 
      "numOfAddr": 10, 
      "lonmax": 2.920630713922214, 
      "latmin": 51.231872835891004
    }, 
    {
      "latmax": 51.2072621901094, 
      "name": "Dwergenpad", 
      "lonmin": 2.9220593768715526, 
      "sanName": "dwergenpad", 
      "numOfAddr": 11, 
      "lonmax": 2.923540111103462, 
      "latmin": 51.206566316463054
    }, 
    {
      "latmax": 51.20934472448424, 
      "name": "Edelweislaan", 
      "lonmin": 2.9196002207930825, 
      "sanName": "edelweislaan", 
      "numOfAddr": 5, 
      "lonmax": 2.9203509981043965, 
      "latmin": 51.20929575656754
    }, 
    {
      "latmax": 51.22447957252448, 
      "name": "Edith Cavellstraat", 
      "lonmin": 2.9139634938383985, 
      "sanName": "edithcavellstraat", 
      "numOfAddr": 50, 
      "lonmax": 2.916533057504357, 
      "latmin": 51.221755496841645
    }, 
    {
      "latmax": 51.22605167759345, 
      "name": "Edmond Laponstraat", 
      "lonmin": 2.907126870457762, 
      "sanName": "edmondlaponstraat", 
      "numOfAddr": 53, 
      "lonmax": 2.908915980023916, 
      "latmin": 51.22496519065083
    }, 
    {
      "latmax": 51.2233496067872, 
      "name": "Eduard De Cuyperstraat", 
      "lonmin": 2.903203683488939, 
      "sanName": "eduarddecuyperstraat", 
      "numOfAddr": 19, 
      "lonmax": 2.904020005082149, 
      "latmin": 51.2223640729954
    }, 
    {
      "latmax": 51.2295741857236, 
      "name": "Eduard Hammanstraat", 
      "lonmin": 2.9417297883152416, 
      "sanName": "eduardhammanstraat", 
      "numOfAddr": 53, 
      "lonmax": 2.9450803540563064, 
      "latmin": 51.228430930065045
    }, 
    {
      "latmax": 51.2090427798882, 
      "name": "Edward Vlietinckstraat", 
      "lonmin": 2.9355394009881612, 
      "sanName": "edwardvlietinckstraat", 
      "numOfAddr": 25, 
      "lonmax": 2.940860972894946, 
      "latmin": 51.206045181381775
    }, 
    {
      "latmax": 51.19864068964336, 
      "name": "Eekhoornstraat", 
      "lonmin": 2.969994132182382, 
      "sanName": "eekhoornstraat", 
      "numOfAddr": 18, 
      "lonmax": 2.9710810321217513, 
      "latmin": 51.19816074980531
    }, 
    {
      "latmax": 51.21543723250411, 
      "name": "Eendenlaan", 
      "lonmin": 2.912521340100243, 
      "sanName": "eendenlaan", 
      "numOfAddr": 9, 
      "lonmax": 2.9140777251055745, 
      "latmin": 51.21474245415445
    }, 
    {
      "latmax": 51.21653555759433, 
      "name": "Eendrachtstraat", 
      "lonmin": 2.903312386406424, 
      "sanName": "eendrachtstraat", 
      "numOfAddr": 73, 
      "lonmax": 2.9047617849909835, 
      "latmin": 51.21321017035084
    }, 
    {
      "latmax": 51.199046031986505, 
      "name": "Egellaan", 
      "lonmin": 2.9706506679206415, 
      "sanName": "egellaan", 
      "numOfAddr": 25, 
      "lonmax": 2.9731469504077808, 
      "latmin": 51.1973949267148
    }, 
    {
      "latmax": 51.21379085769138, 
      "name": "Eigen-Haardstraat", 
      "lonmin": 2.8969674462005783, 
      "sanName": "eigenhaardstraat", 
      "numOfAddr": 37, 
      "lonmax": 2.8978467427553456, 
      "latmin": 51.212312094832164
    }, 
    {
      "latmax": 51.21180729963729, 
      "name": "Eikenlaan", 
      "lonmin": 2.8943069054071366, 
      "sanName": "eikenlaan", 
      "numOfAddr": 28, 
      "lonmax": 2.896539256780153, 
      "latmin": 51.21101616159498
    }, 
    {
      "latmax": 51.21061714740147, 
      "name": "Eksterstraat", 
      "lonmin": 2.9318138137876963, 
      "sanName": "eksterstraat", 
      "numOfAddr": 42, 
      "lonmax": 2.935323814185799, 
      "latmin": 51.20944450285638
    }, 
    {
      "latmax": 51.20985935307716, 
      "name": "Elfenpad", 
      "lonmin": 2.9237390434718096, 
      "sanName": "elfenpad", 
      "numOfAddr": 12, 
      "lonmax": 2.9244180392513006, 
      "latmin": 51.20938757549226
    }, 
    {
      "latmax": 51.21644430719684, 
      "name": "Elisabethlaan", 
      "lonmin": 2.890733949336739, 
      "sanName": "elisabethlaan", 
      "numOfAddr": 183, 
      "lonmax": 2.9205996412148885, 
      "latmin": 51.21384057174212
    }, 
    {
      "latmax": 51.21081318770082, 
      "name": "Elzenlaan", 
      "lonmin": 2.902639480758833, 
      "sanName": "elzenlaan", 
      "numOfAddr": 16, 
      "lonmax": 2.90358145142362, 
      "latmin": 51.21031665091099
    }, 
    {
      "latmax": 51.20904444271416, 
      "name": "Emiel De Smitlaan", 
      "lonmin": 2.866025238872106, 
      "sanName": "emieldesmitlaan", 
      "numOfAddr": 28, 
      "lonmax": 2.868971900718746, 
      "latmin": 51.20677373044768
    }, 
    {
      "latmax": 51.21034351783838, 
      "name": "Emiel Moysonplein", 
      "lonmin": 2.917762732392873, 
      "sanName": "emielmoysonplein", 
      "numOfAddr": 5, 
      "lonmax": 2.918189052327346, 
      "latmin": 51.21005697233224
    }, 
    {
      "latmax": 51.21075528352355, 
      "name": "Epsomlaan", 
      "lonmin": 2.881509588703586, 
      "sanName": "epsomlaan", 
      "numOfAddr": 58, 
      "lonmax": 2.885019092276824, 
      "latmin": 51.20877165046149
    }, 
    {
      "latmax": 51.19990879887258, 
      "name": "Ernest Claeslaan", 
      "lonmin": 2.973216454609715, 
      "sanName": "ernestclaeslaan", 
      "numOfAddr": 26, 
      "lonmax": 2.976690731360659, 
      "latmin": 51.198441800690546
    }, 
    {
      "latmax": 51.22673653269437, 
      "name": "Ernest Feysplein", 
      "lonmin": 2.922576896954364, 
      "sanName": "ernestfeysplein", 
      "numOfAddr": 7, 
      "lonmax": 2.9236617878313047, 
      "latmin": 51.22619804053896
    }, 
    {
      "latmax": 51.21533333442581, 
      "name": "Esdoornlaan", 
      "lonmin": 2.8803094730223444, 
      "sanName": "esdoornlaan", 
      "numOfAddr": 44, 
      "lonmax": 2.882566687244684, 
      "latmin": 51.21285857716451
    }, 
    {
      "latmax": 51.21720549642439, 
      "name": "Esperantolaan", 
      "lonmin": 2.9916136747059854, 
      "sanName": "esperantolaan", 
      "numOfAddr": 2, 
      "lonmax": 2.9920286850161606, 
      "latmin": 51.21613737777256
    }, 
    {
      "latmax": 51.22986277884411, 
      "name": "Esplanadestraat", 
      "lonmin": 2.932074597047579, 
      "sanName": "esplanadestraat", 
      "numOfAddr": 3, 
      "lonmax": 2.9359155761086013, 
      "latmin": 51.22650303676486
    }, 
    {
      "latmax": 51.228687725143736, 
      "name": "Euphrosina Beernaertstraat", 
      "lonmin": 2.9088853852044845, 
      "sanName": "euphrosinabeernaertstraat", 
      "numOfAddr": 100, 
      "lonmax": 2.9194935180592054, 
      "latmin": 51.22661935755428
    }, 
    {
      "latmax": 51.233086186460916, 
      "name": "Europagalerij", 
      "lonmin": 2.9151909158407285, 
      "sanName": "europagalerij", 
      "numOfAddr": 4, 
      "lonmax": 2.915595376200803, 
      "latmin": 51.23263455230642
    }, 
    {
      "latmax": 51.207444740575994, 
      "name": "Fazantstraat", 
      "lonmin": 2.932586383796439, 
      "sanName": "fazantstraat", 
      "numOfAddr": 16, 
      "lonmax": 2.9330161189444413, 
      "latmin": 51.2067474568556
    }, 
    {
      "latmax": 51.208955717447544, 
      "name": "Fee\u0089npad", 
      "lonmin": 2.925001897168653, 
      "sanName": "feenpad", 
      "numOfAddr": 12, 
      "lonmax": 2.9256500799861698, 
      "latmin": 51.20846593607691
    }, 
    {
      "latmax": 51.2247295289054, 
      "name": "Filip Van Maestrichtplein", 
      "lonmin": 2.913567366166558, 
      "sanName": "filipvanmaestrichtplein", 
      "numOfAddr": 8, 
      "lonmax": 2.914429862474168, 
      "latmin": 51.22427210084069
    }, 
    {
      "latmax": 51.20882083274379, 
      "name": "Flamingostraat", 
      "lonmin": 2.9271184435901434, 
      "sanName": "flamingostraat", 
      "numOfAddr": 25, 
      "lonmax": 2.929423242454869, 
      "latmin": 51.207384616888234
    }, 
    {
      "latmax": 51.1951855090618, 
      "name": "Fleriskotstraat", 
      "lonmin": 2.8598045213057, 
      "sanName": "fleriskotstraat", 
      "numOfAddr": 1, 
      "lonmax": 2.8598045213057, 
      "latmin": 51.1951855090618
    }, 
    {
      "latmax": 51.19682041587304, 
      "name": "Floralaan", 
      "lonmin": 2.9712729603853583, 
      "sanName": "floralaan", 
      "numOfAddr": 22, 
      "lonmax": 2.9735316732806787, 
      "latmin": 51.195198619987835
    }, 
    {
      "latmax": 51.23908267995809, 
      "name": "Fortstraat", 
      "lonmin": 2.934362901305968, 
      "sanName": "fortstraat", 
      "numOfAddr": 11, 
      "lonmax": 2.940233213908395, 
      "latmin": 51.23491749641088
    }, 
    {
      "latmax": 51.226210886061345, 
      "name": "Fortuinstraat", 
      "lonmin": 2.9223898382518008, 
      "sanName": "fortuinstraat", 
      "numOfAddr": 16, 
      "lonmax": 2.9234102123626, 
      "latmin": 51.22515356163289
    }, 
    {
      "latmax": 51.2339555128659, 
      "name": "Francis Verestraat", 
      "lonmin": 2.945596629237361, 
      "sanName": "francisverestraat", 
      "numOfAddr": 51, 
      "lonmax": 2.949672379943834, 
      "latmin": 51.232456301500385
    }, 
    {
      "latmax": 51.224637057940186, 
      "name": "Frans Musinstraat", 
      "lonmin": 2.9036776436338365, 
      "sanName": "fransmusinstraat", 
      "numOfAddr": 52, 
      "lonmax": 2.905524783315087, 
      "latmin": 51.223163378168024
    }, 
    {
      "latmax": 51.22626301945122, 
      "name": "Fregatstraat", 
      "lonmin": 2.9247098814089485, 
      "sanName": "fregatstraat", 
      "numOfAddr": 20, 
      "lonmax": 2.925636421263951, 
      "latmin": 51.225223222280356
    }, 
    {
      "latmax": 51.21127610668615, 
      "name": "Fresialaan", 
      "lonmin": 2.928861449779227, 
      "sanName": "fresialaan", 
      "numOfAddr": 7, 
      "lonmax": 2.929041900142461, 
      "latmin": 51.20983017643974
    }, 
    {
      "latmax": 51.2216994598054, 
      "name": "Fr\u008are-Orbanstraat", 
      "lonmin": 2.9085319718918385, 
      "sanName": "frreorbanstraat", 
      "numOfAddr": 205, 
      "lonmax": 2.925245257231326, 
      "latmin": 51.2163794580247
    }, 
    {
      "latmax": 51.216404317088234, 
      "name": "Ganzestraat", 
      "lonmin": 2.941112924684972, 
      "sanName": "ganzestraat", 
      "numOfAddr": 21, 
      "lonmax": 2.941779704992873, 
      "latmin": 51.215673557131325
    }, 
    {
      "latmax": 51.238944440334784, 
      "name": "Garnaalstraat", 
      "lonmin": 2.946237690594244, 
      "sanName": "garnaalstraat", 
      "numOfAddr": 1, 
      "lonmax": 2.946237690594244, 
      "latmin": 51.238944440334784
    }, 
    {
      "latmax": 51.19088728329017, 
      "name": "Geleedstraat", 
      "lonmin": 2.963862619962406, 
      "sanName": "geleedstraat", 
      "numOfAddr": 3, 
      "lonmax": 2.9666135740111437, 
      "latmin": 51.18957723889744
    }, 
    {
      "latmax": 51.21668731249528, 
      "name": "Gelijkheidstraat", 
      "lonmin": 2.893812121486612, 
      "sanName": "gelijkheidstraat", 
      "numOfAddr": 168, 
      "lonmax": 2.906408907276996, 
      "latmin": 51.21504079308818
    }, 
    {
      "latmax": 51.21308249549406, 
      "name": "Gelukkige-Haardstraat", 
      "lonmin": 2.912750521057716, 
      "sanName": "gelukkigehaardstraat", 
      "numOfAddr": 43, 
      "lonmax": 2.9141414886782764, 
      "latmin": 51.21198165131858
    }, 
    {
      "latmax": 51.21585656683381, 
      "name": "Generaal Jungbluthlaan", 
      "lonmin": 2.9114592489421973, 
      "sanName": "generaaljungbluthlaan", 
      "numOfAddr": 8, 
      "lonmax": 2.9138325730220624, 
      "latmin": 51.21486834793927
    }, 
    {
      "latmax": 51.22566082922467, 
      "name": "Gentstraat", 
      "lonmin": 2.913233259793882, 
      "sanName": "gentstraat", 
      "numOfAddr": 11, 
      "lonmax": 2.9140924659429515, 
      "latmin": 51.22509576226081
    }, 
    {
      "latmax": 51.214660866053855, 
      "name": "Geraniumlaan", 
      "lonmin": 2.877538773408964, 
      "sanName": "geraniumlaan", 
      "numOfAddr": 26, 
      "lonmax": 2.87815457679378, 
      "latmin": 51.213789256292564
    }, 
    {
      "latmax": 51.21841225579218, 
      "name": "Gerechtsplein", 
      "lonmin": 2.902147210652754, 
      "sanName": "gerechtsplein", 
      "numOfAddr": 5, 
      "lonmax": 2.9028046297307646, 
      "latmin": 51.21828452163912
    }, 
    {
      "latmax": 51.22023664934894, 
      "name": "Gerststraat", 
      "lonmin": 2.9089810478145735, 
      "sanName": "gerststraat", 
      "numOfAddr": 151, 
      "lonmax": 2.91082234321591, 
      "latmin": 51.214906380593334
    }, 
    {
      "latmax": 51.20052160888444, 
      "name": "Geuzenstraat", 
      "lonmin": 2.9796375356158444, 
      "sanName": "geuzenstraat", 
      "numOfAddr": 39, 
      "lonmax": 2.982072464418432, 
      "latmin": 51.19751036976659
    }, 
    {
      "latmax": 51.216478545346725, 
      "name": "Gistelsesteenweg", 
      "lonmin": 2.925310452030436, 
      "sanName": "gistelsesteenweg", 
      "numOfAddr": 182, 
      "lonmax": 2.9636239386142957, 
      "latmin": 51.188082650954016
    }, 
    {
      "latmax": 51.21262306790599, 
      "name": "Gladiolenlaan", 
      "lonmin": 2.929869708183501, 
      "sanName": "gladiolenlaan", 
      "numOfAddr": 20, 
      "lonmax": 2.931074613211176, 
      "latmin": 51.212159028860796
    }, 
    {
      "latmax": 51.223125288540835, 
      "name": "Godetiastraat", 
      "lonmin": 2.9362786127793834, 
      "sanName": "godetiastraat", 
      "numOfAddr": 2, 
      "lonmax": 2.937438313899402, 
      "latmin": 51.22290423711357
    }, 
    {
      "latmax": 51.240220577094775, 
      "name": "Godtschalckstraat", 
      "lonmin": 2.939791875652004, 
      "sanName": "godtschalckstraat", 
      "numOfAddr": 2, 
      "lonmax": 2.9402427184629367, 
      "latmin": 51.24002922983685
    }, 
    {
      "latmax": 51.21898770856029, 
      "name": "Goedheidstraat", 
      "lonmin": 2.896383292779153, 
      "sanName": "goedheidstraat", 
      "numOfAddr": 47, 
      "lonmax": 2.8998551202789553, 
      "latmin": 51.21837285119875
    }, 
    {
      "latmax": 51.21500407055233, 
      "name": "Golvenstraat", 
      "lonmin": 2.8983447022386857, 
      "sanName": "golvenstraat", 
      "numOfAddr": 13, 
      "lonmax": 2.8997322110439288, 
      "latmin": 51.21465317151804
    }, 
    {
      "latmax": 51.21116233160821, 
      "name": "Goudsbloemlaan", 
      "lonmin": 2.922675879652244, 
      "sanName": "goudsbloemlaan", 
      "numOfAddr": 2, 
      "lonmax": 2.922808724839406, 
      "latmin": 51.211004650993516
    }, 
    {
      "latmax": 51.215747580807225, 
      "name": "Gouwelozedijk", 
      "lonmin": 2.945757806665873, 
      "sanName": "gouwelozedijk", 
      "numOfAddr": 2, 
      "lonmax": 2.946214505545141, 
      "latmin": 51.2154260166507
    }, 
    {
      "latmax": 51.218732332245, 
      "name": "Gouwelozestraat", 
      "lonmin": 2.9249537445409315, 
      "sanName": "gouwelozestraat", 
      "numOfAddr": 72, 
      "lonmax": 2.9334936887834275, 
      "latmin": 51.217731122197655
    }, 
    {
      "latmax": 51.226409160996866, 
      "name": "Graaf de Smet de Naeyerlaan", 
      "lonmin": 2.923066886539684, 
      "sanName": "graafdesmetdenaeyerlaan", 
      "numOfAddr": 60, 
      "lonmax": 2.9269527097271695, 
      "latmin": 51.22468518349679
    }, 
    {
      "latmax": 51.198076470222674, 
      "name": "Graanmolenstraat", 
      "lonmin": 2.9758708207574305, 
      "sanName": "graanmolenstraat", 
      "numOfAddr": 27, 
      "lonmax": 2.9784755074374933, 
      "latmin": 51.19714808714053
    }, 
    {
      "latmax": 51.21787853893235, 
      "name": "Grachtstraat", 
      "lonmin": 2.9323110161505723, 
      "sanName": "grachtstraat", 
      "numOfAddr": 8, 
      "lonmax": 2.932659465071723, 
      "latmin": 51.21756145846238
    }, 
    {
      "latmax": 51.22275517351643, 
      "name": "Grensstraat", 
      "lonmin": 2.909012057491424, 
      "sanName": "grensstraat", 
      "numOfAddr": 13, 
      "lonmax": 2.910048599317702, 
      "latmin": 51.222583361368955
    }, 
    {
      "latmax": 51.20439822896377, 
      "name": "Grintweg", 
      "lonmin": 2.9479091482697783, 
      "sanName": "grintweg", 
      "numOfAddr": 102, 
      "lonmax": 2.974473663470113, 
      "latmin": 51.199624574608535
    }, 
    {
      "latmax": 51.22004181840043, 
      "name": "Groendreef", 
      "lonmin": 2.9189782831968345, 
      "sanName": "groendreef", 
      "numOfAddr": 8, 
      "lonmax": 2.9303640464012797, 
      "latmin": 51.218247564899585
    }, 
    {
      "latmax": 51.19661073881956, 
      "name": "Groenedijkstraat", 
      "lonmin": 2.9767703980585773, 
      "sanName": "groenedijkstraat", 
      "numOfAddr": 2, 
      "lonmax": 2.976900767350315, 
      "latmin": 51.19651410240586
    }, 
    {
      "latmax": 51.212688404783876, 
      "name": "Groenendaallaan", 
      "lonmin": 2.8796319673317634, 
      "sanName": "groenendaallaan", 
      "numOfAddr": 59, 
      "lonmax": 2.8841200516521757, 
      "latmin": 51.21043375805898
    }, 
    {
      "latmax": 51.23250351154173, 
      "name": "Groentemarkt", 
      "lonmin": 2.919046112379339, 
      "sanName": "groentemarkt", 
      "numOfAddr": 18, 
      "lonmax": 2.92021505416038, 
      "latmin": 51.2317937424105
    }, 
    {
      "latmax": 51.21557764168745, 
      "name": "Guido Gezellestraat", 
      "lonmin": 2.932944964935457, 
      "sanName": "guidogezellestraat", 
      "numOfAddr": 74, 
      "lonmax": 2.9342768094327893, 
      "latmin": 51.21243880121874
    }, 
    {
      "latmax": 51.21280145065457, 
      "name": "Guldensporenlaan", 
      "lonmin": 2.9173978951994064, 
      "sanName": "guldensporenlaan", 
      "numOfAddr": 7, 
      "lonmax": 2.918577064285533, 
      "latmin": 51.21052220613238
    }, 
    {
      "latmax": 51.20007081739264, 
      "name": "Hamsterstraat", 
      "lonmin": 2.9686002570777137, 
      "sanName": "hamsterstraat", 
      "numOfAddr": 44, 
      "lonmax": 2.9706285954519025, 
      "latmin": 51.19869950569601
    }, 
    {
      "latmax": 51.202056289988235, 
      "name": "Handboogpad", 
      "lonmin": 2.9223289925229947, 
      "sanName": "handboogpad", 
      "numOfAddr": 1, 
      "lonmax": 2.9223289925229947, 
      "latmin": 51.202056289988235
    }, 
    {
      "latmax": 51.22093326693231, 
      "name": "Handelsstraat", 
      "lonmin": 2.947369341641094, 
      "sanName": "handelsstraat", 
      "numOfAddr": 1, 
      "lonmax": 2.947369341641094, 
      "latmin": 51.22093326693231
    }, 
    {
      "latmax": 51.234444004077716, 
      "name": "Havengeulkaai", 
      "lonmin": 2.923298124179387, 
      "sanName": "havengeulkaai", 
      "numOfAddr": 1, 
      "lonmax": 2.923298124179387, 
      "latmin": 51.234444004077716
    }, 
    {
      "latmax": 51.237134193171336, 
      "name": "Havenstraat", 
      "lonmin": 2.9463126142148037, 
      "sanName": "havenstraat", 
      "numOfAddr": 26, 
      "lonmax": 2.9482545205481983, 
      "latmin": 51.23473315252915
    }, 
    {
      "latmax": 51.21955555419396, 
      "name": "Haverstraat", 
      "lonmin": 2.914533942778251, 
      "sanName": "haverstraat", 
      "numOfAddr": 17, 
      "lonmax": 2.9161335960042454, 
      "latmin": 51.218139488332405
    }, 
    {
      "latmax": 51.21018993446859, 
      "name": "Havikstraat", 
      "lonmin": 2.9341344403155074, 
      "sanName": "havikstraat", 
      "numOfAddr": 50, 
      "lonmax": 2.9355671689410676, 
      "latmin": 51.207040730818626
    }, 
    {
      "latmax": 51.19918447526995, 
      "name": "Hazenlaan", 
      "lonmin": 2.968908243765698, 
      "sanName": "hazenlaan", 
      "numOfAddr": 9, 
      "lonmax": 2.9693466497501664, 
      "latmin": 51.19886602935549
    }, 
    {
      "latmax": 51.19207937583111, 
      "name": "Heerweg", 
      "lonmin": 2.898427132722311, 
      "sanName": "heerweg", 
      "numOfAddr": 3, 
      "lonmax": 2.8999628482795012, 
      "latmin": 51.18997130840647
    }, 
    {
      "latmax": 51.20592976175318, 
      "name": "Heidebloemstraat", 
      "lonmin": 2.915127623069631, 
      "sanName": "heidebloemstraat", 
      "numOfAddr": 37, 
      "lonmax": 2.9172919476568797, 
      "latmin": 51.20412186528597
    }, 
    {
      "latmax": 51.22231106206663, 
      "name": "Heilig-Hartlaan", 
      "lonmin": 2.9040299163121737, 
      "sanName": "heilighartlaan", 
      "numOfAddr": 27, 
      "lonmax": 2.9053980799941503, 
      "latmin": 51.221563308606605
    }, 
    {
      "latmax": 51.221812667858806, 
      "name": "Heilig-Hartplein", 
      "lonmin": 2.9050629225713687, 
      "sanName": "heilighartplein", 
      "numOfAddr": 11, 
      "lonmax": 2.9059472186649007, 
      "latmin": 51.221221934734
    }, 
    {
      "latmax": 51.23593626296113, 
      "name": "Hendrik Baelskaai", 
      "lonmin": 2.931740501839914, 
      "sanName": "hendrikbaelskaai", 
      "numOfAddr": 44, 
      "lonmax": 2.939339961406255, 
      "latmin": 51.23016924230576
    }, 
    {
      "latmax": 51.2176318847555, 
      "name": "Hendrik Conscienceplein", 
      "lonmin": 2.9017459186385395, 
      "sanName": "hendrikconscienceplein", 
      "numOfAddr": 15, 
      "lonmax": 2.902766350056911, 
      "latmin": 51.21680880683396
    }, 
    {
      "latmax": 51.23062908033741, 
      "name": "Hendrik Serruyslaan", 
      "lonmin": 2.9144874536116525, 
      "sanName": "hendrikserruyslaan", 
      "numOfAddr": 38, 
      "lonmax": 2.91834621574376, 
      "latmin": 51.22765766615855
    }, 
    {
      "latmax": 51.22183511026246, 
      "name": "Henegouwenstraat", 
      "lonmin": 2.8910420275276927, 
      "sanName": "henegouwenstraat", 
      "numOfAddr": 4, 
      "lonmax": 2.8917708229552828, 
      "latmin": 51.22150224148198
    }, 
    {
      "latmax": 51.20993338043384, 
      "name": "Hengelpad", 
      "lonmin": 2.9208317163130473, 
      "sanName": "hengelpad", 
      "numOfAddr": 20, 
      "lonmax": 2.922774958177409, 
      "latmin": 51.20960959959808
    }, 
    {
      "latmax": 51.219943934862926, 
      "name": "Hennepstraat", 
      "lonmin": 2.908165071916752, 
      "sanName": "hennepstraat", 
      "numOfAddr": 44, 
      "lonmax": 2.9099941291988465, 
      "latmin": 51.21840797888722
    }, 
    {
      "latmax": 51.2159690063045, 
      "name": "Hertogenplein", 
      "lonmin": 2.880530587303793, 
      "sanName": "hertogenplein", 
      "numOfAddr": 5, 
      "lonmax": 2.881985056508308, 
      "latmin": 51.2151985387969
    }, 
    {
      "latmax": 51.23311521186841, 
      "name": "Hertstraat", 
      "lonmin": 2.9132087514663505, 
      "sanName": "hertstraat", 
      "numOfAddr": 27, 
      "lonmax": 2.9151912051730053, 
      "latmin": 51.231460235556355
    }, 
    {
      "latmax": 51.20851114808457, 
      "name": "Hoefijzerstraat", 
      "lonmin": 2.9051697139700474, 
      "sanName": "hoefijzerstraat", 
      "numOfAddr": 23, 
      "lonmax": 2.9062978999027322, 
      "latmin": 51.20815598682812
    }, 
    {
      "latmax": 51.20945105312511, 
      "name": "Hoepelpad", 
      "lonmin": 2.9229914103099373, 
      "sanName": "hoepelpad", 
      "numOfAddr": 4, 
      "lonmax": 2.9231621371742316, 
      "latmin": 51.20932700880302
    }, 
    {
      "latmax": 51.200782120527016, 
      "name": "Hoevestraat", 
      "lonmin": 2.9787616404854793, 
      "sanName": "hoevestraat", 
      "numOfAddr": 6, 
      "lonmax": 2.979682902571079, 
      "latmin": 51.200111119881626
    }, 
    {
      "latmax": 51.216396180971735, 
      "name": "Hofstedestraat", 
      "lonmin": 2.921372757899125, 
      "sanName": "hofstedestraat", 
      "numOfAddr": 31, 
      "lonmax": 2.925412925179886, 
      "latmin": 51.215907715050975
    }, 
    {
      "latmax": 51.23498716426268, 
      "name": "Hofstraat", 
      "lonmin": 2.918081404964934, 
      "sanName": "hofstraat", 
      "numOfAddr": 27, 
      "lonmax": 2.919900449584921, 
      "latmin": 51.2339966546213
    }, 
    {
      "latmax": 51.218273658104465, 
      "name": "Honor\u0082 Borgersstraat", 
      "lonmin": 2.9012927548921943, 
      "sanName": "honorborgersstraat", 
      "numOfAddr": 92, 
      "lonmax": 2.9029997182989447, 
      "latmin": 51.2144383598348
    }, 
    {
      "latmax": 51.21379989049972, 
      "name": "Hooggeleedstraat", 
      "lonmin": 2.956965017229664, 
      "sanName": "hooggeleedstraat", 
      "numOfAddr": 15, 
      "lonmax": 2.963561958693111, 
      "latmin": 51.21116535740624
    }, 
    {
      "latmax": 51.21331719135381, 
      "name": "Hoopstraat", 
      "lonmin": 2.899746007080146, 
      "sanName": "hoopstraat", 
      "numOfAddr": 24, 
      "lonmax": 2.9004567839201187, 
      "latmin": 51.2122241033516
    }, 
    {
      "latmax": 51.199265556995115, 
      "name": "Hortensialaan", 
      "lonmin": 2.9759131234702063, 
      "sanName": "hortensialaan", 
      "numOfAddr": 18, 
      "lonmax": 2.977423822812807, 
      "latmin": 51.19811532698323
    }, 
    {
      "latmax": 51.22411129847831, 
      "name": "Hospitaalstraat", 
      "lonmin": 2.915381590377657, 
      "sanName": "hospitaalstraat", 
      "numOfAddr": 35, 
      "lonmax": 2.9173123933360703, 
      "latmin": 51.22299689104288
    }, 
    {
      "latmax": 51.20975045584749, 
      "name": "Hulstlaan", 
      "lonmin": 2.900961584285311, 
      "sanName": "hulstlaan", 
      "numOfAddr": 15, 
      "lonmax": 2.9018511670217437, 
      "latmin": 51.20925217710208
    }, 
    {
      "latmax": 51.21665117795736, 
      "name": "Hyacintenlaan", 
      "lonmin": 2.8827019492875685, 
      "sanName": "hyacintenlaan", 
      "numOfAddr": 14, 
      "lonmax": 2.884009291873722, 
      "latmin": 51.21589659810632
    }, 
    {
      "latmax": 51.205254830611345, 
      "name": "Ibisstraat", 
      "lonmin": 2.927355203901481, 
      "sanName": "ibisstraat", 
      "numOfAddr": 22, 
      "lonmax": 2.928681482035125, 
      "latmin": 51.20414923009424
    }, 
    {
      "latmax": 51.2218933941359, 
      "name": "Iependreef", 
      "lonmin": 2.920626786345877, 
      "sanName": "iependreef", 
      "numOfAddr": 2, 
      "lonmax": 2.925084329955778, 
      "latmin": 51.221884844734035
    }, 
    {
      "latmax": 51.22723591583792, 
      "name": "Ieperstraat", 
      "lonmin": 2.9143753584865317, 
      "sanName": "ieperstraat", 
      "numOfAddr": 68, 
      "lonmax": 2.917596335105208, 
      "latmin": 51.22425179749594
    }, 
    {
      "latmax": 51.22552836645653, 
      "name": "Ijskelderstraat", 
      "lonmin": 2.9263679052186284, 
      "sanName": "ijskelderstraat", 
      "numOfAddr": 1, 
      "lonmax": 2.9263679052186284, 
      "latmin": 51.22552836645653
    }, 
    {
      "latmax": 51.20987228351375, 
      "name": "Ijslandstraat", 
      "lonmin": 2.9719134264915175, 
      "sanName": "ijslandstraat", 
      "numOfAddr": 3, 
      "lonmax": 2.9729293739961147, 
      "latmin": 51.20784161209645
    }, 
    {
      "latmax": 51.23065782800179, 
      "name": "Ijzerstraat", 
      "lonmin": 2.9110225130108387, 
      "sanName": "ijzerstraat", 
      "numOfAddr": 27, 
      "lonmax": 2.9131645516768945, 
      "latmin": 51.229200232994856
    }, 
    {
      "latmax": 51.217474080187095, 
      "name": "Ijzerwegstraat", 
      "lonmin": 2.935472105309872, 
      "sanName": "ijzerwegstraat", 
      "numOfAddr": 10, 
      "lonmax": 2.9368326958595934, 
      "latmin": 51.21708042697319
    }, 
    {
      "latmax": 51.21308409557638, 
      "name": "Irisstraat", 
      "lonmin": 2.895857761939584, 
      "sanName": "irisstraat", 
      "numOfAddr": 13, 
      "lonmax": 2.896528262996881, 
      "latmin": 51.21251585444132
    }, 
    {
      "latmax": 51.19545081497083, 
      "name": "Jachthoornstraat", 
      "lonmin": 2.9084903440848913, 
      "sanName": "jachthoornstraat", 
      "numOfAddr": 2, 
      "lonmax": 2.9091141725312952, 
      "latmin": 51.194723749123554
    }, 
    {
      "latmax": 51.232668380840046, 
      "name": "Jacob Besagestraat", 
      "lonmin": 2.942278945468179, 
      "sanName": "jacobbesagestraat", 
      "numOfAddr": 82, 
      "lonmax": 2.944163236925273, 
      "latmin": 51.2286630917714
    }, 
    {
      "latmax": 51.23159036345934, 
      "name": "Jacobsenstraat", 
      "lonmin": 2.939196883205783, 
      "sanName": "jacobsenstraat", 
      "numOfAddr": 1, 
      "lonmax": 2.939196883205783, 
      "latmin": 51.23159036345934
    }, 
    {
      "latmax": 51.232446212976186, 
      "name": "James Ensorgalerij", 
      "lonmin": 2.9158361250230533, 
      "sanName": "jamesensorgalerij", 
      "numOfAddr": 9, 
      "lonmax": 2.9165193292893252, 
      "latmin": 51.232034702647475
    }, 
    {
      "latmax": 51.21845675992739, 
      "name": "Jan De Clerckstraat", 
      "lonmin": 2.9188959862140416, 
      "sanName": "jandeclerckstraat", 
      "numOfAddr": 12, 
      "lonmax": 2.922648613097964, 
      "latmin": 51.21704297164912
    }, 
    {
      "latmax": 51.23117437132023, 
      "name": "Jan Diericksenstraat", 
      "lonmin": 2.9470273750589833, 
      "sanName": "jandiericksenstraat", 
      "numOfAddr": 17, 
      "lonmax": 2.9476320837149816, 
      "latmin": 51.23069167581201
    }, 
    {
      "latmax": 51.20739685994574, 
      "name": "Jan-van-gentstraat", 
      "lonmin": 2.929322219367739, 
      "sanName": "janvangentstraat", 
      "numOfAddr": 13, 
      "lonmax": 2.930408794484856, 
      "latmin": 51.20639697922273
    }, 
    {
      "latmax": 51.213347934441515, 
      "name": "Jasmijnlaan", 
      "lonmin": 2.930454595771813, 
      "sanName": "jasmijnlaan", 
      "numOfAddr": 22, 
      "lonmax": 2.9317524002625612, 
      "latmin": 51.21209372424971
    }, 
    {
      "latmax": 51.20837593159905, 
      "name": "John Cordierlaan", 
      "lonmin": 2.9818012392423543, 
      "sanName": "johncordierlaan", 
      "numOfAddr": 4, 
      "lonmax": 2.9849305701932334, 
      "latmin": 51.205232864146964
    }, 
    {
      "latmax": 51.208423855618854, 
      "name": "Josef Boelsstraat", 
      "lonmin": 2.8926654049395544, 
      "sanName": "josefboelsstraat", 
      "numOfAddr": 6, 
      "lonmax": 2.89292979291568, 
      "latmin": 51.20780535567543
    }, 
    {
      "latmax": 51.21011250093592, 
      "name": "Joseph Plateaustraat", 
      "lonmin": 2.9359433915562816, 
      "sanName": "josephplateaustraat", 
      "numOfAddr": 9, 
      "lonmax": 2.939701265729889, 
      "latmin": 51.208422197934176
    }, 
    {
      "latmax": 51.22923787154537, 
      "name": "Jozef II-straat", 
      "lonmin": 2.9171647958306024, 
      "sanName": "jozefiistraat", 
      "numOfAddr": 47, 
      "lonmax": 2.9214996708959573, 
      "latmin": 51.22875812843456
    }, 
    {
      "latmax": 51.22669945027513, 
      "name": "Jules Peurquaetstraat", 
      "lonmin": 2.9101232126854235, 
      "sanName": "julespeurquaetstraat", 
      "numOfAddr": 99, 
      "lonmax": 2.913639283845091, 
      "latmin": 51.22377788729464
    }, 
    {
      "latmax": 51.231794908554306, 
      "name": "Kaaistraat", 
      "lonmin": 2.91955794727068, 
      "sanName": "kaaistraat", 
      "numOfAddr": 47, 
      "lonmax": 2.922021791178907, 
      "latmin": 51.230007224959756
    }, 
    {
      "latmax": 51.232346930194794, 
      "name": "Kadzandstraat", 
      "lonmin": 2.920840931752113, 
      "sanName": "kadzandstraat", 
      "numOfAddr": 7, 
      "lonmax": 2.9213522370054203, 
      "latmin": 51.232151792795555
    }, 
    {
      "latmax": 51.19758082390052, 
      "name": "Kalkaertstraat", 
      "lonmin": 2.842884242867928, 
      "sanName": "kalkaertstraat", 
      "numOfAddr": 4, 
      "lonmax": 2.85323792201957, 
      "latmin": 51.19361009561362
    }, 
    {
      "latmax": 51.220800014355355, 
      "name": "Kanaalstraat", 
      "lonmin": 2.984641589942644, 
      "sanName": "kanaalstraat", 
      "numOfAddr": 1, 
      "lonmax": 2.984641589942644, 
      "latmin": 51.220800014355355
    }, 
    {
      "latmax": 51.21211720407021, 
      "name": "Kanariestraat", 
      "lonmin": 2.932529481860436, 
      "sanName": "kanariestraat", 
      "numOfAddr": 17, 
      "lonmax": 2.9343309635718624, 
      "latmin": 51.21086959484339
    }, 
    {
      "latmax": 51.22744527635218, 
      "name": "Kanunnik Dr. Louis Colensstraat", 
      "lonmin": 2.91555894459025, 
      "sanName": "kanunnikdrlouiscolensstraat", 
      "numOfAddr": 10, 
      "lonmax": 2.916466464630668, 
      "latmin": 51.226818932346
    }, 
    {
      "latmax": 51.23161106331911, 
      "name": "Kapellestraat", 
      "lonmin": 2.9173396741196016, 
      "sanName": "kapellestraat", 
      "numOfAddr": 97, 
      "lonmax": 2.9216146220170844, 
      "latmin": 51.22820174459869
    }, 
    {
      "latmax": 51.19761458967435, 
      "name": "Kapittelstraat", 
      "lonmin": 2.971814036900786, 
      "sanName": "kapittelstraat", 
      "numOfAddr": 39, 
      "lonmax": 2.9786442222911353, 
      "latmin": 51.194534367041925
    }, 
    {
      "latmax": 51.23498601618998, 
      "name": "Kapucijnenstraat", 
      "lonmin": 2.9167898698933015, 
      "sanName": "kapucijnenstraat", 
      "numOfAddr": 43, 
      "lonmax": 2.919282118699025, 
      "latmin": 51.2324879924955
    }, 
    {
      "latmax": 51.21367905082701, 
      "name": "Karel Goetghebeurstraat", 
      "lonmin": 2.9164853078977226, 
      "sanName": "karelgoetghebeurstraat", 
      "numOfAddr": 4, 
      "lonmax": 2.917643008138507, 
      "latmin": 51.21327617687011
    }, 
    {
      "latmax": 51.23004942859941, 
      "name": "Karel Janssenslaan", 
      "lonmin": 2.9108653769653694, 
      "sanName": "kareljanssenslaan", 
      "numOfAddr": 37, 
      "lonmax": 2.9148854268272246, 
      "latmin": 51.22801882460268
    }, 
    {
      "latmax": 51.22011630706772, 
      "name": "Karel Van de Woestijnestraat", 
      "lonmin": 2.9054460965879123, 
      "sanName": "karelvandewoestijnestraat", 
      "numOfAddr": 44, 
      "lonmax": 2.9077163138542423, 
      "latmin": 51.219007897694304
    }, 
    {
      "latmax": 51.22517097770734, 
      "name": "Ka\u008brostraat", 
      "lonmin": 2.9127730286292364, 
      "sanName": "karostraat", 
      "numOfAddr": 80, 
      "lonmax": 2.9178249195800294, 
      "latmin": 51.222443361249766
    }, 
    {
      "latmax": 51.20867691891912, 
      "name": "Karperstraat", 
      "lonmin": 2.941970491743931, 
      "sanName": "karperstraat", 
      "numOfAddr": 7, 
      "lonmax": 2.9471072635325353, 
      "latmin": 51.20720237183623
    }, 
    {
      "latmax": 51.24031267491558, 
      "name": "Karveelstraat", 
      "lonmin": 2.943489107156776, 
      "sanName": "karveelstraat", 
      "numOfAddr": 7, 
      "lonmax": 2.944134599382692, 
      "latmin": 51.24029878884974
    }, 
    {
      "latmax": 51.21141310929605, 
      "name": "Kastanjelaan", 
      "lonmin": 2.901996326819796, 
      "sanName": "kastanjelaan", 
      "numOfAddr": 44, 
      "lonmax": 2.9053969873514216, 
      "latmin": 51.21083637788266
    }, 
    {
      "latmax": 51.204960710181865, 
      "name": "Kasteelstraat", 
      "lonmin": 2.973762628395978, 
      "sanName": "kasteelstraat", 
      "numOfAddr": 59, 
      "lonmax": 2.97676077993896, 
      "latmin": 51.201479119420384
    }, 
    {
      "latmax": 51.22296598720661, 
      "name": "Kazernelaan", 
      "lonmin": 2.919774737559697, 
      "sanName": "kazernelaan", 
      "numOfAddr": 1, 
      "lonmax": 2.919774737559697, 
      "latmin": 51.22296598720661
    }, 
    {
      "latmax": 51.208862662398666, 
      "name": "Kegelpad", 
      "lonmin": 2.922662300463868, 
      "sanName": "kegelpad", 
      "numOfAddr": 6, 
      "lonmax": 2.9230072097266095, 
      "latmin": 51.20870048834488
    }, 
    {
      "latmax": 51.20118406672156, 
      "name": "Keignaertlaan", 
      "lonmin": 2.9665366673867846, 
      "sanName": "keignaertlaan", 
      "numOfAddr": 75, 
      "lonmax": 2.969748905789074, 
      "latmin": 51.197753130124966
    }, 
    {
      "latmax": 51.22939952667759, 
      "name": "Kemmelbergstraat", 
      "lonmin": 2.9085393965939796, 
      "sanName": "kemmelbergstraat", 
      "numOfAddr": 34, 
      "lonmax": 2.910152061967385, 
      "latmin": 51.2281489935351
    }, 
    {
      "latmax": 51.217339801678044, 
      "name": "Keramiekstraat", 
      "lonmin": 2.9362766030749294, 
      "sanName": "keramiekstraat", 
      "numOfAddr": 18, 
      "lonmax": 2.937587968370829, 
      "latmin": 51.21686008318306
    }, 
    {
      "latmax": 51.21638434904219, 
      "name": "Kerkgoedstraat", 
      "lonmin": 2.9363863652506295, 
      "sanName": "kerkgoedstraat", 
      "numOfAddr": 41, 
      "lonmax": 2.937220918932805, 
      "latmin": 51.215466233811505
    }, 
    {
      "latmax": 51.21506363723721, 
      "name": "Kerklaan", 
      "lonmin": 2.9336082490033664, 
      "sanName": "kerklaan", 
      "numOfAddr": 21, 
      "lonmax": 2.934777573783731, 
      "latmin": 51.214550263138335
    }, 
    {
      "latmax": 51.23195175308257, 
      "name": "Kerkstraat", 
      "lonmin": 2.918584766470717, 
      "sanName": "kerkstraat", 
      "numOfAddr": 43, 
      "lonmax": 2.920451411401855, 
      "latmin": 51.23005858729485
    }, 
    {
      "latmax": 51.211582480517, 
      "name": "Kersenlaan", 
      "lonmin": 2.8993919194577265, 
      "sanName": "kersenlaan", 
      "numOfAddr": 23, 
      "lonmax": 2.9000921727224247, 
      "latmin": 51.210413272398725
    }, 
    {
      "latmax": 51.212263807897315, 
      "name": "Kerstrozenlaan", 
      "lonmin": 2.9216647803406612, 
      "sanName": "kerstrozenlaan", 
      "numOfAddr": 12, 
      "lonmax": 2.922710036803914, 
      "latmin": 51.21130630154087
    }, 
    {
      "latmax": 51.21012345795651, 
      "name": "Kievitstraat", 
      "lonmin": 2.930926707662893, 
      "sanName": "kievitstraat", 
      "numOfAddr": 32, 
      "lonmax": 2.93207058978529, 
      "latmin": 51.20882411959237
    }, 
    {
      "latmax": 51.20626320829962, 
      "name": "Kinkhoornlaan", 
      "lonmin": 2.86649931744373, 
      "sanName": "kinkhoornlaan", 
      "numOfAddr": 3, 
      "lonmax": 2.8670278297006915, 
      "latmin": 51.20593147114354
    }, 
    {
      "latmax": 51.211700806274266, 
      "name": "Klaprozenlaan", 
      "lonmin": 2.8733728238522467, 
      "sanName": "klaprozenlaan", 
      "numOfAddr": 52, 
      "lonmax": 2.8759266342831142, 
      "latmin": 51.20983754938317
    }, 
    {
      "latmax": 51.20158115607534, 
      "name": "Klaverstraat", 
      "lonmin": 2.914565234181275, 
      "sanName": "klaverstraat", 
      "numOfAddr": 6, 
      "lonmax": 2.915603883250471, 
      "latmin": 51.20145113251783
    }, 
    {
      "latmax": 51.2319281389235, 
      "name": "Kleine Weststraat", 
      "lonmin": 2.914358499813291, 
      "sanName": "kleineweststraat", 
      "numOfAddr": 15, 
      "lonmax": 2.915533804223672, 
      "latmin": 51.2313485806344
    }, 
    {
      "latmax": 51.19789483174371, 
      "name": "Kleinezwaanstraat", 
      "lonmin": 2.982530408207935, 
      "sanName": "kleinezwaanstraat", 
      "numOfAddr": 9, 
      "lonmax": 2.983396481581367, 
      "latmin": 51.19715383354977
    }, 
    {
      "latmax": 51.199111603776366, 
      "name": "Klimoplaan", 
      "lonmin": 2.9749935922189548, 
      "sanName": "klimoplaan", 
      "numOfAddr": 19, 
      "lonmax": 2.975852178940694, 
      "latmin": 51.19759504107813
    }, 
    {
      "latmax": 51.21172005641892, 
      "name": "Klokhofstraat", 
      "lonmin": 2.964085857922451, 
      "sanName": "klokhofstraat", 
      "numOfAddr": 20, 
      "lonmax": 2.969215601362949, 
      "latmin": 51.20698674555171
    }, 
    {
      "latmax": 51.20066939318427, 
      "name": "Kloosterstraat", 
      "lonmin": 2.977351650000622, 
      "sanName": "kloosterstraat", 
      "numOfAddr": 1, 
      "lonmax": 2.977351650000622, 
      "latmin": 51.20066939318427
    }, 
    {
      "latmax": 51.21304783776763, 
      "name": "Koebrugstraat", 
      "lonmin": 2.9436567529750945, 
      "sanName": "koebrugstraat", 
      "numOfAddr": 39, 
      "lonmax": 2.9460462896179105, 
      "latmin": 51.211821954460845
    }, 
    {
      "latmax": 51.20062255630286, 
      "name": "Koekoekstraat", 
      "lonmin": 2.9675405614569392, 
      "sanName": "koekoekstraat", 
      "numOfAddr": 5, 
      "lonmax": 2.968040224306737, 
      "latmin": 51.20049769719365
    }, 
    {
      "latmax": 51.225209466465316, 
      "name": "Koning Boudewijnpromenade", 
      "lonmin": 2.900027251522474, 
      "sanName": "koningboudewijnpromenade", 
      "numOfAddr": 1, 
      "lonmax": 2.900027251522474, 
      "latmin": 51.225209466465316
    }, 
    {
      "latmax": 51.22638340655709, 
      "name": "Koningin Astridlaan", 
      "lonmin": 2.894877514482008, 
      "sanName": "koninginastridlaan", 
      "numOfAddr": 9, 
      "lonmax": 2.904589574654371, 
      "latmin": 51.22217551905216
    }, 
    {
      "latmax": 51.22583783688927, 
      "name": "Koninginnelaan", 
      "lonmin": 2.9063226028222444, 
      "sanName": "koninginnelaan", 
      "numOfAddr": 51, 
      "lonmax": 2.91105928555658, 
      "latmin": 51.22327433695874
    }, 
    {
      "latmax": 51.230621875184774, 
      "name": "Koningsstraat", 
      "lonmin": 2.9058375231850233, 
      "sanName": "koningsstraat", 
      "numOfAddr": 86, 
      "lonmax": 2.913190986205427, 
      "latmin": 51.22757356111228
    }, 
    {
      "latmax": 51.2095172380143, 
      "name": "Koolmeesstraat", 
      "lonmin": 2.927991311146132, 
      "sanName": "koolmeesstraat", 
      "numOfAddr": 48, 
      "lonmax": 2.9305171918153694, 
      "latmin": 51.20687464431074
    }, 
    {
      "latmax": 51.2376615695339, 
      "name": "Koopvaardijstraat", 
      "lonmin": 2.9445468061536246, 
      "sanName": "koopvaardijstraat", 
      "numOfAddr": 30, 
      "lonmax": 2.947027435965466, 
      "latmin": 51.235532526703544
    }, 
    {
      "latmax": 51.21164640316845, 
      "name": "Korenbloemlaan", 
      "lonmin": 2.9214039348810954, 
      "sanName": "korenbloemlaan", 
      "numOfAddr": 34, 
      "lonmax": 2.927208726335473, 
      "latmin": 51.20906433369838
    }, 
    {
      "latmax": 51.240190362414495, 
      "name": "Kraaienestpad", 
      "lonmin": 2.9431680176547528, 
      "sanName": "kraaienestpad", 
      "numOfAddr": 3, 
      "lonmax": 2.943384005228357, 
      "latmin": 51.2401861423558
    }, 
    {
      "latmax": 51.20621631789389, 
      "name": "Kraanvogelstraat", 
      "lonmin": 2.923601280865222, 
      "sanName": "kraanvogelstraat", 
      "numOfAddr": 29, 
      "lonmax": 2.9272948206215452, 
      "latmin": 51.204902819000395
    }, 
    {
      "latmax": 51.21782923554408, 
      "name": "Kreekstraat", 
      "lonmin": 2.9337712098639397, 
      "sanName": "kreekstraat", 
      "numOfAddr": 7, 
      "lonmax": 2.9343395782269908, 
      "latmin": 51.21751608487
    }, 
    {
      "latmax": 51.21321582952925, 
      "name": "Krokuslaan", 
      "lonmin": 2.9238717308599913, 
      "sanName": "krokuslaan", 
      "numOfAddr": 4, 
      "lonmax": 2.9244609163488344, 
      "latmin": 51.21291687582739
    }, 
    {
      "latmax": 51.213993072680566, 
      "name": "Kroonlaan", 
      "lonmin": 2.9063572902418104, 
      "sanName": "kroonlaan", 
      "numOfAddr": 36, 
      "lonmax": 2.9082649601424926, 
      "latmin": 51.21232893620314
    }, 
    {
      "latmax": 51.20592672758754, 
      "name": "Kruidenstraat", 
      "lonmin": 2.915670986053645, 
      "sanName": "kruidenstraat", 
      "numOfAddr": 18, 
      "lonmax": 2.9182391485797297, 
      "latmin": 51.20477056486917
    }, 
    {
      "latmax": 51.20580203192708, 
      "name": "Kruishofstraat", 
      "lonmin": 2.8771813357363785, 
      "sanName": "kruishofstraat", 
      "numOfAddr": 2, 
      "lonmax": 2.880032552634621, 
      "latmin": 51.204772530812505
    }, 
    {
      "latmax": 51.21062234924164, 
      "name": "Kuipweg", 
      "lonmin": 2.9764147634262743, 
      "sanName": "kuipweg", 
      "numOfAddr": 12, 
      "lonmax": 2.9909744518221575, 
      "latmin": 51.20692477181947
    }, 
    {
      "latmax": 51.232518883293935, 
      "name": "Kursaal-Oosthelling", 
      "lonmin": 2.9119552302531293, 
      "sanName": "kursaaloosthelling", 
      "numOfAddr": 12, 
      "lonmax": 2.913196760484282, 
      "latmin": 51.231850505545935
    }, 
    {
      "latmax": 51.23103185297863, 
      "name": "Kursaal-Westhelling", 
      "lonmin": 2.9116838249630237, 
      "sanName": "kursaalwesthelling", 
      "numOfAddr": 4, 
      "lonmax": 2.912036570656466, 
      "latmin": 51.230778370458125
    }, 
    {
      "latmax": 51.208006484469166, 
      "name": "Kwartelstraat", 
      "lonmin": 2.926456031748957, 
      "sanName": "kwartelstraat", 
      "numOfAddr": 33, 
      "lonmax": 2.9286443943457927, 
      "latmin": 51.2055224075296
    }, 
    {
      "latmax": 51.2366681117513, 
      "name": "Kwintebankstraat", 
      "lonmin": 2.943324902204018, 
      "sanName": "kwintebankstraat", 
      "numOfAddr": 8, 
      "lonmax": 2.9441591167011016, 
      "latmin": 51.235843483937806
    }, 
    {
      "latmax": 51.21710090802807, 
      "name": "Landbouwersstraat", 
      "lonmin": 2.8931893863088014, 
      "sanName": "landbouwersstraat", 
      "numOfAddr": 24, 
      "lonmax": 2.8941896217634766, 
      "latmin": 51.216697097185424
    }, 
    {
      "latmax": 51.2346321616439, 
      "name": "Langestraat", 
      "lonmin": 2.913486761669882, 
      "sanName": "langestraat", 
      "numOfAddr": 112, 
      "lonmax": 2.9209118659344107, 
      "latmin": 51.23132509498399
    }, 
    {
      "latmax": 51.211851801839344, 
      "name": "Lariksenlaan", 
      "lonmin": 2.899280029027203, 
      "sanName": "lariksenlaan", 
      "numOfAddr": 53, 
      "lonmax": 2.9020668311904947, 
      "latmin": 51.20889549085517
    }, 
    {
      "latmax": 51.206870158209256, 
      "name": "Laurierstraat", 
      "lonmin": 2.916442213879727, 
      "sanName": "laurierstraat", 
      "numOfAddr": 15, 
      "lonmax": 2.9188224579766953, 
      "latmin": 51.20583524321885
    }, 
    {
      "latmax": 51.206309924381706, 
      "name": "Lavendelstraat", 
      "lonmin": 2.9169838582178538, 
      "sanName": "lavendelstraat", 
      "numOfAddr": 14, 
      "lonmax": 2.918729874953584, 
      "latmin": 51.20493769297559
    }, 
    {
      "latmax": 51.21241053922227, 
      "name": "Leegaardsdijk", 
      "lonmin": 2.947515897812428, 
      "sanName": "leegaardsdijk", 
      "numOfAddr": 8, 
      "lonmax": 2.9488351895924643, 
      "latmin": 51.2098507432603
    }, 
    {
      "latmax": 51.19218013120905, 
      "name": "Leemstraat", 
      "lonmin": 2.888415411430799, 
      "sanName": "leemstraat", 
      "numOfAddr": 2, 
      "lonmax": 2.891591177679816, 
      "latmin": 51.191552602483654
    }, 
    {
      "latmax": 51.214064013245796, 
      "name": "Leeuwerikenstraat", 
      "lonmin": 2.905753607277603, 
      "sanName": "leeuwerikenstraat", 
      "numOfAddr": 198, 
      "lonmax": 2.9093795359985006, 
      "latmin": 51.20733686157442
    }, 
    {
      "latmax": 51.22131636815379, 
      "name": "Leffingestraat", 
      "lonmin": 2.8998596385011624, 
      "sanName": "leffingestraat", 
      "numOfAddr": 172, 
      "lonmax": 2.9158150291477574, 
      "latmin": 51.21469743058153
    }, 
    {
      "latmax": 51.204844089484595, 
      "name": "Legeweg", 
      "lonmin": 2.877326868826713, 
      "sanName": "legeweg", 
      "numOfAddr": 4, 
      "lonmax": 2.890033661847988, 
      "latmin": 51.18923167523973
    }, 
    {
      "latmax": 51.213679468076606, 
      "name": "Lelielaan", 
      "lonmin": 2.9293067071814747, 
      "sanName": "lelielaan", 
      "numOfAddr": 11, 
      "lonmax": 2.9300461298352283, 
      "latmin": 51.21325423695987
    }, 
    {
      "latmax": 51.22911659700343, 
      "name": "Leon Spilliaertstraat", 
      "lonmin": 2.9112293189827456, 
      "sanName": "leonspilliaertstraat", 
      "numOfAddr": 50, 
      "lonmax": 2.9140525767314402, 
      "latmin": 51.22620024423438
    }, 
    {
      "latmax": 51.227141526249355, 
      "name": "Leopold III-laan", 
      "lonmin": 2.9208700515341404, 
      "sanName": "leopoldiiilaan", 
      "numOfAddr": 4, 
      "lonmax": 2.9244433723336476, 
      "latmin": 51.226163776397286
    }, 
    {
      "latmax": 51.231232778926994, 
      "name": "Leopold II-laan", 
      "lonmin": 2.912564811415253, 
      "sanName": "leopoldiilaan", 
      "numOfAddr": 29, 
      "lonmax": 2.9146797540597382, 
      "latmin": 51.22966459168578
    }, 
    {
      "latmax": 51.22842982900047, 
      "name": "Leopold I-plein", 
      "lonmin": 2.9098033600039788, 
      "sanName": "leopoldiplein", 
      "numOfAddr": 8, 
      "lonmax": 2.9110437341618445, 
      "latmin": 51.22785247321795
    }, 
    {
      "latmax": 51.21710549982892, 
      "name": "Leopold Van Tyghemlaan", 
      "lonmin": 2.8845191006725788, 
      "sanName": "leopoldvantyghemlaan", 
      "numOfAddr": 58, 
      "lonmax": 2.889804368762764, 
      "latmin": 51.21588742512928
    }, 
    {
      "latmax": 51.207084081564425, 
      "name": "Lepelaarstraat", 
      "lonmin": 2.9283519418607944, 
      "sanName": "lepelaarstraat", 
      "numOfAddr": 15, 
      "lonmax": 2.929493014286673, 
      "latmin": 51.20604227022642
    }, 
    {
      "latmax": 51.202846370404366, 
      "name": "Libellaan", 
      "lonmin": 2.965889607911587, 
      "sanName": "libellaan", 
      "numOfAddr": 15, 
      "lonmax": 2.9683757915057836, 
      "latmin": 51.20228177985902
    }, 
    {
      "latmax": 51.23376402785422, 
      "name": "Liefkemoresstraat", 
      "lonmin": 2.9367138691126695, 
      "sanName": "liefkemoresstraat", 
      "numOfAddr": 2, 
      "lonmax": 2.937305750280788, 
      "latmin": 51.233131160535756
    }, 
    {
      "latmax": 51.20891948738973, 
      "name": "Ligusterlaan", 
      "lonmin": 2.9201062020266235, 
      "sanName": "ligusterlaan", 
      "numOfAddr": 11, 
      "lonmax": 2.9207489362978283, 
      "latmin": 51.20850086741587
    }, 
    {
      "latmax": 51.23124082921503, 
      "name": "Lijnbaanstraat", 
      "lonmin": 2.917451083500464, 
      "sanName": "lijnbaanstraat", 
      "numOfAddr": 5, 
      "lonmax": 2.9176401239177188, 
      "latmin": 51.2305865135396
    }, 
    {
      "latmax": 51.22586074170841, 
      "name": "Lijndraaiersstraat", 
      "lonmin": 2.9234738928790933, 
      "sanName": "lijndraaiersstraat", 
      "numOfAddr": 17, 
      "lonmax": 2.9259368967713555, 
      "latmin": 51.22521979619212
    }, 
    {
      "latmax": 51.21639692814117, 
      "name": "Lijsterbeslaan", 
      "lonmin": 2.882063536984652, 
      "sanName": "lijsterbeslaan", 
      "numOfAddr": 45, 
      "lonmax": 2.8845916331305324, 
      "latmin": 51.21374359476357
    }, 
    {
      "latmax": 51.21171378107918, 
      "name": "Lijsterstraat", 
      "lonmin": 2.931621603786397, 
      "sanName": "lijsterstraat", 
      "numOfAddr": 13, 
      "lonmax": 2.932364994681968, 
      "latmin": 51.210533834885524
    }, 
    {
      "latmax": 51.20974871499661, 
      "name": "Limbalaan", 
      "lonmin": 2.8977087172282667, 
      "sanName": "limbalaan", 
      "numOfAddr": 25, 
      "lonmax": 2.8987492690134835, 
      "latmin": 51.208561976467166
    }, 
    {
      "latmax": 51.221210494167444, 
      "name": "Limburgstraat", 
      "lonmin": 2.88984412967691, 
      "sanName": "limburgstraat", 
      "numOfAddr": 5, 
      "lonmax": 2.890434189540099, 
      "latmin": 51.22082434881289
    }, 
    {
      "latmax": 51.21089980287904, 
      "name": "Lindenlaan", 
      "lonmin": 2.903210899944829, 
      "sanName": "lindenlaan", 
      "numOfAddr": 55, 
      "lonmax": 2.9047531161647338, 
      "latmin": 51.20881900261899
    }, 
    {
      "latmax": 51.213425931992674, 
      "name": "Lobelialaan", 
      "lonmin": 2.9221671177970614, 
      "sanName": "lobelialaan", 
      "numOfAddr": 13, 
      "lonmax": 2.92365847790758, 
      "latmin": 51.2117660982005
    }, 
    {
      "latmax": 51.2346689729745, 
      "name": "Londenstraat", 
      "lonmin": 2.919412016859578, 
      "sanName": "londenstraat", 
      "numOfAddr": 9, 
      "lonmax": 2.920022312951513, 
      "latmin": 51.23418286060791
    }, 
    {
      "latmax": 51.211663240057696, 
      "name": "Longchamplaan", 
      "lonmin": 2.885150654197483, 
      "sanName": "longchamplaan", 
      "numOfAddr": 94, 
      "lonmax": 2.891472876617928, 
      "latmin": 51.208742911920886
    }, 
    {
      "latmax": 51.233181362198444, 
      "name": "Loodsenstraat", 
      "lonmin": 2.9415008366635176, 
      "sanName": "loodsenstraat", 
      "numOfAddr": 28, 
      "lonmax": 2.943843354627484, 
      "latmin": 51.23271979935078
    }, 
    {
      "latmax": 51.210227737051625, 
      "name": "Lotuslaan", 
      "lonmin": 2.9193736897638742, 
      "sanName": "lotuslaan", 
      "numOfAddr": 101, 
      "lonmax": 2.924821824057181, 
      "latmin": 51.20707639130238
    }, 
    {
      "latmax": 51.23438327039791, 
      "name": "Louisastraat", 
      "lonmin": 2.916071053701251, 
      "sanName": "louisastraat", 
      "numOfAddr": 28, 
      "lonmax": 2.9179933426084674, 
      "latmin": 51.23258931144982
    }, 
    {
      "latmax": 51.20720851718054, 
      "name": "Luchthavenstraat", 
      "lonmin": 2.861916741143528, 
      "sanName": "luchthavenstraat", 
      "numOfAddr": 34, 
      "lonmax": 2.8661658711070324, 
      "latmin": 51.20473557240695
    }, 
    {
      "latmax": 51.22241247667772, 
      "name": "Luikstraat", 
      "lonmin": 2.8923155176189286, 
      "sanName": "luikstraat", 
      "numOfAddr": 7, 
      "lonmax": 2.8929386877442096, 
      "latmin": 51.221984483853845
    }, 
    {
      "latmax": 51.210264193821764, 
      "name": "Lupinelaan", 
      "lonmin": 2.924527731045265, 
      "sanName": "lupinelaan", 
      "numOfAddr": 3, 
      "lonmax": 2.9257783762200242, 
      "latmin": 51.20956079084267
    }, 
    {
      "latmax": 51.22063463808608, 
      "name": "Luxemburgstraat", 
      "lonmin": 2.8884926261498998, 
      "sanName": "luxemburgstraat", 
      "numOfAddr": 7, 
      "lonmax": 2.889095859771608, 
      "latmin": 51.22024311330026
    }, 
    {
      "latmax": 51.212751406386744, 
      "name": "Madeliefjeslaan", 
      "lonmin": 2.873352986144615, 
      "sanName": "madeliefjeslaan", 
      "numOfAddr": 64, 
      "lonmax": 2.877095221722905, 
      "latmin": 51.210278426691126
    }, 
    {
      "latmax": 51.231594909079995, 
      "name": "Madridstraat", 
      "lonmin": 2.91383780769893, 
      "sanName": "madridstraat", 
      "numOfAddr": 15, 
      "lonmax": 2.9142666999269466, 
      "latmin": 51.23107972795843
    }, 
    {
      "latmax": 51.21673459102237, 
      "name": "Manestraat", 
      "lonmin": 2.9389709391116754, 
      "sanName": "manestraat", 
      "numOfAddr": 12, 
      "lonmax": 2.939692964005883, 
      "latmin": 51.21623363039906
    }, 
    {
      "latmax": 51.21806464319235, 
      "name": "Manitobalaan", 
      "lonmin": 2.9302690179695055, 
      "sanName": "manitobalaan", 
      "numOfAddr": 21, 
      "lonmax": 2.931417108529737, 
      "latmin": 51.21694333280288
    }, 
    {
      "latmax": 51.234810670835735, 
      "name": "Mansveldstraat", 
      "lonmin": 2.944330653361762, 
      "sanName": "mansveldstraat", 
      "numOfAddr": 33, 
      "lonmax": 2.9486639307533893, 
      "latmin": 51.232972517717215
    }, 
    {
      "latmax": 51.21371031889088, 
      "name": "Marconistraat", 
      "lonmin": 2.9356199097888047, 
      "sanName": "marconistraat", 
      "numOfAddr": 29, 
      "lonmax": 2.9397389097423554, 
      "latmin": 51.211410332767855
    }, 
    {
      "latmax": 51.218875344210915, 
      "name": "Maria-Hendrikapark", 
      "lonmin": 2.933632379649269, 
      "sanName": "mariahendrikapark", 
      "numOfAddr": 1, 
      "lonmax": 2.933632379649269, 
      "latmin": 51.218875344210915
    }, 
    {
      "latmax": 51.234555754435725, 
      "name": "Mariahofstraat", 
      "lonmin": 2.9188874053064726, 
      "sanName": "mariahofstraat", 
      "numOfAddr": 2, 
      "lonmax": 2.9194329337001865, 
      "latmin": 51.23421724790502
    }, 
    {
      "latmax": 51.214153720594275, 
      "name": "Mariakerkelaan", 
      "lonmin": 2.8860938536926644, 
      "sanName": "mariakerkelaan", 
      "numOfAddr": 287, 
      "lonmax": 2.9125660222305783, 
      "latmin": 51.211622476737176
    }, 
    {
      "latmax": 51.214572563921244, 
      "name": "Mariakerkeplein", 
      "lonmin": 2.8873462729447237, 
      "sanName": "mariakerkeplein", 
      "numOfAddr": 8, 
      "lonmax": 2.887515939310449, 
      "latmin": 51.21412940460881
    }, 
    {
      "latmax": 51.22495816017694, 
      "name": "Maria Theresiastraat", 
      "lonmin": 2.904568599518546, 
      "sanName": "mariatheresiastraat", 
      "numOfAddr": 52, 
      "lonmax": 2.906329288892625, 
      "latmin": 51.22352309206969
    }, 
    {
      "latmax": 51.22065215026684, 
      "name": "Marie Curielaan", 
      "lonmin": 2.9847739596963074, 
      "sanName": "mariecurielaan", 
      "numOfAddr": 1, 
      "lonmax": 2.9847739596963074, 
      "latmin": 51.22065215026684
    }, 
    {
      "latmax": 51.231042371930585, 
      "name": "Marie-Jos\u0082plein", 
      "lonmin": 2.913606266906298, 
      "sanName": "mariejosplein", 
      "numOfAddr": 7, 
      "lonmax": 2.9148320098912532, 
      "latmin": 51.2307799349929
    }, 
    {
      "latmax": 51.208027848335966, 
      "name": "Marie-Jos\u0082straat", 
      "lonmin": 2.8613596250926125, 
      "sanName": "mariejosstraat", 
      "numOfAddr": 10, 
      "lonmax": 2.8622071151753685, 
      "latmin": 51.20743576131365
    }, 
    {
      "latmax": 51.211970641739214, 
      "name": "Maurits Sabbestraat", 
      "lonmin": 2.9072608569642107, 
      "sanName": "mauritssabbestraat", 
      "numOfAddr": 40, 
      "lonmax": 2.9104868306768723, 
      "latmin": 51.20803798575162
    }, 
    {
      "latmax": 51.214703519764235, 
      "name": "Meerkoetstraat", 
      "lonmin": 2.8928787933618665, 
      "sanName": "meerkoetstraat", 
      "numOfAddr": 11, 
      "lonmax": 2.8941611495603747, 
      "latmin": 51.21382476022497
    }, 
    {
      "latmax": 51.20771952289187, 
      "name": "Meesstraat", 
      "lonmin": 2.933255464728963, 
      "sanName": "meesstraat", 
      "numOfAddr": 5, 
      "lonmax": 2.933631024284199, 
      "latmin": 51.2076502354962
    }, 
    {
      "latmax": 51.21728386865705, 
      "name": "Meeuwenlaan", 
      "lonmin": 2.9163729044153985, 
      "sanName": "meeuwenlaan", 
      "numOfAddr": 29, 
      "lonmax": 2.917195069115733, 
      "latmin": 51.215142425566086
    }, 
    {
      "latmax": 51.2165752437098, 
      "name": "Meibloempjeslaan", 
      "lonmin": 2.8798110481987758, 
      "sanName": "meibloempjeslaan", 
      "numOfAddr": 10, 
      "lonmax": 2.8805045431020173, 
      "latmin": 51.2158534372627
    }, 
    {
      "latmax": 51.21576663367914, 
      "name": "Meiboomlaan", 
      "lonmin": 2.917983349882974, 
      "sanName": "meiboomlaan", 
      "numOfAddr": 17, 
      "lonmax": 2.92061969553036, 
      "latmin": 51.21513944681005
    }, 
    {
      "latmax": 51.213585899761334, 
      "name": "Meidoornstraat", 
      "lonmin": 2.898193102739082, 
      "sanName": "meidoornstraat", 
      "numOfAddr": 44, 
      "lonmax": 2.8990849071897964, 
      "latmin": 51.212169885755
    }, 
    {
      "latmax": 51.204719620567815, 
      "name": "Melkerijstraat", 
      "lonmin": 2.9148253377895106, 
      "sanName": "melkerijstraat", 
      "numOfAddr": 21, 
      "lonmax": 2.916614353835011, 
      "latmin": 51.20388631259913
    }, 
    {
      "latmax": 51.22511952388608, 
      "name": "Mercatorlaan", 
      "lonmin": 2.91894793946723, 
      "sanName": "mercatorlaan", 
      "numOfAddr": 4, 
      "lonmax": 2.9206142355276627, 
      "latmin": 51.22128522686174
    }, 
    {
      "latmax": 51.21123658163046, 
      "name": "Merelstraat", 
      "lonmin": 2.930440393958988, 
      "sanName": "merelstraat", 
      "numOfAddr": 13, 
      "lonmax": 2.931533789398498, 
      "latmin": 51.21056581958639
    }, 
    {
      "latmax": 51.22131855056857, 
      "name": "Metselaarsstraat", 
      "lonmin": 2.902280253451764, 
      "sanName": "metselaarsstraat", 
      "numOfAddr": 65, 
      "lonmax": 2.9044888037010232, 
      "latmin": 51.21994595257679
    }, 
    {
      "latmax": 51.20738299418765, 
      "name": "Middenlaan", 
      "lonmin": 2.859558018046924, 
      "sanName": "middenlaan", 
      "numOfAddr": 74, 
      "lonmax": 2.8634095824063777, 
      "latmin": 51.20407657569446
    }, 
    {
      "latmax": 51.2333820183494, 
      "name": "Mijnplein", 
      "lonmin": 2.9198003449370424, 
      "sanName": "mijnplein", 
      "numOfAddr": 10, 
      "lonmax": 2.9205531329980206, 
      "latmin": 51.23308710166784
    }, 
    {
      "latmax": 51.207646137922474, 
      "name": "Mijterlaan", 
      "lonmin": 2.864898838053276, 
      "sanName": "mijterlaan", 
      "numOfAddr": 15, 
      "lonmax": 2.8664993735668993, 
      "latmin": 51.206321356570584
    }, 
    {
      "latmax": 51.21304221409959, 
      "name": "Mimosalaan", 
      "lonmin": 2.920603151515127, 
      "sanName": "mimosalaan", 
      "numOfAddr": 52, 
      "lonmax": 2.9279481993861203, 
      "latmin": 51.21121926924101
    }, 
    {
      "latmax": 51.206264247278426, 
      "name": "Mispelplein", 
      "lonmin": 2.911465620469367, 
      "sanName": "mispelplein", 
      "numOfAddr": 4, 
      "lonmax": 2.912034851681247, 
      "latmin": 51.20590931724322
    }, 
    {
      "latmax": 51.22276805933437, 
      "name": "Moerasstraat", 
      "lonmin": 2.910129495683363, 
      "sanName": "moerasstraat", 
      "numOfAddr": 9, 
      "lonmax": 2.9103243755296173, 
      "latmin": 51.2222680048189
    }, 
    {
      "latmax": 51.20381761429953, 
      "name": "Moerbeistraat", 
      "lonmin": 2.9720295569376267, 
      "sanName": "moerbeistraat", 
      "numOfAddr": 2, 
      "lonmax": 2.9725992116776316, 
      "latmin": 51.203551404540875
    }, 
    {
      "latmax": 51.2116008066651, 
      "name": "Molenaarsstraat", 
      "lonmin": 2.9061103027021375, 
      "sanName": "molenaarsstraat", 
      "numOfAddr": 57, 
      "lonmax": 2.9095899471289934, 
      "latmin": 51.21084733931445
    }, 
    {
      "latmax": 51.22101732058506, 
      "name": "Molendorpkaai", 
      "lonmin": 2.948618995256337, 
      "sanName": "molendorpkaai", 
      "numOfAddr": 7, 
      "lonmax": 2.949701165247475, 
      "latmin": 51.220857400908095
    }, 
    {
      "latmax": 51.19678335196688, 
      "name": "Molenhoekstraat", 
      "lonmin": 2.9773832030029137, 
      "sanName": "molenhoekstraat", 
      "numOfAddr": 51, 
      "lonmax": 2.9828600569584434, 
      "latmin": 51.19437935996641
    }, 
    {
      "latmax": 51.22281862120683, 
      "name": "Molenstraat", 
      "lonmin": 2.9078421018948397, 
      "sanName": "molenstraat", 
      "numOfAddr": 11, 
      "lonmax": 2.908458668547675, 
      "latmin": 51.22241241031806
    }, 
    {
      "latmax": 51.23156167396654, 
      "name": "Monacoplein", 
      "lonmin": 2.913123915434943, 
      "sanName": "monacoplein", 
      "numOfAddr": 5, 
      "lonmax": 2.9134834723150265, 
      "latmin": 51.231233247630655
    }, 
    {
      "latmax": 51.216000474497264, 
      "name": "Muntstraat", 
      "lonmin": 2.9341251097789915, 
      "sanName": "muntstraat", 
      "numOfAddr": 30, 
      "lonmax": 2.9346181013249426, 
      "latmin": 51.215048628097605
    }, 
    {
      "latmax": 51.226296766529984, 
      "name": "Muscarstraat", 
      "lonmin": 2.9077822643312348, 
      "sanName": "muscarstraat", 
      "numOfAddr": 40, 
      "lonmax": 2.9091268506839754, 
      "latmin": 51.22549323579027
    }, 
    {
      "latmax": 51.2130498369017, 
      "name": "Mutsaardstraat", 
      "lonmin": 2.9449415388078584, 
      "sanName": "mutsaardstraat", 
      "numOfAddr": 10, 
      "lonmax": 2.9453349052921247, 
      "latmin": 51.21244793330356
    }, 
    {
      "latmax": 51.21556598990483, 
      "name": "Nachtegalenlaan", 
      "lonmin": 2.9157079121221807, 
      "sanName": "nachtegalenlaan", 
      "numOfAddr": 53, 
      "lonmax": 2.9259299041789433, 
      "latmin": 51.214782084857276
    }, 
    {
      "latmax": 51.21923291017844, 
      "name": "Namenstraat", 
      "lonmin": 2.8859191325740206, 
      "sanName": "namenstraat", 
      "numOfAddr": 3, 
      "lonmax": 2.8863716252065466, 
      "latmin": 51.219008779668094
    }, 
    {
      "latmax": 51.234603708038364, 
      "name": "Napoleonlaan", 
      "lonmin": 2.9369650743032567, 
      "sanName": "napoleonlaan", 
      "numOfAddr": 3, 
      "lonmax": 2.938771836502627, 
      "latmin": 51.23375883175323
    }, 
    {
      "latmax": 51.21174600498102, 
      "name": "Narcissenlaan", 
      "lonmin": 2.878713336997204, 
      "sanName": "narcissenlaan", 
      "numOfAddr": 3, 
      "lonmax": 2.8788781248975956, 
      "latmin": 51.21130099715956
    }, 
    {
      "latmax": 51.23007630859985, 
      "name": "Nati\u0089nkaai", 
      "lonmin": 2.9256718159333386, 
      "sanName": "natinkaai", 
      "numOfAddr": 3, 
      "lonmax": 2.9286551701270143, 
      "latmin": 51.22551712675992
    }, 
    {
      "latmax": 51.21695463226891, 
      "name": "Nieuwedokstraat", 
      "lonmin": 2.9334152548576924, 
      "sanName": "nieuwedokstraat", 
      "numOfAddr": 53, 
      "lonmax": 2.93577496389822, 
      "latmin": 51.215641117575124
    }, 
    {
      "latmax": 51.216553021683325, 
      "name": "Nieuwelangestraat", 
      "lonmin": 2.934687514699454, 
      "sanName": "nieuwelangestraat", 
      "numOfAddr": 111, 
      "lonmax": 2.935542469333828, 
      "latmin": 51.213005897488785
    }, 
    {
      "latmax": 51.22970911728934, 
      "name": "Nieuwewerfkaai", 
      "lonmin": 2.938016442381173, 
      "sanName": "nieuwewerfkaai", 
      "numOfAddr": 6, 
      "lonmax": 2.939540226447642, 
      "latmin": 51.22853464885344
    }, 
    {
      "latmax": 51.21849043468099, 
      "name": "Nieuwlandstraat", 
      "lonmin": 2.907789914074177, 
      "sanName": "nieuwlandstraat", 
      "numOfAddr": 96, 
      "lonmax": 2.909196959774304, 
      "latmin": 51.214598092841534
    }, 
    {
      "latmax": 51.22466919326102, 
      "name": "Nieuwpoortsesteenweg", 
      "lonmin": 2.844303822948768, 
      "sanName": "nieuwpoortsesteenweg", 
      "numOfAddr": 572, 
      "lonmax": 2.908912064912084, 
      "latmin": 51.19571134155146
    }, 
    {
      "latmax": 51.23347466571729, 
      "name": "Nieuwstraat", 
      "lonmin": 2.919973807455003, 
      "sanName": "nieuwstraat", 
      "numOfAddr": 22, 
      "lonmax": 2.9215895753638335, 
      "latmin": 51.23254617959194
    }, 
    {
      "latmax": 51.22094272964288, 
      "name": "Nijverheidstraat", 
      "lonmin": 2.9057717377740055, 
      "sanName": "nijverheidstraat", 
      "numOfAddr": 84, 
      "lonmax": 2.9071439347623365, 
      "latmin": 51.21751192119215
    }, 
    {
      "latmax": 51.22872326205837, 
      "name": "Noord-Edestraat", 
      "lonmin": 2.941625364845612, 
      "sanName": "noordedestraat", 
      "numOfAddr": 51, 
      "lonmax": 2.9445493098178295, 
      "latmin": 51.22788766250257
    }, 
    {
      "latmax": 51.22084347769547, 
      "name": "Noordhinderstraat", 
      "lonmin": 2.939887153210247, 
      "sanName": "noordhinderstraat", 
      "numOfAddr": 1, 
      "lonmax": 2.939887153210247, 
      "latmin": 51.22084347769547
    }, 
    {
      "latmax": 51.21669154958582, 
      "name": "Noordstraat", 
      "lonmin": 2.9395453939681104, 
      "sanName": "noordstraat", 
      "numOfAddr": 9, 
      "lonmax": 2.94029172800061, 
      "latmin": 51.21633926147769
    }, 
    {
      "latmax": 51.234428205506056, 
      "name": "Noordzeestraat", 
      "lonmin": 2.9409297447225375, 
      "sanName": "noordzeestraat", 
      "numOfAddr": 31, 
      "lonmax": 2.9422703267174404, 
      "latmin": 51.2336450983076
    }, 
    {
      "latmax": 51.22005837956779, 
      "name": "Northlaan", 
      "lonmin": 2.8867976506348523, 
      "sanName": "northlaan", 
      "numOfAddr": 15, 
      "lonmax": 2.8912168787541352, 
      "latmin": 51.21650551174192
    }, 
    {
      "latmax": 51.21407866460069, 
      "name": "Notelaarsstraat", 
      "lonmin": 2.9122388919267235, 
      "sanName": "notelaarsstraat", 
      "numOfAddr": 33, 
      "lonmax": 2.914323695383863, 
      "latmin": 51.21363703807056
    }, 
    {
      "latmax": 51.226765973137105, 
      "name": "Oesterbankstraat", 
      "lonmin": 2.9237001742419633, 
      "sanName": "oesterbankstraat", 
      "numOfAddr": 21, 
      "lonmax": 2.925640069629093, 
      "latmin": 51.226310036285675
    }, 
    {
      "latmax": 51.211423552949974, 
      "name": "Olmenlaan", 
      "lonmin": 2.8970817132881734, 
      "sanName": "olmenlaan", 
      "numOfAddr": 28, 
      "lonmax": 2.899154154035928, 
      "latmin": 51.21020636740985
    }, 
    {
      "latmax": 51.21378552355784, 
      "name": "Onafhankelijkheidsstraat", 
      "lonmin": 2.897945533738394, 
      "sanName": "onafhankelijkheidsstraat", 
      "numOfAddr": 45, 
      "lonmax": 2.9046285571279857, 
      "latmin": 51.21273270161417
    }, 
    {
      "latmax": 51.203389485905035, 
      "name": "Ontworpenstraat", 
      "lonmin": 2.9141763977500617, 
      "sanName": "ontworpenstraat", 
      "numOfAddr": 10, 
      "lonmax": 2.9149268194085467, 
      "latmin": 51.2031129771259
    }, 
    {
      "latmax": 51.21754342084235, 
      "name": "Ooievaarslaan", 
      "lonmin": 2.9144539093744357, 
      "sanName": "ooievaarslaan", 
      "numOfAddr": 3, 
      "lonmax": 2.9154949355868345, 
      "latmin": 51.21676871180863
    }, 
    {
      "latmax": 51.217732270481704, 
      "name": "Oostendse-Haardstraat", 
      "lonmin": 2.8947465929902387, 
      "sanName": "oostendsehaardstraat", 
      "numOfAddr": 55, 
      "lonmax": 2.896133040351019, 
      "latmin": 51.216494959381414
    }, 
    {
      "latmax": 51.18653939736215, 
      "name": "Oostendsesteenweg", 
      "lonmin": 2.898003353048849, 
      "sanName": "oostendsesteenweg", 
      "numOfAddr": 1, 
      "lonmax": 2.898003353048849, 
      "latmin": 51.18653939736215
    }, 
    {
      "latmax": 51.23933502010325, 
      "name": "Oosthinderstraat", 
      "lonmin": 2.9411728270175863, 
      "sanName": "oosthinderstraat", 
      "numOfAddr": 58, 
      "lonmax": 2.945577981955868, 
      "latmin": 51.235522242411335
    }, 
    {
      "latmax": 51.23193394567309, 
      "name": "Ooststraat", 
      "lonmin": 2.917139450750589, 
      "sanName": "ooststraat", 
      "numOfAddr": 56, 
      "lonmax": 2.9221413188757692, 
      "latmin": 51.23003103665914
    },