{
  "streets": [
    {
      "latmax": 51.18636183184213, 
      "name": "Abdijlaan", 
      "lonmin": 3.007088170021982, 
      "sanName": "abdijlaan", 
      "numOfAddr": 32, 
      "lonmax": 3.013273259599833, 
      "latmin": 51.18484754255572
    }, 
    {
      "latmax": 51.180722986799346, 
      "name": "Aernoudstraat", 
      "lonmin": 3.010866212715993, 
      "sanName": "aernoudstraat", 
      "numOfAddr": 23, 
      "lonmax": 3.017349296845226, 
      "latmin": 51.179609513465515
    }, 
    {
      "latmax": 51.186406166605856, 
      "name": "Akkerstraat", 
      "lonmin": 2.9951973033506527, 
      "sanName": "akkerstraat", 
      "numOfAddr": 42, 
      "lonmax": 2.997206908525252, 
      "latmin": 51.18361120118937
    }, 
    {
      "latmax": 51.184861694952644, 
      "name": "Anjelierenstraat", 
      "lonmin": 3.0172693917434934, 
      "sanName": "anjelierenstraat", 
      "numOfAddr": 16, 
      "lonmax": 3.017972285665488, 
      "latmin": 51.184016543125146
    }, 
    {
      "latmax": 51.18840272254959, 
      "name": "Baarsstraat", 
      "lonmin": 3.00215719606963, 
      "sanName": "baarsstraat", 
      "numOfAddr": 7, 
      "lonmax": 3.003179337331845, 
      "latmin": 51.188005016367015
    }, 
    {
      "latmax": 51.18331751909678, 
      "name": "Bekestraat", 
      "lonmin": 3.0085947040106293, 
      "sanName": "bekestraat", 
      "numOfAddr": 30, 
      "lonmax": 3.011981779754958, 
      "latmin": 51.17856994101697
    }, 
    {
      "latmax": 51.16363737214452, 
      "name": "Berkenlaan", 
      "lonmin": 3.0093358779014565, 
      "sanName": "berkenlaan", 
      "numOfAddr": 10, 
      "lonmax": 3.010288643600098, 
      "latmin": 51.16323246682397
    }, 
    {
      "latmax": 51.18561362841636, 
      "name": "Bilkstraat", 
      "lonmin": 2.9961889842779406, 
      "sanName": "bilkstraat", 
      "numOfAddr": 12, 
      "lonmax": 2.997081548109429, 
      "latmin": 51.18498776336706
    }, 
    {
      "latmax": 51.164024017267685, 
      "name": "Blekerijstraat", 
      "lonmin": 3.014267362389301, 
      "sanName": "blekerijstraat", 
      "numOfAddr": 23, 
      "lonmax": 3.0158840078847367, 
      "latmin": 51.16170010834158
    }, 
    {
      "latmax": 51.1851601341807, 
      "name": "Bloemenlaan", 
      "lonmin": 3.014075342830151, 
      "sanName": "bloemenlaan", 
      "numOfAddr": 1, 
      "lonmax": 3.014075342830151, 
      "latmin": 51.1851601341807
    }, 
    {
      "latmax": 51.15164480113149, 
      "name": "Bourgognestraat", 
      "lonmin": 3.0221345571507494, 
      "sanName": "bourgognestraat", 
      "numOfAddr": 5, 
      "lonmax": 3.0326203053707173, 
      "latmin": 51.15112244477113
    }, 
    {
      "latmax": 51.19441098662901, 
      "name": "Bredevoorde", 
      "lonmin": 2.982218667555102, 
      "sanName": "bredevoorde", 
      "numOfAddr": 26, 
      "lonmax": 2.9851930703105425, 
      "latmin": 51.19312351052541
    }, 
    {
      "latmax": 51.19160784769821, 
      "name": "Bredeweghe", 
      "lonmin": 2.988411937198048, 
      "sanName": "bredeweghe", 
      "numOfAddr": 5, 
      "lonmax": 2.989531574782546, 
      "latmin": 51.191382139610226
    }, 
    {
      "latmax": 51.176518666374434, 
      "name": "Bremstraat", 
      "lonmin": 3.0396162919698066, 
      "sanName": "bremstraat", 
      "numOfAddr": 8, 
      "lonmax": 3.04025274655153, 
      "latmin": 51.17598374534937
    }, 
    {
      "latmax": 51.18474025679239, 
      "name": "Brouwerijstraat", 
      "lonmin": 2.9996549801502925, 
      "sanName": "brouwerijstraat", 
      "numOfAddr": 9, 
      "lonmax": 3.0012747563767013, 
      "latmin": 51.18358475644745
    }, 
    {
      "latmax": 51.17260095745711, 
      "name": "Brugsesteenweg", 
      "lonmin": 3.016170790137816, 
      "sanName": "brugsesteenweg", 
      "numOfAddr": 178, 
      "lonmax": 3.0524221538992418, 
      "latmin": 51.16410346440858
    }, 
    {
      "latmax": 51.1835295775762, 
      "name": "Burgstraat", 
      "lonmin": 2.9982408052727503, 
      "sanName": "burgstraat", 
      "numOfAddr": 33, 
      "lonmax": 3.0021829246636607, 
      "latmin": 51.18246970002249
    }, 
    {
      "latmax": 51.1939154514261, 
      "name": "Caelfstraat", 
      "lonmin": 2.981629656904435, 
      "sanName": "caelfstraat", 
      "numOfAddr": 2, 
      "lonmax": 2.9828552121148353, 
      "latmin": 51.19385684624834
    }, 
    {
      "latmax": 51.18545883014095, 
      "name": "Castellumstraat", 
      "lonmin": 3.0044977116647975, 
      "sanName": "castellumstraat", 
      "numOfAddr": 24, 
      "lonmax": 3.0055331455977816, 
      "latmin": 51.18506606404906
    }, 
    {
      "latmax": 51.21709080522517, 
      "name": "Clemensheulestraat", 
      "lonmin": 3.018657625881624, 
      "sanName": "clemensheulestraat", 
      "numOfAddr": 7, 
      "lonmax": 3.030290249254655, 
      "latmin": 51.20644053214084
    }, 
    {
      "latmax": 51.18550728116369, 
      "name": "Cono van Einelaan", 
      "lonmin": 3.0118613655232362, 
      "sanName": "conovaneinelaan", 
      "numOfAddr": 9, 
      "lonmax": 3.012567736665917, 
      "latmin": 51.184992962880386
    }, 
    {
      "latmax": 51.20377218327807, 
      "name": "Cotidianenstraat", 
      "lonmin": 3.020866160273473, 
      "sanName": "cotidianenstraat", 
      "numOfAddr": 2, 
      "lonmax": 3.0211889462287633, 
      "latmin": 51.203532428701486
    }, 
    {
      "latmax": 51.19253501301111, 
      "name": "Cottemweg", 
      "lonmin": 3.0079454896259348, 
      "sanName": "cottemweg", 
      "numOfAddr": 41, 
      "lonmax": 3.0150633259534243, 
      "latmin": 51.18425693375754
    }, 
    {
      "latmax": 51.16756829543021, 
      "name": "Cyriel Astaesstraat", 
      "lonmin": 3.011200149940444, 
      "sanName": "cyrielastaesstraat", 
      "numOfAddr": 10, 
      "lonmax": 3.01251370557739, 
      "latmin": 51.166938039431905
    }, 
    {
      "latmax": 51.18568183014582, 
      "name": "Dahliastraat", 
      "lonmin": 3.0155590016759835, 
      "sanName": "dahliastraat", 
      "numOfAddr": 8, 
      "lonmax": 3.0160352828228043, 
      "latmin": 51.18543349530324
    }, 
    {
      "latmax": 51.18151115776438, 
      "name": "Demoniemolenstraat", 
      "lonmin": 3.025873896067422, 
      "sanName": "demoniemolenstraat", 
      "numOfAddr": 3, 
      "lonmax": 3.026214233106392, 
      "latmin": 51.181408670987004
    }, 
    {
      "latmax": 51.181272496573094, 
      "name": "Dorpsstraat", 
      "lonmin": 3.025266695443306, 
      "sanName": "dorpsstraat", 
      "numOfAddr": 141, 
      "lonmax": 3.0403194874749055, 
      "latmin": 51.17803923072685
    }, 
    {
      "latmax": 51.172943776149054, 
      "name": "Duinenweg", 
      "lonmin": 3.048147486687116, 
      "sanName": "duinenweg", 
      "numOfAddr": 11, 
      "lonmax": 3.052528883193225, 
      "latmin": 51.16485203071576
    }, 
    {
      "latmax": 51.1908099849576, 
      "name": "Eendenstraat", 
      "lonmin": 2.9960232695861904, 
      "sanName": "eendenstraat", 
      "numOfAddr": 14, 
      "lonmax": 2.997712702817334, 
      "latmin": 51.189913710492654
    }, 
    {
      "latmax": 51.164298435200074, 
      "name": "Eernegemsestraat", 
      "lonmin": 3.015322876352079, 
      "sanName": "eernegemsestraat", 
      "numOfAddr": 114, 
      "lonmax": 3.0240577700919244, 
      "latmin": 51.151072150111055
    }, 
    {
      "latmax": 51.163135489126894, 
      "name": "Eikenlaan", 
      "lonmin": 3.0088225439401692, 
      "sanName": "eikenlaan", 
      "numOfAddr": 22, 
      "lonmax": 3.010722903635743, 
      "latmin": 51.1619355339313
    }, 
    {
      "latmax": 51.186540220917834, 
      "name": "Essenlaan", 
      "lonmin": 3.016437345860243, 
      "sanName": "essenlaan", 
      "numOfAddr": 4, 
      "lonmax": 3.016909517673848, 
      "latmin": 51.186363320256575
    }, 
    {
      "latmax": 51.17847321181186, 
      "name": "Essenthoplein", 
      "lonmin": 3.0320472250271693, 
      "sanName": "essenthoplein", 
      "numOfAddr": 2, 
      "lonmax": 3.0321146624511193, 
      "latmin": 51.178440711607266
    }, 
    {
      "latmax": 51.184645967772724, 
      "name": "Ettelgemsestraat", 
      "lonmin": 3.0076133940266634, 
      "sanName": "ettelgemsestraat", 
      "numOfAddr": 136, 
      "lonmax": 3.0247683220337884, 
      "latmin": 51.18112739282849
    }, 
    {
      "latmax": 51.190306474834216, 
      "name": "Ganzenstraat", 
      "lonmin": 2.9972636738713407, 
      "sanName": "ganzenstraat", 
      "numOfAddr": 9, 
      "lonmax": 2.9983278044564337, 
      "latmin": 51.189744679220105
    }, 
    {
      "latmax": 51.18428897148679, 
      "name": "Geleedstraat", 
      "lonmin": 2.972945850379159, 
      "sanName": "geleedstraat", 
      "numOfAddr": 1, 
      "lonmax": 2.972945850379159, 
      "latmin": 51.18428897148679
    }, 
    {
      "latmax": 51.19112217064057, 
      "name": "Geneverpiete", 
      "lonmin": 3.0017623571064487, 
      "sanName": "geneverpiete", 
      "numOfAddr": 11, 
      "lonmax": 3.004957830218747, 
      "latmin": 51.19088247100956
    }, 
    {
      "latmax": 51.18564165432289, 
      "name": "Geraniumstraat", 
      "lonmin": 3.0173699189431287, 
      "sanName": "geraniumstraat", 
      "numOfAddr": 4, 
      "lonmax": 3.0175466249511627, 
      "latmin": 51.18536287410136
    }, 
    {
      "latmax": 51.171451331338275, 
      "name": "Gerststraat", 
      "lonmin": 3.0297618718255412, 
      "sanName": "gerststraat", 
      "numOfAddr": 11, 
      "lonmax": 3.030473548030841, 
      "latmin": 51.17052239942551
    }, 
    {
      "latmax": 51.16465751972969, 
      "name": "Gistelsesteenweg", 
      "lonmin": 2.997148417807094, 
      "sanName": "gistelsesteenweg", 
      "numOfAddr": 142, 
      "lonmax": 3.0151911799359605, 
      "latmin": 51.15905308736317
    }, 
    {
      "latmax": 51.18246252543558, 
      "name": "Goedeboterstraat", 
      "lonmin": 2.989668150148198, 
      "sanName": "goedeboterstraat", 
      "numOfAddr": 67, 
      "lonmax": 3.0034120537938422, 
      "latmin": 51.180465552306096
    }, 
    {
      "latmax": 51.18985147257501, 
      "name": "Goesmansweg", 
      "lonmin": 3.0195188249617577, 
      "sanName": "goesmansweg", 
      "numOfAddr": 21, 
      "lonmax": 3.02047658322506, 
      "latmin": 51.18342171897429
    }, 
    {
      "latmax": 51.189045655236356, 
      "name": "Grietlaan", 
      "lonmin": 2.9986761063206475, 
      "sanName": "grietlaan", 
      "numOfAddr": 35, 
      "lonmax": 3.0014725482318867, 
      "latmin": 51.186887770272705
    }, 
    {
      "latmax": 51.19441910494499, 
      "name": "Groenedijkstraat", 
      "lonmin": 2.9791895157543506, 
      "sanName": "groenedijkstraat", 
      "numOfAddr": 8, 
      "lonmax": 2.989803977738578, 
      "latmin": 51.18900804840808
    }, 
    {
      "latmax": 51.18202073060744, 
      "name": "Groeningestraat", 
      "lonmin": 3.004773735889949, 
      "sanName": "groeningestraat", 
      "numOfAddr": 30, 
      "lonmax": 3.0077221276146124, 
      "latmin": 51.17968180123721
    }, 
    {
      "latmax": 51.18838593255374, 
      "name": "Haringstraat", 
      "lonmin": 3.0037642978967307, 
      "sanName": "haringstraat", 
      "numOfAddr": 3, 
      "lonmax": 3.0042512748334005, 
      "latmin": 51.18801936075576
    }, 
    {
      "latmax": 51.18710551771287, 
      "name": "Hariulfstraat", 
      "lonmin": 3.002177091767682, 
      "sanName": "hariulfstraat", 
      "numOfAddr": 7, 
      "lonmax": 3.0031565779112626, 
      "latmin": 51.18665136264238
    }, 
    {
      "latmax": 51.174217537482676, 
      "name": "Haspeslaghstraat", 
      "lonmin": 3.048802498558308, 
      "sanName": "haspeslaghstraat", 
      "numOfAddr": 23, 
      "lonmax": 3.0526550395152166, 
      "latmin": 51.17316165756497
    }, 
    {
      "latmax": 51.17140574192466, 
      "name": "Haverstraat", 
      "lonmin": 3.0307701504182294, 
      "sanName": "haverstraat", 
      "numOfAddr": 5, 
      "lonmax": 3.031454048657519, 
      "latmin": 51.17106446836453
    }, 
    {
      "latmax": 51.19538720839262, 
      "name": "Hillenweg", 
      "lonmin": 3.0423326656689302, 
      "sanName": "hillenweg", 
      "numOfAddr": 2, 
      "lonmax": 3.0487143658605347, 
      "latmin": 51.19377706697591
    }, 
    {
      "latmax": 51.17324376394154, 
      "name": "Hoge Dijken", 
      "lonmin": 3.0359742252518376, 
      "sanName": "hogedijken", 
      "numOfAddr": 18, 
      "lonmax": 3.0412917848632604, 
      "latmin": 51.1713565708263
    }, 
    {
      "latmax": 51.18365232293881, 
      "name": "Hoogstraat", 
      "lonmin": 3.0042819160222995, 
      "sanName": "hoogstraat", 
      "numOfAddr": 24, 
      "lonmax": 3.0065514613217963, 
      "latmin": 51.18243484312296
    }, 
    {
      "latmax": 51.18262968374045, 
      "name": "Hoogwegel", 
      "lonmin": 2.9970493414823385, 
      "sanName": "hoogwegel", 
      "numOfAddr": 59, 
      "lonmax": 3.00344615901423, 
      "latmin": 51.18204500501133
    }, 
    {
      "latmax": 51.18164396659084, 
      "name": "Hoveniersstraat", 
      "lonmin": 3.005357720686794, 
      "sanName": "hoveniersstraat", 
      "numOfAddr": 28, 
      "lonmax": 3.0071784986537113, 
      "latmin": 51.17966833167323
    }, 
    {
      "latmax": 51.182226633114, 
      "name": "Inkweg", 
      "lonmin": 3.000444384943949, 
      "sanName": "inkweg", 
      "numOfAddr": 4, 
      "lonmax": 3.0010704511709725, 
      "latmin": 51.18186088276036
    }, 
    {
      "latmax": 51.183229789051055, 
      "name": "Jeugdpad", 
      "lonmin": 2.9980975663307605, 
      "sanName": "jeugdpad", 
      "numOfAddr": 3, 
      "lonmax": 2.9986072356392506, 
      "latmin": 51.18307271183825
    }, 
    {
      "latmax": 51.18540074886607, 
      "name": "John Cordierpad", 
      "lonmin": 3.0058133546786836, 
      "sanName": "johncordierpad", 
      "numOfAddr": 2, 
      "lonmax": 3.005842958150298, 
      "latmin": 51.1852736116891
    }, 
    {
      "latmax": 51.18946700511297, 
      "name": "Kabeljauwstraat", 
      "lonmin": 3.0041962323990012, 
      "sanName": "kabeljauwstraat", 
      "numOfAddr": 13, 
      "lonmax": 3.0049131717052115, 
      "latmin": 51.1884494972129
    }, 
    {
      "latmax": 51.185310899125206, 
      "name": "Kapellestraat", 
      "lonmin": 3.0029945001244664, 
      "sanName": "kapellestraat", 
      "numOfAddr": 22, 
      "lonmax": 3.004765482265469, 
      "latmin": 51.18481631316043
    }, 
    {
      "latmax": 51.19552687240403, 
      "name": "Kapittelstraat", 
      "lonmin": 2.9733351083354673, 
      "sanName": "kapittelstraat", 
      "numOfAddr": 8, 
      "lonmax": 2.9746930078048144, 
      "latmin": 51.19063702829468
    }, 
    {
      "latmax": 51.18550494206559, 
      "name": "Karpelhofstraat", 
      "lonmin": 3.010376982429098, 
      "sanName": "karpelhofstraat", 
      "numOfAddr": 22, 
      "lonmax": 3.011569682868752, 
      "latmin": 51.18447381378583
    }, 
    {
      "latmax": 51.18670174490937, 
      "name": "Kastanjelaan", 
      "lonmin": 3.0155250799786235, 
      "sanName": "kastanjelaan", 
      "numOfAddr": 8, 
      "lonmax": 3.0160936095091326, 
      "latmin": 51.18642583894348
    }, 
    {
      "latmax": 51.185146765135045, 
      "name": "Kasteeldreef", 
      "lonmin": 2.996492312353061, 
      "sanName": "kasteeldreef", 
      "numOfAddr": 47, 
      "lonmax": 2.9998000723862046, 
      "latmin": 51.18178519311176
    }, 
    {
      "latmax": 51.187087945079774, 
      "name": "Keiweg", 
      "lonmin": 2.955039604432479, 
      "sanName": "keiweg", 
      "numOfAddr": 27, 
      "lonmax": 2.9956645268961393, 
      "latmin": 51.18008568554231
    }, 
    {
      "latmax": 51.18414122675201, 
      "name": "Kerkstraat", 
      "lonmin": 3.004284507912687, 
      "sanName": "kerkstraat", 
      "numOfAddr": 20, 
      "lonmax": 3.0054660767358934, 
      "latmin": 51.183237395388616
    }, 
    {
      "latmax": 51.213808474638185, 
      "name": "Klemskerksestraat", 
      "lonmin": 3.0380730285806994, 
      "sanName": "klemskerksestraat", 
      "numOfAddr": 8, 
      "lonmax": 3.04612525944592, 
      "latmin": 51.20150356262499
    }, 
    {
      "latmax": 51.177868400194605, 
      "name": "Klokkeput", 
      "lonmin": 3.038259696426683, 
      "sanName": "klokkeput", 
      "numOfAddr": 22, 
      "lonmax": 3.039430555408942, 
      "latmin": 51.17647979221372
    }, 
    {
      "latmax": 51.178184515150456, 
      "name": "Korte Vijfwegstraat", 
      "lonmin": 3.040214162184764, 
      "sanName": "kortevijfwegstraat", 
      "numOfAddr": 12, 
      "lonmax": 3.0406625035184245, 
      "latmin": 51.175120210583316
    }, 
    {
      "latmax": 51.19185612135857, 
      "name": "Krekenstraat", 
      "lonmin": 2.9454808469781484, 
      "sanName": "krekenstraat", 
      "numOfAddr": 1, 
      "lonmax": 2.9454808469781484, 
      "latmin": 51.19185612135857
    }, 
    {
      "latmax": 51.22164731534701, 
      "name": "Kwadeweg", 
      "lonmin": 3.008003046531419, 
      "sanName": "kwadeweg", 
      "numOfAddr": 9, 
      "lonmax": 3.0347776856133115, 
      "latmin": 51.21372478578249
    }, 
    {
      "latmax": 51.1918260454629, 
      "name": "Kwekerijstraat", 
      "lonmin": 2.9924964738545907, 
      "sanName": "kwekerijstraat", 
      "numOfAddr": 34, 
      "lonmax": 2.9975847517323184, 
      "latmin": 51.18975859580778
    }, 
    {
      "latmax": 51.16416556067876, 
      "name": "Landweg", 
      "lonmin": 3.0175339396818663, 
      "sanName": "landweg", 
      "numOfAddr": 4, 
      "lonmax": 3.0183278209399687, 
      "latmin": 51.16348062295298
    }, 
    {
      "latmax": 51.18692742049578, 
      "name": "Laurierenlaan", 
      "lonmin": 3.001460392480982, 
      "sanName": "laurierenlaan", 
      "numOfAddr": 14, 
      "lonmax": 3.002874553098658, 
      "latmin": 51.18586617944564
    }, 
    {
      "latmax": 51.18569282280237, 
      "name": "Leliestraat", 
      "lonmin": 3.0146554452911665, 
      "sanName": "leliestraat", 
      "numOfAddr": 8, 
      "lonmax": 3.0151118165823174, 
      "latmin": 51.18546956031944
    }, 
    {
      "latmax": 51.18611717339181, 
      "name": "Lijsterbeslaan", 
      "lonmin": 3.0164705271789196, 
      "sanName": "lijsterbeslaan", 
      "numOfAddr": 10, 
      "lonmax": 3.016963942663512, 
      "latmin": 51.185757438118195
    }, 
    {
      "latmax": 51.18629481647037, 
      "name": "Lindelaan", 
      "lonmin": 3.0140149000071936, 
      "sanName": "lindelaan", 
      "numOfAddr": 5, 
      "lonmax": 3.0175938961962285, 
      "latmin": 51.18621187378083
    }, 
    {
      "latmax": 51.18569665353652, 
      "name": "Louis Clesselaan", 
      "lonmin": 3.0012397359262346, 
      "sanName": "louisclesselaan", 
      "numOfAddr": 7, 
      "lonmax": 3.0026061655092913, 
      "latmin": 51.18527646121754
    }, 
    {
      "latmax": 51.18510995113382, 
      "name": "Madeliefjesstraat", 
      "lonmin": 3.0163276003108304, 
      "sanName": "madeliefjesstraat", 
      "numOfAddr": 18, 
      "lonmax": 3.016927485071928, 
      "latmin": 51.18382480333534
    }, 
    {
      "latmax": 51.189879809185115, 
      "name": "Makreelstraat", 
      "lonmin": 3.003398126850468, 
      "sanName": "makreelstraat", 
      "numOfAddr": 8, 
      "lonmax": 3.0049392363343506, 
      "latmin": 51.18959236250305
    }, 
    {
      "latmax": 51.184892645986004, 
      "name": "Mariastraat", 
      "lonmin": 3.002924725628625, 
      "sanName": "mariastraat", 
      "numOfAddr": 30, 
      "lonmax": 3.0060250208596146, 
      "latmin": 51.18367389374143
    }, 
    {
      "latmax": 51.18426343837672, 
      "name": "Marktplein", 
      "lonmin": 3.0063149037735877, 
      "sanName": "marktplein", 
      "numOfAddr": 15, 
      "lonmax": 3.007654092181341, 
      "latmin": 51.18336845642815
    }, 
    {
      "latmax": 51.186174688524616, 
      "name": "Marktstraat", 
      "lonmin": 3.0056742271504864, 
      "sanName": "marktstraat", 
      "numOfAddr": 35, 
      "lonmax": 3.0069480020393207, 
      "latmin": 51.184184149196604
    }, 
    {
      "latmax": 51.19595562776343, 
      "name": "Marteelstik", 
      "lonmin": 3.0083004215358495, 
      "sanName": "marteelstik", 
      "numOfAddr": 10, 
      "lonmax": 3.0094110443811775, 
      "latmin": 51.19523899373636
    }, 
    {
      "latmax": 51.17530911332887, 
      "name": "Massenhoveslag", 
      "lonmin": 2.978574898505554, 
      "sanName": "massenhoveslag", 
      "numOfAddr": 1, 
      "lonmax": 2.978574898505554, 
      "latmin": 51.17530911332887
    }, 
    {
      "latmax": 51.17536839381708, 
      "name": "Merelstraat", 
      "lonmin": 3.0010002846489603, 
      "sanName": "merelstraat", 
      "numOfAddr": 2, 
      "lonmax": 3.0053995448890576, 
      "latmin": 51.174940332899205
    }, 
    {
      "latmax": 51.19183591459168, 
      "name": "Middelburgstraat", 
      "lonmin": 3.016076391057866, 
      "sanName": "middelburgstraat", 
      "numOfAddr": 3, 
      "lonmax": 3.016558629367539, 
      "latmin": 51.191812663823725
    }, 
    {
      "latmax": 51.16264249675682, 
      "name": "Molenstraat", 
      "lonmin": 3.0018451168885987, 
      "sanName": "molenstraat", 
      "numOfAddr": 3, 
      "lonmax": 3.00417607220859, 
      "latmin": 51.161794097930525
    }, 
    {
      "latmax": 51.1903538107394, 
      "name": "Mosselstraat", 
      "lonmin": 3.003598009923632, 
      "sanName": "mosselstraat", 
      "numOfAddr": 4, 
      "lonmax": 3.0040612725217, 
      "latmin": 51.189886467493295
    }, 
    {
      "latmax": 51.18519663455688, 
      "name": "Narcissenstraat", 
      "lonmin": 3.0156030824712206, 
      "sanName": "narcissenstraat", 
      "numOfAddr": 8, 
      "lonmax": 3.016073970077945, 
      "latmin": 51.18493647431541
    }, 
    {
      "latmax": 51.17991417664002, 
      "name": "Nieuwstraat", 
      "lonmin": 3.0052345820849697, 
      "sanName": "nieuwstraat", 
      "numOfAddr": 46, 
      "lonmax": 3.01021791075177, 
      "latmin": 51.178923522713745
    }, 
    {
      "latmax": 51.18096942273546, 
      "name": "Noordstraat", 
      "lonmin": 2.9798197199119576, 
      "sanName": "noordstraat", 
      "numOfAddr": 20, 
      "lonmax": 3.001454992974219, 
      "latmin": 51.160774601231786
    }, 
    {
      "latmax": 51.18630401482866, 
      "name": "Norbertus Dagheletstraat", 
      "lonmin": 3.002981755985883, 
      "sanName": "norbertusdagheletstraat", 
      "numOfAddr": 2, 
      "lonmax": 3.00314144082597, 
      "latmin": 51.186014133503534
    }, 
    {
      "latmax": 51.18678005718331, 
      "name": "Olmenlaan", 
      "lonmin": 3.0146307814137048, 
      "sanName": "olmenlaan", 
      "numOfAddr": 8, 
      "lonmax": 3.015085311494655, 
      "latmin": 51.186507539839745
    }, 
    {
      "latmax": 51.16218698131554, 
      "name": "Ossenweg", 
      "lonmin": 3.019385984307985, 
      "sanName": "ossenweg", 
      "numOfAddr": 21, 
      "lonmax": 3.0330806185932992, 
      "latmin": 51.159340035105615
    }, 
    {
      "latmax": 51.158057418590566, 
      "name": "Oude Blekerijstraat", 
      "lonmin": 3.0188775020854037, 
      "sanName": "oudeblekerijstraat", 
      "numOfAddr": 2, 
      "lonmax": 3.020631075139088, 
      "latmin": 51.155928094435026
    }, 
    {
      "latmax": 51.174790075320246, 
      "name": "Oude Brugseweg_01", 
      "lonmin": 3.0098508832974864, 
      "sanName": "oudebrugseweg01", 
      "numOfAddr": 198, 
      "lonmax": 3.0522863567352294, 
      "latmin": 51.16450949956254
    }, 
    {
      "latmax": 51.17344752637301, 
      "name": "Oude Gistelseweg", 
      "lonmin": 2.9977287193011213, 
      "sanName": "oudegistelseweg", 
      "numOfAddr": 17, 
      "lonmax": 3.0079612457014115, 
      "latmin": 51.16511418665936
    }, 
    {
      "latmax": 51.17936398163467, 
      "name": "Oudekerkstraat", 
      "lonmin": 3.0242181265643895, 
      "sanName": "oudekerkstraat", 
      "numOfAddr": 29, 
      "lonmax": 3.0322262871608006, 
      "latmin": 51.17429086874583
    }, 
    {
      "latmax": 51.179483062021625, 
      "name": "Oudekerkwegel", 
      "lonmin": 3.0300607341913595, 
      "sanName": "oudekerkwegel", 
      "numOfAddr": 22, 
      "lonmax": 3.03326168079273, 
      "latmin": 51.177959454688605
    }, 
    {
      "latmax": 51.2005395960302, 
      "name": "Paddegatstraat", 
      "lonmin": 3.037546021796647, 
      "sanName": "paddegatstraat", 
      "numOfAddr": 13, 
      "lonmax": 3.042259216214748, 
      "latmin": 51.179247822947396
    }, 
    {
      "latmax": 51.18951716159447, 
      "name": "Palingstraat", 
      "lonmin": 3.0032142226039467, 
      "sanName": "palingstraat", 
      "numOfAddr": 15, 
      "lonmax": 3.0039637071082512, 
      "latmin": 51.18839160261012
    }, 
    {
      "latmax": 51.17939298089144, 
      "name": "Papperstraat", 
      "lonmin": 3.000616252303275, 
      "sanName": "papperstraat", 
      "numOfAddr": 6, 
      "lonmax": 3.0042763518154803, 
      "latmin": 51.17863180152617
    }, 
    {
      "latmax": 51.162237182422444, 
      "name": "Pardoenstraat", 
      "lonmin": 3.00426769379182, 
      "sanName": "pardoenstraat", 
      "numOfAddr": 16, 
      "lonmax": 3.0188076819967486, 
      "latmin": 51.154846826608534
    }, 
    {
      "latmax": 51.17194101604475, 
      "name": "Pastoriestraat", 
      "lonmin": 3.0314515627701915, 
      "sanName": "pastoriestraat", 
      "numOfAddr": 18, 
      "lonmax": 3.032919615951748, 
      "latmin": 51.169054838627936
    }, 
    {
      "latmax": 51.16201007607171, 
      "name": "Peterseliestraat", 
      "lonmin": 3.0143363149407025, 
      "sanName": "peterseliestraat", 
      "numOfAddr": 4, 
      "lonmax": 3.0148777522015515, 
      "latmin": 51.16182227004441
    }, 
    {
      "latmax": 51.188084731803634, 
      "name": "Pladijsstraat", 
      "lonmin": 3.0043338962569277, 
      "sanName": "pladijsstraat", 
      "numOfAddr": 13, 
      "lonmax": 3.0053089699666877, 
      "latmin": 51.187030792660416
    }, 
    {
      "latmax": 51.20960189247926, 
      "name": "Plassendale", 
      "lonmin": 3.0030060352232546, 
      "sanName": "plassendale", 
      "numOfAddr": 14, 
      "lonmax": 3.0049808963213294, 
      "latmin": 51.20691966941868
    }, 
    {
      "latmax": 51.18688964195952, 
      "name": "Polder", 
      "lonmin": 2.940183608344204, 
      "sanName": "polder", 
      "numOfAddr": 39, 
      "lonmax": 2.993833130647245, 
      "latmin": 51.17929376217542
    }, 
    {
      "latmax": 51.197876931641545, 
      "name": "Pompestraat", 
      "lonmin": 3.021006602629349, 
      "sanName": "pompestraat", 
      "numOfAddr": 18, 
      "lonmax": 3.0326554460628605, 
      "latmin": 51.183337813074424
    }, 
    {
      "latmax": 51.186183849133286, 
      "name": "Populierenlaan", 
      "lonmin": 3.0156275559678285, 
      "sanName": "populierenlaan", 
      "numOfAddr": 12, 
      "lonmax": 3.0161552155507496, 
      "latmin": 51.185793077370754
    }, 
    {
      "latmax": 51.201187273147724, 
      "name": "Puidebroekstraat", 
      "lonmin": 3.017161170741243, 
      "sanName": "puidebroekstraat", 
      "numOfAddr": 2, 
      "lonmax": 3.0179916514284164, 
      "latmin": 51.2005858071151
    }, 
    {
      "latmax": 51.18652415020104, 
      "name": "Rapha\u0089l de Mercatellisstraat", 
      "lonmin": 3.0009344608510484, 
      "sanName": "raphaldemercatellisstraat", 
      "numOfAddr": 3, 
      "lonmax": 3.001439513730069, 
      "latmin": 51.186341382842336
    }, 
    {
      "latmax": 51.17869711739081, 
      "name": "Redinnestraat", 
      "lonmin": 3.005911928141789, 
      "sanName": "redinnestraat", 
      "numOfAddr": 6, 
      "lonmax": 3.0083231745879173, 
      "latmin": 51.17680417661712
    }, 
    {
      "latmax": 51.19000453394597, 
      "name": "Reigerstraat", 
      "lonmin": 2.9939249621152304, 
      "sanName": "reigerstraat", 
      "numOfAddr": 21, 
      "lonmax": 2.9960632038432164, 
      "latmin": 51.18882728051595
    }, 
    {
      "latmax": 51.171165728681835, 
      "name": "Roggestraat", 
      "lonmin": 3.0288015372234063, 
      "sanName": "roggestraat", 
      "numOfAddr": 7, 
      "lonmax": 3.0296126531170593, 
      "latmin": 51.17039914221262
    }, 
    {
      "latmax": 51.1625988579323, 
      "name": "Rozemarijnstraat", 
      "lonmin": 3.0132959355903752, 
      "sanName": "rozemarijnstraat", 
      "numOfAddr": 1, 
      "lonmax": 3.0132959355903752, 
      "latmin": 51.1625988579323
    }, 
    {
      "latmax": 51.18102591253907, 
      "name": "Rozenlaan", 
      "lonmin": 3.001959861740269, 
      "sanName": "rozenlaan", 
      "numOfAddr": 40, 
      "lonmax": 3.0040191863996277, 
      "latmin": 51.17876502784402
    }, 
    {
      "latmax": 51.190783365984984, 
      "name": "Scharstraat", 
      "lonmin": 3.0019023902906996, 
      "sanName": "scharstraat", 
      "numOfAddr": 11, 
      "lonmax": 3.003743127801516, 
      "latmin": 51.19048923769557
    }, 
    {
      "latmax": 51.190673400941776, 
      "name": "Scholstraat", 
      "lonmin": 3.0041920178472314, 
      "sanName": "scholstraat", 
      "numOfAddr": 8, 
      "lonmax": 3.00497226087224, 
      "latmin": 51.19033386491221
    }, 
    {
      "latmax": 51.18214145205426, 
      "name": "Schoolstraat", 
      "lonmin": 3.026569572788171, 
      "sanName": "schoolstraat", 
      "numOfAddr": 26, 
      "lonmax": 3.029742426528397, 
      "latmin": 51.18037638923864
    }, 
    {
      "latmax": 51.19025001213915, 
      "name": "Schorrendijk", 
      "lonmin": 2.938262538783919, 
      "sanName": "schorrendijk", 
      "numOfAddr": 2, 
      "lonmax": 2.9399580184423812, 
      "latmin": 51.18677703115227
    }, 
    {
      "latmax": 51.18659753800866, 
      "name": "Sint-Pietersstraat", 
      "lonmin": 3.0020568918440107, 
      "sanName": "sintpietersstraat", 
      "numOfAddr": 57, 
      "lonmax": 3.0055334321847336, 
      "latmin": 51.18485420012782
    }, 
    {
      "latmax": 51.16520533976217, 
      "name": "Sithiustraat", 
      "lonmin": 3.0121581733976495, 
      "sanName": "sithiustraat", 
      "numOfAddr": 8, 
      "lonmax": 3.012578667741672, 
      "latmin": 51.16475809735791
    }, 
    {
      "latmax": 51.19147868838128, 
      "name": "Sneppenstraat", 
      "lonmin": 2.997367226707376, 
      "sanName": "sneppenstraat", 
      "numOfAddr": 12, 
      "lonmax": 2.9989060634807876, 
      "latmin": 51.19025363700202
    }, 
    {
      "latmax": 51.18800538858314, 
      "name": "Snoekstraat", 
      "lonmin": 3.003278458877501, 
      "sanName": "snoekstraat", 
      "numOfAddr": 17, 
      "lonmax": 3.0043461371492706, 
      "latmin": 51.186177135638
    }, 
    {
      "latmax": 51.19367185468957, 
      "name": "Spikkelboorstraat", 
      "lonmin": 3.0287646779419646, 
      "sanName": "spikkelboorstraat", 
      "numOfAddr": 10, 
      "lonmax": 3.0347991027012395, 
      "latmin": 51.18823961115371
    }, 
    {
      "latmax": 51.205674096557495, 
      "name": "Stationsstraat", 
      "lonmin": 3.0039993247169017, 
      "sanName": "stationsstraat", 
      "numOfAddr": 104, 
      "lonmax": 3.0110945036902637, 
      "latmin": 51.188184163929776
    }, 
    {
      "latmax": 51.1823588414144, 
      "name": "Stedebeekpad", 
      "lonmin": 3.0054278432881496, 
      "sanName": "stedebeekpad", 
      "numOfAddr": 2, 
      "lonmax": 3.0064505895081557, 
      "latmin": 51.18229934371838
    }, 
    {
      "latmax": 51.171026860468736, 
      "name": "Tarwestraat", 
      "lonmin": 3.0325526558524665, 
      "sanName": "tarwestraat", 
      "numOfAddr": 4, 
      "lonmax": 3.0335162250655796, 
      "latmin": 51.17089244514949
    }, 
    {
      "latmax": 51.16331524760915, 
      "name": "Tijmstraat", 
      "lonmin": 3.0135642051773446, 
      "sanName": "tijmstraat", 
      "numOfAddr": 17, 
      "lonmax": 3.014628682224806, 
      "latmin": 51.16212148110851
    }, 
    {
      "latmax": 51.181011609415854, 
      "name": "Torhoutweg", 
      "lonmin": 3.0235784532322585, 
      "sanName": "torhoutweg", 
      "numOfAddr": 8, 
      "lonmax": 3.0250613185756285, 
      "latmin": 51.18018797563794
    }, 
    {
      "latmax": 51.185222200892355, 
      "name": "Tulpenstraat", 
      "lonmin": 3.014541792311122, 
      "sanName": "tulpenstraat", 
      "numOfAddr": 15, 
      "lonmax": 3.0151220773386562, 
      "latmin": 51.1842803637053
    }, 
    {
      "latmax": 51.211722147236664, 
      "name": "Vaartdijk-Noord", 
      "lonmin": 3.00128874392003, 
      "sanName": "vaartdijknoord", 
      "numOfAddr": 7, 
      "lonmax": 3.052384068178023, 
      "latmin": 51.20135917122136
    }, 
    {
      "latmax": 51.20946952206255, 
      "name": "Vaartdijk-Zuid", 
      "lonmin": 3.004915741410679, 
      "sanName": "vaartdijkzuid", 
      "numOfAddr": 10, 
      "lonmax": 3.0333110087739352, 
      "latmin": 51.202060487709616
    }, 
    {
      "latmax": 51.19259235501636, 
      "name": "Vaartstraat", 
      "lonmin": 2.996345884625814, 
      "sanName": "vaartstraat", 
      "numOfAddr": 28, 
      "lonmax": 3.0042042754138922, 
      "latmin": 51.187701247458335
    }, 
    {
      "latmax": 51.185802507235096, 
      "name": "Vanderheydestraat", 
      "lonmin": 2.997362512174207, 
      "sanName": "vanderheydestraat", 
      "numOfAddr": 21, 
      "lonmax": 2.998860726970108, 
      "latmin": 51.185101184321915
    }, 
    {
      "latmax": 51.16890314156883, 
      "name": "Vanderkinderenweg", 
      "lonmin": 3.034765598978946, 
      "sanName": "vanderkinderenweg", 
      "numOfAddr": 15, 
      "lonmax": 3.0420767272571245, 
      "latmin": 51.16260320596728
    }, 
    {
      "latmax": 51.1872360122194, 
      "name": "Velemeipad", 
      "lonmin": 3.001931939769742, 
      "sanName": "velemeipad", 
      "numOfAddr": 1, 
      "lonmax": 3.001931939769742, 
      "latmin": 51.1872360122194
    }, 
    {
      "latmax": 51.19583984523174, 
      "name": "Verhelststraat", 
      "lonmin": 3.006568499838329, 
      "sanName": "verhelststraat", 
      "numOfAddr": 12, 
      "lonmax": 3.0089343645049835, 
      "latmin": 51.194670801223296
    }, 
    {
      "latmax": 51.16928247811491, 
      "name": "Vervlotenweg", 
      "lonmin": 3.007715620237691, 
      "sanName": "vervlotenweg", 
      "numOfAddr": 41, 
      "lonmax": 3.0119063872130307, 
      "latmin": 51.16487573757432
    }, 
    {
      "latmax": 51.1781546330495, 
      "name": "Vijfwegstraat", 
      "lonmin": 3.032918631871569, 
      "sanName": "vijfwegstraat", 
      "numOfAddr": 89, 
      "lonmax": 3.0401040757164814, 
      "latmin": 51.174872062671824
    }, 
    {
      "latmax": 51.185613550779486, 
      "name": "Violierenstraat", 
      "lonmin": 3.0164157114314847, 
      "sanName": "violierenstraat", 
      "numOfAddr": 6, 
      "lonmax": 3.0168501077572336, 
      "latmin": 51.185394984664
    }, 
    {
      "latmax": 51.19044216973866, 
      "name": "Vissersstraat", 
      "lonmin": 2.9993970328518564, 
      "sanName": "vissersstraat", 
      "numOfAddr": 54, 
      "lonmax": 3.0028111338190495, 
      "latmin": 51.18585311031517
    }, 
    {
      "latmax": 51.184711910677144, 
      "name": "Vrijboomstraat", 
      "lonmin": 3.0203559916617797, 
      "sanName": "vrijboomstraat", 
      "numOfAddr": 36, 
      "lonmax": 3.0251942685507145, 
      "latmin": 51.1824954319818
    }, 
    {
      "latmax": 51.159028067682826, 
      "name": "Waerevaartstraat", 
      "lonmin": 2.9997963443426654, 
      "sanName": "waerevaartstraat", 
      "numOfAddr": 7, 
      "lonmax": 3.0047364837997694, 
      "latmin": 51.154508574733555
    }, 
    {
      "latmax": 51.18983619840281, 
      "name": "Waterhoenstraat", 
      "lonmin": 2.9934730926432684, 
      "sanName": "waterhoenstraat", 
      "numOfAddr": 16, 
      "lonmax": 2.9952452763906163, 
      "latmin": 51.18861021766628
    }, 
    {
      "latmax": 51.174049614303364, 
      "name": "Waterstraat", 
      "lonmin": 2.999862195115893, 
      "sanName": "waterstraat", 
      "numOfAddr": 10, 
      "lonmax": 3.0061298047425145, 
      "latmin": 51.16878755369553
    }, 
    {
      "latmax": 51.18225813713068, 
      "name": "Westkerksestraat", 
      "lonmin": 3.0035947376855994, 
      "sanName": "westkerksestraat", 
      "numOfAddr": 129, 
      "lonmax": 3.01611765067224, 
      "latmin": 51.16485706611178
    }, 
    {
      "latmax": 51.184753726717986, 
      "name": "Weststraat", 
      "lonmin": 3.0016180212235946, 
      "sanName": "weststraat", 
      "numOfAddr": 35, 
      "lonmax": 3.0041028700283947, 
      "latmin": 51.18241951594639
    }, 
    {
      "latmax": 51.1897671841995, 
      "name": "Wijtingstraat", 
      "lonmin": 3.002831544150627, 
      "sanName": "wijtingstraat", 
      "numOfAddr": 3, 
      "lonmax": 3.0031930789829073, 
      "latmin": 51.18946254142666
    }, 
    {
      "latmax": 51.18623543313192, 
      "name": "Wilgenlaan", 
      "lonmin": 3.014617326823789, 
      "sanName": "wilgenlaan", 
      "numOfAddr": 12, 
      "lonmax": 3.0150897389454347, 
      "latmin": 51.18585939885479
    }, 
    {
      "latmax": 51.1904412979334, 
      "name": "Wullokstraat", 
      "lonmin": 3.0020550690192422, 
      "sanName": "wullokstraat", 
      "numOfAddr": 10, 
      "lonmax": 3.0028382015126405, 
      "latmin": 51.189404775809116
    }, 
    {
      "latmax": 51.1965862590746, 
      "name": "Zandvoordsestraat", 
      "lonmin": 2.983343544075922, 
      "sanName": "zandvoordsestraat", 
      "numOfAddr": 189, 
      "lonmax": 3.0018947943472987, 
      "latmin": 51.184836033385636
    }, 
    {
      "latmax": 51.18325161337995, 
      "name": "Zeeweg", 
      "lonmin": 3.0149596631296904, 
      "sanName": "zeeweg", 
      "numOfAddr": 77, 
      "lonmax": 3.0334209139313386, 
      "latmin": 51.15688652469761
    }, 
    {
      "latmax": 51.17934451371724, 
      "name": "Zerkegemsestraat", 
      "lonmin": 3.0437928617450396, 
      "sanName": "zerkegemsestraat", 
      "numOfAddr": 3, 
      "lonmax": 3.045844390470255, 
      "latmin": 51.17861301973423
    }, 
    {
      "latmax": 51.19721894647113, 
      "name": "Zomerweg", 
      "lonmin": 3.014191485654891, 
      "sanName": "zomerweg", 
      "numOfAddr": 9, 
      "lonmax": 3.017949302727463, 
      "latmin": 51.19044048140333
    }, 
    {
      "latmax": 51.163698546930426, 
      "name": "Zuidstraat", 
      "lonmin": 3.010455634899895, 
      "sanName": "zuidstraat", 
      "numOfAddr": 24, 
      "lonmax": 3.012290301753007, 
      "latmin": 51.16260295127192
    }, 
    {
      "latmax": 51.20970731301091, 
      "name": "Zwaanhoek", 
      "lonmin": 2.996105792505608, 
      "sanName": "zwaanhoek", 
      "numOfAddr": 35, 
      "lonmax": 3.005791229886705, 
      "latmin": 51.188291442348095
    }, 
    {
      "latmax": 51.19044765055604, 
      "name": "Zwanenstraat", 
      "lonmin": 2.9950590961697974, 
      "sanName": "zwanenstraat", 
      "numOfAddr": 17, 
      "lonmax": 2.9970453744314, 
      "latmin": 51.18914402065862
    }
  ]
}