{
  "streets": [
    {
      "latmax": 50.84026096706029, 
      "name": "Acacialaan", 
      "lonmin": 3.2985994460904413, 
      "sanName": "acacialaan", 
      "numOfAddr": 105, 
      "lonmax": 3.310236416506464, 
      "latmin": 50.83809330511781
    }, 
    {
      "latmax": 50.84817818597681, 
      "name": "Albrecht Rodenbachlaan", 
      "lonmin": 3.3016162459363056, 
      "sanName": "albrechtrodenbachlaan", 
      "numOfAddr": 28, 
      "lonmax": 3.3040568102347114, 
      "latmin": 50.84635594803208
    }, 
    {
      "latmax": 50.85836058378832, 
      "name": "Amerikalaan", 
      "lonmin": 3.324064412739862, 
      "sanName": "amerikalaan", 
      "numOfAddr": 55, 
      "lonmax": 3.3279598467717926, 
      "latmin": 50.85723706134313
    }, 
    {
      "latmax": 50.85765053253657, 
      "name": "Amerikastraat", 
      "lonmin": 3.324475558178023, 
      "sanName": "amerikastraat", 
      "numOfAddr": 15, 
      "lonmax": 3.325556000496983, 
      "latmin": 50.85708621707782
    }, 
    {
      "latmax": 50.85365613873079, 
      "name": "Andries Pevernagestraat", 
      "lonmin": 3.3066167110656983, 
      "sanName": "andriespevernagestraat", 
      "numOfAddr": 90, 
      "lonmax": 3.3097341529338546, 
      "latmin": 50.85120965106461
    }, 
    {
      "latmax": 50.857575034742815, 
      "name": "Arendsstraat", 
      "lonmin": 3.3181621735512796, 
      "sanName": "arendsstraat", 
      "numOfAddr": 120, 
      "lonmax": 3.325888276346064, 
      "latmin": 50.85042767179725
    }, 
    {
      "latmax": 50.856037583151725, 
      "name": "Ballingenweg", 
      "lonmin": 3.3078788830191606, 
      "sanName": "ballingenweg", 
      "numOfAddr": 19, 
      "lonmax": 3.31251507845603, 
      "latmin": 50.85389001842928
    }, 
    {
      "latmax": 50.8664124674215, 
      "name": "Bavikhoofsestraat", 
      "lonmin": 3.3025888304056306, 
      "sanName": "bavikhoofsestraat", 
      "numOfAddr": 32, 
      "lonmax": 3.3082962148560604, 
      "latmin": 50.8619545410354
    }, 
    {
      "latmax": 50.85768930689722, 
      "name": "Beeklaan", 
      "lonmin": 3.3187876392240634, 
      "sanName": "beeklaan", 
      "numOfAddr": 25, 
      "lonmax": 3.3229319244710767, 
      "latmin": 50.85677886121051
    }, 
    {
      "latmax": 50.83258438918237, 
      "name": "Beneluxlaan", 
      "lonmin": 3.3226636320894825, 
      "sanName": "beneluxlaan", 
      "numOfAddr": 5, 
      "lonmax": 3.326207512873221, 
      "latmin": 50.82681163947985
    }, 
    {
      "latmax": 50.846163345659605, 
      "name": "Berkenlaan", 
      "lonmin": 3.2965820331379065, 
      "sanName": "berkenlaan", 
      "numOfAddr": 118, 
      "lonmax": 3.306329412164159, 
      "latmin": 50.83891847005182
    }, 
    {
      "latmax": 50.86797440589184, 
      "name": "Beverhoek", 
      "lonmin": 3.319410290711651, 
      "sanName": "beverhoek", 
      "numOfAddr": 2, 
      "lonmax": 3.3235644972467995, 
      "latmin": 50.867530087401164
    }, 
    {
      "latmax": 50.8650857471107, 
      "name": "Beversestraat", 
      "lonmin": 3.3156340245680065, 
      "sanName": "beversestraat", 
      "numOfAddr": 109, 
      "lonmax": 3.3203521011237664, 
      "latmin": 50.85939172247142
    }, 
    {
      "latmax": 50.854628723106046, 
      "name": "Bistierland", 
      "lonmin": 3.3306518190128207, 
      "sanName": "bistierland", 
      "numOfAddr": 3, 
      "lonmax": 3.331985574037483, 
      "latmin": 50.85401475937724
    }, 
    {
      "latmax": 50.85297017650966, 
      "name": "Bleekput", 
      "lonmin": 3.3183875024343945, 
      "sanName": "bleekput", 
      "numOfAddr": 29, 
      "lonmax": 3.320081532239918, 
      "latmin": 50.85183356263884
    }, 
    {
      "latmax": 50.82538295051183, 
      "name": "Blokkestraat", 
      "lonmin": 3.326158659297393, 
      "sanName": "blokkestraat", 
      "numOfAddr": 5, 
      "lonmax": 3.3342477733836793, 
      "latmin": 50.82238196776745
    }, 
    {
      "latmax": 50.83609406362976, 
      "name": "Boekweitstraat", 
      "lonmin": 3.316692345495699, 
      "sanName": "boekweitstraat", 
      "numOfAddr": 56, 
      "lonmax": 3.3192183105475945, 
      "latmin": 50.83423398150262
    }, 
    {
      "latmax": 50.834583142989466, 
      "name": "Boerderijstraat", 
      "lonmin": 3.294479070684184, 
      "sanName": "boerderijstraat", 
      "numOfAddr": 9, 
      "lonmax": 3.298540132860669, 
      "latmin": 50.831935015466605
    }, 
    {
      "latmax": 50.83077423703075, 
      "name": "Bosdreef", 
      "lonmin": 3.309772307331914, 
      "sanName": "bosdreef", 
      "numOfAddr": 54, 
      "lonmax": 3.313577422069506, 
      "latmin": 50.829166689246435
    }, 
    {
      "latmax": 50.858695549807365, 
      "name": "Boterpotstraat", 
      "lonmin": 3.315361505280588, 
      "sanName": "boterpotstraat", 
      "numOfAddr": 30, 
      "lonmax": 3.316554638519492, 
      "latmin": 50.85805721327315
    }, 
    {
      "latmax": 50.85487506677989, 
      "name": "Broekplein", 
      "lonmin": 3.322831809373959, 
      "sanName": "broekplein", 
      "numOfAddr": 20, 
      "lonmax": 3.3243847769239476, 
      "latmin": 50.85408803768866
    }, 
    {
      "latmax": 50.85895673272452, 
      "name": "Broelkaai", 
      "lonmin": 3.3078425774600015, 
      "sanName": "broelkaai", 
      "numOfAddr": 1, 
      "lonmax": 3.3078425774600015, 
      "latmin": 50.85895673272452
    }, 
    {
      "latmax": 50.864664125304515, 
      "name": "Broelstraat", 
      "lonmin": 3.305998872520464, 
      "sanName": "broelstraat", 
      "numOfAddr": 58, 
      "lonmax": 3.3109730178655923, 
      "latmin": 50.85958119425722
    }, 
    {
      "latmax": 50.83176924995319, 
      "name": "Brouwerijstraat", 
      "lonmin": 3.3146647489385797, 
      "sanName": "brouwerijstraat", 
      "numOfAddr": 55, 
      "lonmax": 3.31820493334041, 
      "latmin": 50.828530948953095
    }, 
    {
      "latmax": 50.83157650578057, 
      "name": "Brouwerspark", 
      "lonmin": 3.316142083705694, 
      "sanName": "brouwerspark", 
      "numOfAddr": 9, 
      "lonmax": 3.3170828256392566, 
      "latmin": 50.83068388448559
    }, 
    {
      "latmax": 50.88231533840741, 
      "name": "Burgemeester Brabantstraat", 
      "lonmin": 3.2854193820360105, 
      "sanName": "burgemeesterbrabantstraat", 
      "numOfAddr": 28, 
      "lonmax": 3.314945809422236, 
      "latmin": 50.859321066457866
    }, 
    {
      "latmax": 50.83130216449302, 
      "name": "Cantecleerstraat", 
      "lonmin": 3.3198258301595778, 
      "sanName": "cantecleerstraat", 
      "numOfAddr": 14, 
      "lonmax": 3.320549707728881, 
      "latmin": 50.83073150777114
    }, 
    {
      "latmax": 50.86355054925317, 
      "name": "Damweg", 
      "lonmin": 3.314904615508832, 
      "sanName": "damweg", 
      "numOfAddr": 10, 
      "lonmax": 3.316329302339987, 
      "latmin": 50.861883618799496
    }, 
    {
      "latmax": 50.86043184146621, 
      "name": "Deerlijksesteenweg", 
      "lonmin": 3.320802120233032, 
      "sanName": "deerlijksesteenweg", 
      "numOfAddr": 125, 
      "lonmax": 3.3326124918875326, 
      "latmin": 50.85486481563369
    }, 
    {
      "latmax": 50.860132659824465, 
      "name": "Deerlijksestraat", 
      "lonmin": 3.317400558366811, 
      "sanName": "deerlijksestraat", 
      "numOfAddr": 46, 
      "lonmax": 3.320399249392667, 
      "latmin": 50.85947821079851
    }, 
    {
      "latmax": 50.84638702194334, 
      "name": "Dennenhof", 
      "lonmin": 3.3077420330592897, 
      "sanName": "dennenhof", 
      "numOfAddr": 20, 
      "lonmax": 3.3083756617829096, 
      "latmin": 50.84558152345462
    }, 
    {
      "latmax": 50.846165994048995, 
      "name": "Dennenlaan", 
      "lonmin": 3.3041723635578366, 
      "sanName": "dennenlaan", 
      "numOfAddr": 45, 
      "lonmax": 3.308042771570685, 
      "latmin": 50.84372758978495
    }, 
    {
      "latmax": 50.83171024697737, 
      "name": "De Sterre", 
      "lonmin": 3.308204838367057, 
      "sanName": "desterre", 
      "numOfAddr": 12, 
      "lonmax": 3.3086792388094697, 
      "latmin": 50.83127614977458
    }, 
    {
      "latmax": 50.850359699228186, 
      "name": "De Teerlink", 
      "lonmin": 3.3146854804299477, 
      "sanName": "deteerlink", 
      "numOfAddr": 39, 
      "lonmax": 3.3167912134447195, 
      "latmin": 50.84821798400077
    }, 
    {
      "latmax": 50.861434354075996, 
      "name": "Eierstraat", 
      "lonmin": 3.3058798521271675, 
      "sanName": "eierstraat", 
      "numOfAddr": 26, 
      "lonmax": 3.3073075405514825, 
      "latmin": 50.86016620494438
    }, 
    {
      "latmax": 50.84016475449496, 
      "name": "Eikenstraat", 
      "lonmin": 3.311007318171679, 
      "sanName": "eikenstraat", 
      "numOfAddr": 88, 
      "lonmax": 3.32587399749722, 
      "latmin": 50.83668863916947
    }, 
    {
      "latmax": 50.837853303578015, 
      "name": "Eiktronk", 
      "lonmin": 3.3361793184069373, 
      "sanName": "eiktronk", 
      "numOfAddr": 4, 
      "lonmax": 3.340826237932606, 
      "latmin": 50.835856548109476
    }, 
    {
      "latmax": 50.85477016939272, 
      "name": "Eilandstraat", 
      "lonmin": 3.313445862232566, 
      "sanName": "eilandstraat", 
      "numOfAddr": 20, 
      "lonmax": 3.314656615062862, 
      "latmin": 50.85368697753978
    }, 
    {
      "latmax": 50.84941473614593, 
      "name": "Elfde-Julistraat", 
      "lonmin": 3.2945422089888607, 
      "sanName": "elfdejulistraat", 
      "numOfAddr": 110, 
      "lonmax": 3.302195066675345, 
      "latmin": 50.84166375220194
    }, 
    {
      "latmax": 50.84297102873795, 
      "name": "Elzenlaan", 
      "lonmin": 3.3009046413240304, 
      "sanName": "elzenlaan", 
      "numOfAddr": 23, 
      "lonmax": 3.3045714438254477, 
      "latmin": 50.84178093278075
    }, 
    {
      "latmax": 50.84354260680368, 
      "name": "Esdoornweg", 
      "lonmin": 3.301889624084497, 
      "sanName": "esdoornweg", 
      "numOfAddr": 14, 
      "lonmax": 3.3031136426728436, 
      "latmin": 50.84245673005959
    }, 
    {
      "latmax": 50.865143311181946, 
      "name": "Evangeliestraat", 
      "lonmin": 3.3279407962061094, 
      "sanName": "evangeliestraat", 
      "numOfAddr": 46, 
      "lonmax": 3.3316075669286254, 
      "latmin": 50.86306604746226
    }, 
    {
      "latmax": 50.822271281936025, 
      "name": "evolis", 
      "lonmin": 3.309998106609275, 
      "sanName": "evolis", 
      "numOfAddr": 1, 
      "lonmax": 3.309998106609275, 
      "latmin": 50.822271281936025
    }, 
    {
      "latmax": 50.85227021542231, 
      "name": "Fazantenstraat", 
      "lonmin": 3.321841957090612, 
      "sanName": "fazantenstraat", 
      "numOfAddr": 13, 
      "lonmax": 3.324099778833428, 
      "latmin": 50.851486555258816
    }, 
    {
      "latmax": 50.84255989019688, 
      "name": "Forestier Ingelramstraat", 
      "lonmin": 3.2894366663774046, 
      "sanName": "forestieringelramstraat", 
      "numOfAddr": 26, 
      "lonmax": 3.293998774200382, 
      "latmin": 50.84010219907706
    }, 
    {
      "latmax": 50.861208220592154, 
      "name": "Forestier Liederikstraat", 
      "lonmin": 3.313961476802827, 
      "sanName": "forestierliederikstraat", 
      "numOfAddr": 14, 
      "lonmax": 3.3156737331067974, 
      "latmin": 50.860610874378835
    }, 
    {
      "latmax": 50.85960282051445, 
      "name": "Forestiersstraat", 
      "lonmin": 3.3159902329111377, 
      "sanName": "forestiersstraat", 
      "numOfAddr": 53, 
      "lonmax": 3.3186084207198046, 
      "latmin": 50.85866459911211
    }, 
    {
      "latmax": 50.8550512370147, 
      "name": "Frankrijklaan", 
      "lonmin": 3.3245912791049457, 
      "sanName": "frankrijklaan", 
      "numOfAddr": 21, 
      "lonmax": 3.3256114668530077, 
      "latmin": 50.85435466746786
    }, 
    {
      "latmax": 50.855322651066146, 
      "name": "Gaversstraat", 
      "lonmin": 3.313483190243157, 
      "sanName": "gaversstraat", 
      "numOfAddr": 116, 
      "lonmax": 3.3209730303530955, 
      "latmin": 50.848929826515125
    }, 
    {
      "latmax": 50.83697089354199, 
      "name": "Generaal Deprezstraat", 
      "lonmin": 3.3076004362273523, 
      "sanName": "generaaldeprezstraat", 
      "numOfAddr": 106, 
      "lonmax": 3.316940006770657, 
      "latmin": 50.83081660119987
    }, 
    {
      "latmax": 50.86658559212589, 
      "name": "Gentsesteenweg", 
      "lonmin": 3.3171575851264037, 
      "sanName": "gentsesteenweg", 
      "numOfAddr": 126, 
      "lonmax": 3.335106367346673, 
      "latmin": 50.8598937009356
    }, 
    {
      "latmax": 50.860046875359004, 
      "name": "Gentsestraat", 
      "lonmin": 3.312413872434923, 
      "sanName": "gentsestraat", 
      "numOfAddr": 76, 
      "lonmax": 3.317460896587203, 
      "latmin": 50.85703409759898
    }, 
    {
      "latmax": 50.83416943386184, 
      "name": "Gerststraat", 
      "lonmin": 3.3164882124217496, 
      "sanName": "gerststraat", 
      "numOfAddr": 46, 
      "lonmax": 3.3194531412594874, 
      "latmin": 50.832723425831674
    }, 
    {
      "latmax": 50.842942602838754, 
      "name": "Goedendagstraat", 
      "lonmin": 3.296301392291568, 
      "sanName": "goedendagstraat", 
      "numOfAddr": 7, 
      "lonmax": 3.2970091776281767, 
      "latmin": 50.842451894581664
    }, 
    {
      "latmax": 50.851999389197786, 
      "name": "Goudberg", 
      "lonmin": 3.3185339254802626, 
      "sanName": "goudberg", 
      "numOfAddr": 45, 
      "lonmax": 3.3208368376194395, 
      "latmin": 50.850281393674656
    }, 
    {
      "latmax": 50.85247311899523, 
      "name": "Goudwinde", 
      "lonmin": 3.32036675432985, 
      "sanName": "goudwinde", 
      "numOfAddr": 22, 
      "lonmax": 3.3218000448559954, 
      "latmin": 50.849814416629734
    }, 
    {
      "latmax": 50.860665210301995, 
      "name": "Graaf Boudewijn I-straat", 
      "lonmin": 3.313864772700433, 
      "sanName": "graafboudewijnistraat", 
      "numOfAddr": 55, 
      "lonmax": 3.3160275923338576, 
      "latmin": 50.85891784214432
    }, 
    {
      "latmax": 50.83335249028018, 
      "name": "Gravenstraat", 
      "lonmin": 3.345840211540193, 
      "sanName": "gravenstraat", 
      "numOfAddr": 3, 
      "lonmax": 3.3483295439755976, 
      "latmin": 50.83130425980156
    }, 
    {
      "latmax": 50.86314384132929, 
      "name": "Gravin Adelahof", 
      "lonmin": 3.319551280248625, 
      "sanName": "gravinadelahof", 
      "numOfAddr": 4, 
      "lonmax": 3.320178939529681, 
      "latmin": 50.862606516469725
    }, 
    {
      "latmax": 50.83321406647264, 
      "name": "Groendreef", 
      "lonmin": 3.3102738665646623, 
      "sanName": "groendreef", 
      "numOfAddr": 27, 
      "lonmax": 3.3118287192255815, 
      "latmin": 50.831804100071906
    }, 
    {
      "latmax": 50.84743886934116, 
      "name": "Groeningestraat", 
      "lonmin": 3.298839645393765, 
      "sanName": "groeningestraat", 
      "numOfAddr": 50, 
      "lonmax": 3.301666007787323, 
      "latmin": 50.84521140965994
    }, 
    {
      "latmax": 50.858919153593725, 
      "name": "Groot-Brittanjelaan", 
      "lonmin": 3.32314852415402, 
      "sanName": "grootbrittanjelaan", 
      "numOfAddr": 67, 
      "lonmax": 3.3244399694987496, 
      "latmin": 50.85539643577058
    }, 
    {
      "latmax": 50.84727121796539, 
      "name": "Gulden-Sporenstraat", 
      "lonmin": 3.302139731585567, 
      "sanName": "guldensporenstraat", 
      "numOfAddr": 83, 
      "lonmax": 3.308832532264403, 
      "latmin": 50.84463607573271
    }, 
    {
      "latmax": 50.83221570969864, 
      "name": "Hallestraat", 
      "lonmin": 3.305085540877361, 
      "sanName": "hallestraat", 
      "numOfAddr": 28, 
      "lonmax": 3.3067170213992485, 
      "latmin": 50.83083776011722
    }, 
    {
      "latmax": 50.83867031332917, 
      "name": "Harlemboislaan", 
      "lonmin": 3.290587517659547, 
      "sanName": "harlemboislaan", 
      "numOfAddr": 20, 
      "lonmax": 3.293505674829698, 
      "latmin": 50.83557580927107
    }, 
    {
      "latmax": 50.84100190728034, 
      "name": "Hazelaarsdreef", 
      "lonmin": 3.3086234245794057, 
      "sanName": "hazelaarsdreef", 
      "numOfAddr": 21, 
      "lonmax": 3.3099420874993686, 
      "latmin": 50.83930842699046
    }, 
    {
      "latmax": 50.85090897585114, 
      "name": "Heerbaan", 
      "lonmin": 3.309244624030842, 
      "sanName": "heerbaan", 
      "numOfAddr": 176, 
      "lonmax": 3.328654974011201, 
      "latmin": 50.84698047616683
    }, 
    {
      "latmax": 50.84995403235561, 
      "name": "Hendrik Consciencehof", 
      "lonmin": 3.3032389896506364, 
      "sanName": "hendrikconsciencehof", 
      "numOfAddr": 9, 
      "lonmax": 3.3041206027238683, 
      "latmin": 50.84926709708404
    }, 
    {
      "latmax": 50.85060324311254, 
      "name": "Hendrik Consciencestraat", 
      "lonmin": 3.303741558680194, 
      "sanName": "hendrikconsciencestraat", 
      "numOfAddr": 28, 
      "lonmax": 3.305988309407136, 
      "latmin": 50.84903669873664
    }, 
    {
      "latmax": 50.84034080620434, 
      "name": "Herdersstraat", 
      "lonmin": 3.288491091022999, 
      "sanName": "herdersstraat", 
      "numOfAddr": 17, 
      "lonmax": 3.2904913449475295, 
      "latmin": 50.838893945949025
    }, 
    {
      "latmax": 50.83151570668241, 
      "name": "Hermelijnstraat", 
      "lonmin": 3.3188685995861373, 
      "sanName": "hermelijnstraat", 
      "numOfAddr": 20, 
      "lonmax": 3.31960782607946, 
      "latmin": 50.83016138834927
    }, 
    {
      "latmax": 50.83340802620734, 
      "name": "Hermitage", 
      "lonmin": 3.306172752041312, 
      "sanName": "hermitage", 
      "numOfAddr": 45, 
      "lonmax": 3.309636233052015, 
      "latmin": 50.8317322760847
    }, 
    {
      "latmax": 50.8559165115988, 
      "name": "Herpelsstraat", 
      "lonmin": 3.3246904715969747, 
      "sanName": "herpelsstraat", 
      "numOfAddr": 89, 
      "lonmax": 3.3302357850442266, 
      "latmin": 50.85253807033216
    }, 
    {
      "latmax": 50.84216655110314, 
      "name": "Hippodroomstraat", 
      "lonmin": 3.28741294633335, 
      "sanName": "hippodroomstraat", 
      "numOfAddr": 69, 
      "lonmax": 3.2944889805669555, 
      "latmin": 50.838113941142346
    }, 
    {
      "latmax": 50.858338517752564, 
      "name": "Hospitaalstraat", 
      "lonmin": 3.311475637651907, 
      "sanName": "hospitaalstraat", 
      "numOfAddr": 1, 
      "lonmax": 3.311475637651907, 
      "latmin": 50.858338517752564
    }, 
    {
      "latmax": 50.84157961686804, 
      "name": "Hugo Verrieststraat", 
      "lonmin": 3.2941203560161783, 
      "sanName": "hugoverrieststraat", 
      "numOfAddr": 17, 
      "lonmax": 3.295000370791838, 
      "latmin": 50.84095036054923
    }, 
    {
      "latmax": 50.83460942099078, 
      "name": "Iepersestraat", 
      "lonmin": 3.327560609851985, 
      "sanName": "iepersestraat", 
      "numOfAddr": 28, 
      "lonmax": 3.3455648906270645, 
      "latmin": 50.82776741742884
    }, 
    {
      "latmax": 50.84535318169812, 
      "name": "Jan Borluutstraat", 
      "lonmin": 3.2981923976078606, 
      "sanName": "janborluutstraat", 
      "numOfAddr": 9, 
      "lonmax": 3.2994917941331625, 
      "latmin": 50.84488193227079
    }, 
    {
      "latmax": 50.84511078414864, 
      "name": "Jan Breydelstraat", 
      "lonmin": 3.2952270922739486, 
      "sanName": "janbreydelstraat", 
      "numOfAddr": 95, 
      "lonmax": 3.301024040084258, 
      "latmin": 50.840490794102706
    }, 
    {
      "latmax": 50.84133487109439, 
      "name": "Julius Sabbestraat", 
      "lonmin": 3.2917293041841487, 
      "sanName": "juliussabbestraat", 
      "numOfAddr": 15, 
      "lonmax": 3.293425201931266, 
      "latmin": 50.839827220143256
    }, 
    {
      "latmax": 50.834219126400576, 
      "name": "Kamutstraat", 
      "lonmin": 3.32201645144908, 
      "sanName": "kamutstraat", 
      "numOfAddr": 2, 
      "lonmax": 3.3221346252728163, 
      "latmin": 50.83411454305742
    }, 
    {
      "latmax": 50.82734815112123, 
      "name": "Kanaalstraat", 
      "lonmin": 3.3058167415921593, 
      "sanName": "kanaalstraat", 
      "numOfAddr": 3, 
      "lonmax": 3.313546344642736, 
      "latmin": 50.82617554485797
    }, 
    {
      "latmax": 50.85922724783339, 
      "name": "Kapittelstraat", 
      "lonmin": 3.314707930206038, 
      "sanName": "kapittelstraat", 
      "numOfAddr": 6, 
      "lonmax": 3.3149568273383276, 
      "latmin": 50.85906729596262
    }, 
    {
      "latmax": 50.84169880890198, 
      "name": "Kastanjelaan", 
      "lonmin": 3.3022750666252647, 
      "sanName": "kastanjelaan", 
      "numOfAddr": 27, 
      "lonmax": 3.304519950440735, 
      "latmin": 50.83991935791668
    }, 
    {
      "latmax": 50.8267088365307, 
      "name": "Keizershoek", 
      "lonmin": 3.317995356011744, 
      "sanName": "keizershoek", 
      "numOfAddr": 36, 
      "lonmax": 3.3204553081812516, 
      "latmin": 50.82556773171209
    }, 
    {
      "latmax": 50.826236054614476, 
      "name": "Keizersstraat", 
      "lonmin": 3.3091286233076365, 
      "sanName": "keizersstraat", 
      "numOfAddr": 56, 
      "lonmax": 3.3210912499498457, 
      "latmin": 50.824449041918804
    }, 
    {
      "latmax": 50.84304467730256, 
      "name": "Kerselaarslaan", 
      "lonmin": 3.3033053526304834, 
      "sanName": "kerselaarslaan", 
      "numOfAddr": 9, 
      "lonmax": 3.3042299550278584, 
      "latmin": 50.84227410803725
    }, 
    {
      "latmax": 50.8382304431079, 
      "name": "Kindelstraat", 
      "lonmin": 3.292012375930977, 
      "sanName": "kindelstraat", 
      "numOfAddr": 14, 
      "lonmax": 3.2933613621978877, 
      "latmin": 50.837715952863284
    }, 
    {
      "latmax": 50.83879144034134, 
      "name": "Kinheimstraat", 
      "lonmin": 3.291437028206977, 
      "sanName": "kinheimstraat", 
      "numOfAddr": 22, 
      "lonmax": 3.293007091581434, 
      "latmin": 50.838009363419964
    }, 
    {
      "latmax": 50.85355873880409, 
      "name": "Klaroenstraat", 
      "lonmin": 3.331299306335623, 
      "sanName": "klaroenstraat", 
      "numOfAddr": 5, 
      "lonmax": 3.3318598947028746, 
      "latmin": 50.85331376021153
    }, 
    {
      "latmax": 50.86111544006792, 
      "name": "Kleine Waregemsestraat", 
      "lonmin": 3.3258182620768926, 
      "sanName": "kleinewaregemsestraat", 
      "numOfAddr": 17, 
      "lonmax": 3.3291347176059083, 
      "latmin": 50.85891830047608
    }, 
    {
      "latmax": 50.83395565711315, 
      "name": "Klein Katrol", 
      "lonmin": 3.3092453455595106, 
      "sanName": "kleinkatrol", 
      "numOfAddr": 8, 
      "lonmax": 3.310665635172369, 
      "latmin": 50.833213713898694
    }, 
    {
      "latmax": 50.82899069823365, 
      "name": "Klinkaardstraat", 
      "lonmin": 3.3149637999500383, 
      "sanName": "klinkaardstraat", 
      "numOfAddr": 10, 
      "lonmax": 3.316727170981776, 
      "latmin": 50.82852394939005
    }, 
    {
      "latmax": 50.8366669257426, 
      "name": "Klokkeput", 
      "lonmin": 3.313578618317879, 
      "sanName": "klokkeput", 
      "numOfAddr": 31, 
      "lonmax": 3.3167410439804237, 
      "latmin": 50.83551522047562
    }, 
    {
      "latmax": 50.84287402339811, 
      "name": "Kollegelaan", 
      "lonmin": 3.299205698192827, 
      "sanName": "kollegelaan", 
      "numOfAddr": 90, 
      "lonmax": 3.3091157602152053, 
      "latmin": 50.8390149026957
    }, 
    {
      "latmax": 50.84310946302841, 
      "name": "Kollegeplein", 
      "lonmin": 3.304452102911378, 
      "sanName": "kollegeplein", 
      "numOfAddr": 15, 
      "lonmax": 3.3064107930391495, 
      "latmin": 50.84059018919007
    }, 
    {
      "latmax": 50.85697601105172, 
      "name": "Koning Albertlaan", 
      "lonmin": 3.3242773168358024, 
      "sanName": "koningalbertlaan", 
      "numOfAddr": 39, 
      "lonmax": 3.326317479356028, 
      "latmin": 50.85601362589123
    }, 
    {
      "latmax": 50.85527974786039, 
      "name": "Koningin Astridlaan", 
      "lonmin": 3.324540858619226, 
      "sanName": "koninginastridlaan", 
      "numOfAddr": 69, 
      "lonmax": 3.3274029534448983, 
      "latmin": 50.85331126626964
    }, 
    {
      "latmax": 50.856126090595936, 
      "name": "Koning Leopold III-laan", 
      "lonmin": 3.3205914902980314, 
      "sanName": "koningleopoldiiilaan", 
      "numOfAddr": 15, 
      "lonmax": 3.3218169336344756, 
      "latmin": 50.85560088553376
    }, 
    {
      "latmax": 50.857260127199645, 
      "name": "Koning Leopold III-plein", 
      "lonmin": 3.320115348762215, 
      "sanName": "koningleopoldiiiplein", 
      "numOfAddr": 35, 
      "lonmax": 3.3234409501865425, 
      "latmin": 50.85582053555818
    }, 
    {
      "latmax": 50.86406185769752, 
      "name": "Korenbloemstraat", 
      "lonmin": 3.3040786535435376, 
      "sanName": "korenbloemstraat", 
      "numOfAddr": 82, 
      "lonmax": 3.309275059950894, 
      "latmin": 50.86197967032463
    }, 
    {
      "latmax": 50.85212456387679, 
      "name": "Kortrijksesteenweg", 
      "lonmin": 3.286632564494463, 
      "sanName": "kortrijksesteenweg", 
      "numOfAddr": 239, 
      "lonmax": 3.304780001864858, 
      "latmin": 50.83886359299326
    }, 
    {
      "latmax": 50.85398014939883, 
      "name": "Kortrijksestraat", 
      "lonmin": 3.305204465936155, 
      "sanName": "kortrijksestraat", 
      "numOfAddr": 47, 
      "lonmax": 3.3075882301700017, 
      "latmin": 50.85157485665724
    }, 
    {
      "latmax": 50.84990574212624, 
      "name": "Kouterstraat", 
      "lonmin": 3.3093336542933276, 
      "sanName": "kouterstraat", 
      "numOfAddr": 56, 
      "lonmax": 3.3118797926475643, 
      "latmin": 50.84818182399654
    }, 
    {
      "latmax": 50.83224792191124, 
      "name": "Kruiske", 
      "lonmin": 3.306378151205508, 
      "sanName": "kruiske", 
      "numOfAddr": 30, 
      "lonmax": 3.3086692287765382, 
      "latmin": 50.83133430916508
    }, 
    {
      "latmax": 50.83056568744058, 
      "name": "Kuipersstraat", 
      "lonmin": 3.3134124880704774, 
      "sanName": "kuipersstraat", 
      "numOfAddr": 23, 
      "lonmax": 3.3157859290688494, 
      "latmin": 50.829399579115375
    }, 
    {
      "latmax": 50.85402057910102, 
      "name": "Labrusstraat", 
      "lonmin": 3.3234622183756493, 
      "sanName": "labrusstraat", 
      "numOfAddr": 16, 
      "lonmax": 3.3245192488525777, 
      "latmin": 50.85331506060344
    }, 
    {
      "latmax": 50.85742770327538, 
      "name": "Leiestraat", 
      "lonmin": 3.309220930246931, 
      "sanName": "leiestraat", 
      "numOfAddr": 10, 
      "lonmax": 3.3099399236410756, 
      "latmin": 50.85682756232659
    }, 
    {
      "latmax": 50.84397230857373, 
      "name": "Lindenlaan", 
      "lonmin": 3.3030596936297028, 
      "sanName": "lindenlaan", 
      "numOfAddr": 10, 
      "lonmax": 3.3045283131115055, 
      "latmin": 50.84317292816804
    }, 
    {
      "latmax": 50.863401273940056, 
      "name": "Lissebroek", 
      "lonmin": 3.3329769028397225, 
      "sanName": "lissebroek", 
      "numOfAddr": 2, 
      "lonmax": 3.3368861703643353, 
      "latmin": 50.86110396502912
    }, 
    {
      "latmax": 50.82771846526664, 
      "name": "Luipaardstraat", 
      "lonmin": 3.3042853244753956, 
      "sanName": "luipaardstraat", 
      "numOfAddr": 36, 
      "lonmax": 3.3132793003732957, 
      "latmin": 50.81946939170346
    }, 
    {
      "latmax": 50.85709859324864, 
      "name": "Luxemburghof", 
      "lonmin": 3.3264521807518252, 
      "sanName": "luxemburghof", 
      "numOfAddr": 17, 
      "lonmax": 3.327710868083156, 
      "latmin": 50.85607631856762
    }, 
    {
      "latmax": 50.86523737095526, 
      "name": "Maagdenput", 
      "lonmin": 3.320313980265973, 
      "sanName": "maagdenput", 
      "numOfAddr": 55, 
      "lonmax": 3.3237190567236277, 
      "latmin": 50.86319635860492
    }, 
    {
      "latmax": 50.84438681410394, 
      "name": "Magnoliastraat", 
      "lonmin": 3.3064412203550537, 
      "sanName": "magnoliastraat", 
      "numOfAddr": 9, 
      "lonmax": 3.308456729845808, 
      "latmin": 50.84357536300275
    }, 
    {
      "latmax": 50.8594709991832, 
      "name": "Malvertuitstraat", 
      "lonmin": 3.3130696445383303, 
      "sanName": "malvertuitstraat", 
      "numOfAddr": 4, 
      "lonmax": 3.314494450353096, 
      "latmin": 50.85878784740466
    }, 
    {
      "latmax": 50.858116396938556, 
      "name": "Marktplein", 
      "lonmin": 3.309859063120115, 
      "sanName": "marktplein", 
      "numOfAddr": 12, 
      "lonmax": 3.311431842776393, 
      "latmin": 50.85723249634645
    }, 
    {
      "latmax": 50.85687742990179, 
      "name": "Marktstraat", 
      "lonmin": 2.306689562140502, 
      "sanName": "marktstraat", 
      "numOfAddr": 69, 
      "lonmax": 3.3121540946276173, 
      "latmin": 49.293335165093566
    }, 
    {
      "latmax": 50.836048623567166, 
      "name": "Masteluinstraat", 
      "lonmin": 3.3187984796479872, 
      "sanName": "masteluinstraat", 
      "numOfAddr": 36, 
      "lonmax": 3.3209382875883193, 
      "latmin": 50.83456491513818
    }, 
    {
      "latmax": 50.84156838036103, 
      "name": "Meersstraat", 
      "lonmin": 3.327336244443759, 
      "sanName": "meersstraat", 
      "numOfAddr": 9, 
      "lonmax": 3.331004098408566, 
      "latmin": 50.836155649832264
    }, 
    {
      "latmax": 50.85714609717686, 
      "name": "Merelstraat", 
      "lonmin": 3.317338128727875, 
      "sanName": "merelstraat", 
      "numOfAddr": 9, 
      "lonmax": 3.3182106254574433, 
      "latmin": 50.85650150634315
    }, 
    {
      "latmax": 50.8613488034055, 
      "name": "Molenstraat", 
      "lonmin": 3.299100795808502, 
      "sanName": "molenstraat", 
      "numOfAddr": 11, 
      "lonmax": 3.302374997439547, 
      "latmin": 50.85947714895409
    }, 
    {
      "latmax": 50.84847893421627, 
      "name": "Molhoek", 
      "lonmin": 3.3109574124665704, 
      "sanName": "molhoek", 
      "numOfAddr": 12, 
      "lonmax": 3.311887046265674, 
      "latmin": 50.84791746392086
    }, 
    {
      "latmax": 50.83976642146673, 
      "name": "Motestraat", 
      "lonmin": 3.2941456336517088, 
      "sanName": "motestraat", 
      "numOfAddr": 16, 
      "lonmax": 3.2950000018674923, 
      "latmin": 50.83914635744394
    }, 
    {
      "latmax": 50.85168615702448, 
      "name": "Nieuwstraat", 
      "lonmin": 3.305072657814504, 
      "sanName": "nieuwstraat", 
      "numOfAddr": 61, 
      "lonmax": 3.307180686373327, 
      "latmin": 50.85003212437533
    }, 
    {
      "latmax": 50.85396635742398, 
      "name": "Nijverheidsstraat", 
      "lonmin": 3.3125097648329715, 
      "sanName": "nijverheidsstraat", 
      "numOfAddr": 19, 
      "lonmax": 3.3142021894147646, 
      "latmin": 50.851860011641364
    }, 
    {
      "latmax": 50.83166043668463, 
      "name": "Nobelstraat", 
      "lonmin": 3.3172600068167815, 
      "sanName": "nobelstraat", 
      "numOfAddr": 22, 
      "lonmax": 3.318223866497103, 
      "latmin": 50.83067885652787
    }, 
    {
      "latmax": 50.85956531641723, 
      "name": "Noordstraat", 
      "lonmin": 3.314483844777808, 
      "sanName": "noordstraat", 
      "numOfAddr": 44, 
      "lonmax": 3.3192197502761247, 
      "latmin": 50.85714638776452
    }, 
    {
      "latmax": 50.841512313631256, 
      "name": "Notelaarslaan", 
      "lonmin": 3.3010281744650105, 
      "sanName": "notelaarslaan", 
      "numOfAddr": 16, 
      "lonmax": 3.304357943562313, 
      "latmin": 50.8401442703856
    }, 
    {
      "latmax": 50.83740414820834, 
      "name": "Oliemolenstraat", 
      "lonmin": 3.289642621336668, 
      "sanName": "oliemolenstraat", 
      "numOfAddr": 8, 
      "lonmax": 3.2902026484087874, 
      "latmin": 50.836939967142946
    }, 
    {
      "latmax": 50.842307796054456, 
      "name": "Olmenlaan", 
      "lonmin": 3.3068371016693843, 
      "sanName": "olmenlaan", 
      "numOfAddr": 24, 
      "lonmax": 3.3090680536099675, 
      "latmin": 50.84140992906112
    }, 
    {
      "latmax": 50.83407329050773, 
      "name": "Ommegangstraat", 
      "lonmin": 3.3109988898161538, 
      "sanName": "ommegangstraat", 
      "numOfAddr": 32, 
      "lonmax": 3.3132309942317906, 
      "latmin": 50.83187950974423
    }, 
    {
      "latmax": 50.8601825888978, 
      "name": "Ooststraat", 
      "lonmin": 3.314241075553758, 
      "sanName": "ooststraat", 
      "numOfAddr": 21, 
      "lonmax": 3.315730681501299, 
      "latmin": 50.8593674102796
    }, 
    {
      "latmax": 50.83731385500703, 
      "name": "Oudenaardsestraat", 
      "lonmin": 3.3395181404132326, 
      "sanName": "oudenaardsestraat", 
      "numOfAddr": 15, 
      "lonmax": 3.3468150162148635, 
      "latmin": 50.83424648466473
    }, 
    {
      "latmax": 50.86458270536256, 
      "name": "Overacker", 
      "lonmin": 3.315087834309815, 
      "sanName": "overacker", 
      "numOfAddr": 37, 
      "lonmax": 3.3183472918918655, 
      "latmin": 50.86281827007082
    }, 
    {
      "latmax": 50.86188123390398, 
      "name": "Overleiestraat", 
      "lonmin": 3.3020790820319585, 
      "sanName": "overleiestraat", 
      "numOfAddr": 107, 
      "lonmax": 3.3088765818550328, 
      "latmin": 50.85760926394085
    }, 
    {
      "latmax": 50.852704505452316, 
      "name": "Papestuk", 
      "lonmin": 3.310161886909906, 
      "sanName": "papestuk", 
      "numOfAddr": 14, 
      "lonmax": 3.3117054646866686, 
      "latmin": 50.851580353605186
    }, 
    {
      "latmax": 50.85877087306111, 
      "name": "Paretteplein", 
      "lonmin": 3.3113081110419964, 
      "sanName": "paretteplein", 
      "numOfAddr": 7, 
      "lonmax": 3.313576726058256, 
      "latmin": 50.85820602560672
    }, 
    {
      "latmax": 50.85123165945736, 
      "name": "Peter Benoitlaan", 
      "lonmin": 3.3021127601223355, 
      "sanName": "peterbenoitlaan", 
      "numOfAddr": 50, 
      "lonmax": 3.308511924348115, 
      "latmin": 50.84843546364212
    }, 
    {
      "latmax": 50.85804767645702, 
      "name": "Peter De Coninckstraat", 
      "lonmin": 3.3144920315773407, 
      "sanName": "peterdeconinckstraat", 
      "numOfAddr": 19, 
      "lonmax": 3.315572668279636, 
      "latmin": 50.85751402010864
    }, 
    {
      "latmax": 50.84344261417889, 
      "name": "Peter Pauwel Rubensstraat", 
      "lonmin": 3.294219150602956, 
      "sanName": "peterpauwelrubensstraat", 
      "numOfAddr": 4, 
      "lonmax": 3.2946747223008113, 
      "latmin": 50.84242005225308
    }, 
    {
      "latmax": 50.8413086746808, 
      "name": "Platanenlaan", 
      "lonmin": 3.3052170040019595, 
      "sanName": "platanenlaan", 
      "numOfAddr": 71, 
      "lonmax": 3.308765957899914, 
      "latmin": 50.83888777733232
    }, 
    {
      "latmax": 50.85043104156411, 
      "name": "Plein", 
      "lonmin": 3.3123216280891903, 
      "sanName": "plein", 
      "numOfAddr": 9, 
      "lonmax": 3.3129349731135265, 
      "latmin": 50.84989348285771
    }, 
    {
      "latmax": 50.83483844615345, 
      "name": "Politieke Gevangenenstraat", 
      "lonmin": 3.3013947054468606, 
      "sanName": "politiekegevangenenstraat", 
      "numOfAddr": 64, 
      "lonmax": 3.3132401744528077, 
      "latmin": 50.83096046769153
    }, 
    {
      "latmax": 50.8403698196969, 
      "name": "Populierendreef", 
      "lonmin": 3.307030521334288, 
      "sanName": "populierendreef", 
      "numOfAddr": 14, 
      "lonmax": 3.3093084622733993, 
      "latmin": 50.83979470099398
    }, 
    {
      "latmax": 50.85296698882243, 
      "name": "Prosper De Donckerstraat", 
      "lonmin": 3.311474303777592, 
      "sanName": "prosperdedonckerstraat", 
      "numOfAddr": 18, 
      "lonmax": 3.3125228203268238, 
      "latmin": 50.85233065630482
    }, 
    {
      "latmax": 50.8533042517469, 
      "name": "Reigersstraat", 
      "lonmin": 3.320863055702466, 
      "sanName": "reigersstraat", 
      "numOfAddr": 24, 
      "lonmax": 3.3229869280417006, 
      "latmin": 50.8521259548008
    }, 
    {
      "latmax": 50.83184332068783, 
      "name": "Reinaertstraat", 
      "lonmin": 3.3176915208550954, 
      "sanName": "reinaertstraat", 
      "numOfAddr": 23, 
      "lonmax": 3.320332055523416, 
      "latmin": 50.83135518904201
    }, 
    {
      "latmax": 50.848659270626996, 
      "name": "Ren\u0082 Declercqlaan", 
      "lonmin": 3.3012179169207636, 
      "sanName": "rendeclercqlaan", 
      "numOfAddr": 25, 
      "lonmax": 3.303338900645376, 
      "latmin": 50.847110710759864
    }, 
    {
      "latmax": 50.86237830875065, 
      "name": "Rode-Kruisplein", 
      "lonmin": 3.306829313501244, 
      "sanName": "rodekruisplein", 
      "numOfAddr": 10, 
      "lonmax": 3.30825413095828, 
      "latmin": 50.8612720792126
    }, 
    {
      "latmax": 50.835599368217096, 
      "name": "Roggestraat", 
      "lonmin": 3.3221571855302323, 
      "sanName": "roggestraat", 
      "numOfAddr": 30, 
      "lonmax": 3.324861244314779, 
      "latmin": 50.83408863023646
    }, 
    {
      "latmax": 50.86601420792503, 
      "name": "Ruddershove", 
      "lonmin": 3.3167580867286355, 
      "sanName": "ruddershove", 
      "numOfAddr": 71, 
      "lonmax": 3.3201040964073782, 
      "latmin": 50.864266432129874
    }, 
    {
      "latmax": 50.86352884985021, 
      "name": "Salviastraat", 
      "lonmin": 3.3064538490167372, 
      "sanName": "salviastraat", 
      "numOfAddr": 10, 
      "lonmax": 3.3075653966810914, 
      "latmin": 50.8630420848858
    }, 
    {
      "latmax": 50.83111232515847, 
      "name": "Schaapsdries", 
      "lonmin": 3.302063846384998, 
      "sanName": "schaapsdries", 
      "numOfAddr": 11, 
      "lonmax": 3.3029194538531903, 
      "latmin": 50.830533809493424
    }, 
    {
      "latmax": 50.85436209552239, 
      "name": "Schipstraat", 
      "lonmin": 3.3064612496589048, 
      "sanName": "schipstraat", 
      "numOfAddr": 4, 
      "lonmax": 3.307009226094385, 
      "latmin": 50.85396795971658
    }, 
    {
      "latmax": 50.852010610940376, 
      "name": "Schoolstraat", 
      "lonmin": 3.3132417964684553, 
      "sanName": "schoolstraat", 
      "numOfAddr": 81, 
      "lonmax": 3.3172880017257094, 
      "latmin": 50.85018249383035
    }, 
    {
      "latmax": 50.83348103768441, 
      "name": "Speltstraat", 
      "lonmin": 3.315880563452946, 
      "sanName": "speltstraat", 
      "numOfAddr": 16, 
      "lonmax": 3.3162698426351813, 
      "latmin": 50.83210569366618
    }, 
    {
      "latmax": 50.851552058428254, 
      "name": "Spinetstraat", 
      "lonmin": 3.3279066357084055, 
      "sanName": "spinetstraat", 
      "numOfAddr": 3, 
      "lonmax": 3.32903046045274, 
      "latmin": 50.85139286460963
    }, 
    {
      "latmax": 50.83083692419763, 
      "name": "Spinnerijstraat", 
      "lonmin": 3.2993286048217967, 
      "sanName": "spinnerijstraat", 
      "numOfAddr": 47, 
      "lonmax": 3.3061420138675137, 
      "latmin": 50.82985586535892
    }, 
    {
      "latmax": 50.83750220131831, 
      "name": "Spoorwegstraat", 
      "lonmin": 3.2879980827442035, 
      "sanName": "spoorwegstraat", 
      "numOfAddr": 27, 
      "lonmax": 3.2965907147125746, 
      "latmin": 50.83347554910322
    }, 
    {
      "latmax": 50.83261128130187, 
      "name": "Stasegemdorp", 
      "lonmin": 3.3068883053409497, 
      "sanName": "stasegemdorp", 
      "numOfAddr": 122, 
      "lonmax": 3.315283541396338, 
      "latmin": 50.83029657166341
    }, 
    {
      "latmax": 50.84706089202145, 
      "name": "Stasegemsesteenweg", 
      "lonmin": 3.308548065846713, 
      "sanName": "stasegemsesteenweg", 
      "numOfAddr": 92, 
      "lonmax": 3.3135362731621245, 
      "latmin": 50.83749353566802
    }, 
    {
      "latmax": 50.850949561510674, 
      "name": "Stasegemsestraat", 
      "lonmin": 3.308098064300026, 
      "sanName": "stasegemsestraat", 
      "numOfAddr": 52, 
      "lonmax": 3.309476490128578, 
      "latmin": 50.84739213459477
    }, 
    {
      "latmax": 50.856691980291764, 
      "name": "Stationsplein", 
      "lonmin": 3.31329670217303, 
      "sanName": "stationsplein", 
      "numOfAddr": 9, 
      "lonmax": 3.3147519826808387, 
      "latmin": 50.8561581934756
    }, 
    {
      "latmax": 50.85688017929131, 
      "name": "Stationsstraat", 
      "lonmin": 3.3121287528246324, 
      "sanName": "stationsstraat", 
      "numOfAddr": 19, 
      "lonmax": 3.3132468767485337, 
      "latmin": 50.855494696315176
    }, 
    {
      "latmax": 50.85943404710923, 
      "name": "Stedestraat", 
      "lonmin": 3.30300208806037, 
      "sanName": "stedestraat", 
      "numOfAddr": 24, 
      "lonmax": 3.3062122011914035, 
      "latmin": 50.85652905721688
    }, 
    {
      "latmax": 50.83570565622021, 
      "name": "Steenbrugstraat", 
      "lonmin": 3.3159338652000554, 
      "sanName": "steenbrugstraat", 
      "numOfAddr": 132, 
      "lonmax": 3.334783524401349, 
      "latmin": 50.83012579642203
    }, 
    {
      "latmax": 50.860611344485676, 
      "name": "Steenstraat", 
      "lonmin": 3.3145373842861967, 
      "sanName": "steenstraat", 
      "numOfAddr": 14, 
      "lonmax": 3.3152884792838213, 
      "latmin": 50.86018129789512
    }, 
    {
      "latmax": 50.82976475627844, 
      "name": "Steentje", 
      "lonmin": 3.302800788929484, 
      "sanName": "steentje", 
      "numOfAddr": 6, 
      "lonmax": 3.303473504285498, 
      "latmin": 50.82949593827119
    }, 
    {
      "latmax": 50.83182903255651, 
      "name": "Stijn Streuvelsstraat", 
      "lonmin": 3.3030161680725625, 
      "sanName": "stijnstreuvelsstraat", 
      "numOfAddr": 39, 
      "lonmax": 3.305533977997656, 
      "latmin": 50.8306596475074
    }, 
    {
      "latmax": 50.835103820854194, 
      "name": "Tarwestraat", 
      "lonmin": 3.3195491231548884, 
      "sanName": "tarwestraat", 
      "numOfAddr": 76, 
      "lonmax": 3.3221357157706546, 
      "latmin": 50.832933966036435
    }, 
    {
      "latmax": 50.847585059246974, 
      "name": "Teesweg", 
      "lonmin": 3.324555796022264, 
      "sanName": "teesweg", 
      "numOfAddr": 1, 
      "lonmax": 3.324555796022264, 
      "latmin": 50.847585059246974
    }, 
    {
      "latmax": 50.851799742250044, 
      "name": "Ter Abdijhoeve", 
      "lonmin": 3.3016486966300707, 
      "sanName": "terabdijhoeve", 
      "numOfAddr": 16, 
      "lonmax": 3.303174628838435, 
      "latmin": 50.85058566788069
    }, 
    {
      "latmax": 50.86082555878495, 
      "name": "Ter Perre", 
      "lonmin": 3.299466011932473, 
      "sanName": "terperre", 
      "numOfAddr": 145, 
      "lonmax": 3.304075747645054, 
      "latmin": 50.858204790242
    }, 
    {
      "latmax": 50.851422508941226, 
      "name": "Tientjesstraat", 
      "lonmin": 3.3104365295929874, 
      "sanName": "tientjesstraat", 
      "numOfAddr": 85, 
      "lonmax": 3.3142547449493267, 
      "latmin": 50.84800279277945
    }, 
    {
      "latmax": 50.85926347549357, 
      "name": "Toekomststraat", 
      "lonmin": 3.3130083050674664, 
      "sanName": "toekomststraat", 
      "numOfAddr": 15, 
      "lonmax": 3.314050602262638, 
      "latmin": 50.85864577585533
    }, 
    {
      "latmax": 50.8514206014945, 
      "name": "Tramstraat", 
      "lonmin": 3.302163938725367, 
      "sanName": "tramstraat", 
      "numOfAddr": 33, 
      "lonmax": 3.304970887735204, 
      "latmin": 50.84943803999996
    }, 
    {
      "latmax": 50.83765124798904, 
      "name": "Tuinbouwstraat", 
      "lonmin": 3.2885925723592204, 
      "sanName": "tuinbouwstraat", 
      "numOfAddr": 7, 
      "lonmax": 3.2914668042677517, 
      "latmin": 50.83735822629531
    }, 
    {
      "latmax": 50.855522675655415, 
      "name": "Tuinstraat", 
      "lonmin": 3.3091730136717845, 
      "sanName": "tuinstraat", 
      "numOfAddr": 70, 
      "lonmax": 3.3131682210151285, 
      "latmin": 50.85183144667219
    }, 
    {
      "latmax": 50.84448116008139, 
      "name": "Tulpenboomstraat", 
      "lonmin": 3.307811365000925, 
      "sanName": "tulpenboomstraat", 
      "numOfAddr": 7, 
      "lonmax": 3.308524020427144, 
      "latmin": 50.844014068291166
    }, 
    {
      "latmax": 50.85680219223178, 
      "name": "Twee-Bruggenstraat", 
      "lonmin": 3.3020153806462726, 
      "sanName": "tweebruggenstraat", 
      "numOfAddr": 12, 
      "lonmax": 3.309107601142455, 
      "latmin": 50.8513590725411
    }, 
    {
      "latmax": 50.86611416765172, 
      "name": "Vaarnewijkstraat", 
      "lonmin": 3.308390487924747, 
      "sanName": "vaarnewijkstraat", 
      "numOfAddr": 15, 
      "lonmax": 3.3124214865813806, 
      "latmin": 50.8641894160993
    }, 
    {
      "latmax": 50.83040072015933, 
      "name": "Vaartstraat", 
      "lonmin": 3.3070811997942706, 
      "sanName": "vaartstraat", 
      "numOfAddr": 13, 
      "lonmax": 3.310158312387326, 
      "latmin": 50.8290228731499
    }, 
    {
      "latmax": 50.83644721288679, 
      "name": "Veldrijk", 
      "lonmin": 3.313870425097423, 
      "sanName": "veldrijk", 
      "numOfAddr": 50, 
      "lonmax": 3.327299147649894, 
      "latmin": 50.83467691005255
    }, 
    {
      "latmax": 50.85492977022774, 
      "name": "Veldstraat", 
      "lonmin": 3.3092121232674048, 
      "sanName": "veldstraat", 
      "numOfAddr": 162, 
      "lonmax": 3.315872051577429, 
      "latmin": 50.84973613356878
    }, 
    {
      "latmax": 50.84026689581989, 
      "name": "Veneti\u0089laan", 
      "lonmin": 3.2948721741855334, 
      "sanName": "venetilaan", 
      "numOfAddr": 39, 
      "lonmax": 3.302057367096976, 
      "latmin": 50.83040944887575
    }, 
    {
      "latmax": 50.855873018327856, 
      "name": "Verenigde-Nati\u0089nlaan", 
      "lonmin": 3.3215786197474957, 
      "sanName": "verenigdenatinlaan", 
      "numOfAddr": 80, 
      "lonmax": 3.328383547049623, 
      "latmin": 50.85483963931347
    }, 
    {
      "latmax": 50.85633530849806, 
      "name": "Vinkenstraat", 
      "lonmin": 3.3162039520528226, 
      "sanName": "vinkenstraat", 
      "numOfAddr": 23, 
      "lonmax": 3.318897910649194, 
      "latmin": 50.8545234048459
    }, 
    {
      "latmax": 50.862751457942046, 
      "name": "Violettenstraat", 
      "lonmin": 3.3034909775176056, 
      "sanName": "violettenstraat", 
      "numOfAddr": 32, 
      "lonmax": 3.3069854703767994, 
      "latmin": 50.8615552091993
    }, 
    {
      "latmax": 50.83016642703285, 
      "name": "Vissersstraat", 
      "lonmin": 3.3041337651682, 
      "sanName": "vissersstraat", 
      "numOfAddr": 32, 
      "lonmax": 3.3068021405212886, 
      "latmin": 50.82885980900631
    }, 
    {
      "latmax": 50.84821200098265, 
      "name": "Vlaanderenlaan", 
      "lonmin": 3.295870555687655, 
      "sanName": "vlaanderenlaan", 
      "numOfAddr": 63, 
      "lonmax": 3.304702343678446, 
      "latmin": 50.840287777741494
    }, 
    {
      "latmax": 50.84872944051278, 
      "name": "Vlamingenstraat", 
      "lonmin": 3.3050512771545915, 
      "sanName": "vlamingenstraat", 
      "numOfAddr": 38, 
      "lonmax": 3.3081239275589978, 
      "latmin": 50.84688436728419
    }, 
    {
      "latmax": 50.85030641569691, 
      "name": "Vlasstraat", 
      "lonmin": 3.3005419634274404, 
      "sanName": "vlasstraat", 
      "numOfAddr": 8, 
      "lonmax": 3.301506198896447, 
      "latmin": 50.849886906609164
    }, 
    {
      "latmax": 50.85494298513384, 
      "name": "Vooruitgangstraat", 
      "lonmin": 3.311820099807561, 
      "sanName": "vooruitgangstraat", 
      "numOfAddr": 36, 
      "lonmax": 3.3160423367782386, 
      "latmin": 50.85291968986793
    }, 
    {
      "latmax": 50.84772371460453, 
      "name": "Vredestraat", 
      "lonmin": 3.3003911275430173, 
      "sanName": "vredestraat", 
      "numOfAddr": 29, 
      "lonmax": 3.301441952687023, 
      "latmin": 50.84612009413121
    }, 
    {
      "latmax": 50.85876589766597, 
      "name": "Vrijdomkaai", 
      "lonmin": 3.3108098432342183, 
      "sanName": "vrijdomkaai", 
      "numOfAddr": 3, 
      "lonmax": 3.3119822170408253, 
      "latmin": 50.85811297348477
    }, 
    {
      "latmax": 50.85187374148204, 
      "name": "Vrijheidsstraat", 
      "lonmin": 3.311219825384355, 
      "sanName": "vrijheidsstraat", 
      "numOfAddr": 91, 
      "lonmax": 3.3157057106435697, 
      "latmin": 50.8480676108337
    }, 
    {
      "latmax": 50.85399469877727, 
      "name": "Wagenweg", 
      "lonmin": 3.3085403393340584, 
      "sanName": "wagenweg", 
      "numOfAddr": 26, 
      "lonmax": 3.3109729513306854, 
      "latmin": 50.853442071119815
    }, 
    {
      "latmax": 50.86008996484379, 
      "name": "Waregemsestraat", 
      "lonmin": 3.330432336910942, 
      "sanName": "waregemsestraat", 
      "numOfAddr": 11, 
      "lonmax": 3.3395592280964457, 
      "latmin": 50.857601597767975
    }, 
    {
      "latmax": 50.8533756353988, 
      "name": "Watermolenstraat", 
      "lonmin": 3.300074197556232, 
      "sanName": "watermolenstraat", 
      "numOfAddr": 10, 
      "lonmax": 3.302550818772484, 
      "latmin": 50.851371560767255
    }, 
    {
      "latmax": 50.85146260535444, 
      "name": "Wijdegracht", 
      "lonmin": 3.3218547094393744, 
      "sanName": "wijdegracht", 
      "numOfAddr": 35, 
      "lonmax": 3.3248099300766665, 
      "latmin": 50.850117627979984
    }, 
    {
      "latmax": 50.85315327299559, 
      "name": "Wijdhagestraat", 
      "lonmin": 3.3140606188699686, 
      "sanName": "wijdhagestraat", 
      "numOfAddr": 114, 
      "lonmax": 3.3177878221258474, 
      "latmin": 50.84837385469068
    }, 
    {
      "latmax": 50.84131019191114, 
      "name": "Wilgenlaan", 
      "lonmin": 3.299774949346822, 
      "sanName": "wilgenlaan", 
      "numOfAddr": 17, 
      "lonmax": 3.3020205440617674, 
      "latmin": 50.84064032386408
    }, 
    {
      "latmax": 50.86340878884681, 
      "name": "Wolvenstraat", 
      "lonmin": 3.3150574150918843, 
      "sanName": "wolvenstraat", 
      "numOfAddr": 63, 
      "lonmax": 3.319826406820155, 
      "latmin": 50.86150465918531
    }, 
    {
      "latmax": 50.8407921335881, 
      "name": "Zandbergstraat", 
      "lonmin": 3.2874961111668415, 
      "sanName": "zandbergstraat", 
      "numOfAddr": 146, 
      "lonmax": 3.294975162837818, 
      "latmin": 50.83770543626201
    }, 
    {
      "latmax": 50.8393878165833, 
      "name": "Zavelstraat", 
      "lonmin": 3.293116379838458, 
      "sanName": "zavelstraat", 
      "numOfAddr": 26, 
      "lonmax": 3.2943218050738396, 
      "latmin": 50.83841322572161
    }, 
    {
      "latmax": 50.859302500394904, 
      "name": "Zuidstraat", 
      "lonmin": 3.3142788533206122, 
      "sanName": "zuidstraat", 
      "numOfAddr": 36, 
      "lonmax": 3.3216495763989764, 
      "latmin": 50.855418390687134
    }, 
    {
      "latmax": 50.827371061960385, 
      "name": "Zwevegemsestraat", 
      "lonmin": 3.3163836894163468, 
      "sanName": "zwevegemsestraat", 
      "numOfAddr": 68, 
      "lonmax": 3.324146375784861, 
      "latmin": 50.82109183946424
    }
  ]
}