{
  "streets": [
    {
      "latmax": 50.78395137302099, 
      "name": "Achiel Quatannensstraat", 
      "lonmin": 3.412701472007428, 
      "sanName": "achielquatannensstraat", 
      "numOfAddr": 8, 
      "lonmax": 3.4138992396019137, 
      "latmin": 50.782979961334
    }, 
    {
      "latmax": 50.7852462542178, 
      "name": "Arteveldestraat", 
      "lonmin": 3.410484683970156, 
      "sanName": "arteveldestraat", 
      "numOfAddr": 26, 
      "lonmax": 3.4137017244777748, 
      "latmin": 50.782649909814495
    }, 
    {
      "latmax": 50.81380809610689, 
      "name": "Astenstraat", 
      "lonmin": 3.3872995690505676, 
      "sanName": "astenstraat", 
      "numOfAddr": 6, 
      "lonmax": 3.391120672129513, 
      "latmin": 50.81024471238626
    }, 
    {
      "latmax": 50.77844358015617, 
      "name": "Bakkerijstraat", 
      "lonmin": 3.4106763676389904, 
      "sanName": "bakkerijstraat", 
      "numOfAddr": 7, 
      "lonmax": 3.411330770243872, 
      "latmin": 50.77785088748705
    }, 
    {
      "latmax": 50.809265236889026, 
      "name": "Banhout", 
      "lonmin": 3.3777507134564573, 
      "sanName": "banhout", 
      "numOfAddr": 4, 
      "lonmax": 3.381838081924262, 
      "latmin": 50.80525635872442
    }, 
    {
      "latmax": 50.795776005544354, 
      "name": "Blinde Kapellestraat", 
      "lonmin": 3.41128582779029, 
      "sanName": "blindekapellestraat", 
      "numOfAddr": 2, 
      "lonmax": 3.4123449776596435, 
      "latmin": 50.79563376294073
    }, 
    {
      "latmax": 50.79675456987289, 
      "name": "Brouwerijstraat", 
      "lonmin": 3.4220877988590375, 
      "sanName": "brouwerijstraat", 
      "numOfAddr": 1, 
      "lonmax": 3.4220877988590375, 
      "latmin": 50.79675456987289
    }, 
    {
      "latmax": 50.78410728513014, 
      "name": "Charles Decockstraat", 
      "lonmin": 3.4141612193512016, 
      "sanName": "charlesdecockstraat", 
      "numOfAddr": 21, 
      "lonmax": 3.415544461939401, 
      "latmin": 50.782668661816615
    }, 
    {
      "latmax": 50.7797951867525, 
      "name": "De Vlaminck", 
      "lonmin": 3.404410533165052, 
      "sanName": "devlaminck", 
      "numOfAddr": 43, 
      "lonmax": 3.40824833966315, 
      "latmin": 50.77851709451515
    }, 
    {
      "latmax": 50.801001189883486, 
      "name": "Dokkestraat", 
      "lonmin": 3.3843289546261652, 
      "sanName": "dokkestraat", 
      "numOfAddr": 7, 
      "lonmax": 3.388417201100112, 
      "latmin": 50.79754031972191
    }, 
    {
      "latmax": 50.77999190965348, 
      "name": "Eikenborg", 
      "lonmin": 3.4148884275899367, 
      "sanName": "eikenborg", 
      "numOfAddr": 44, 
      "lonmax": 3.4170319550310744, 
      "latmin": 50.77825225971123
    }, 
    {
      "latmax": 50.783038138919906, 
      "name": "Gauwelstraat", 
      "lonmin": 3.393762537881619, 
      "sanName": "gauwelstraat", 
      "numOfAddr": 120, 
      "lonmax": 3.410349607176371, 
      "latmin": 50.77965612175074
    }, 
    {
      "latmax": 50.78331320064838, 
      "name": "Groenstraat", 
      "lonmin": 3.4184267822719465, 
      "sanName": "groenstraat", 
      "numOfAddr": 3, 
      "lonmax": 3.4222729878770686, 
      "latmin": 50.782038459699756
    }, 
    {
      "latmax": 50.78264731548532, 
      "name": "Heestertplaats", 
      "lonmin": 3.410446701356497, 
      "sanName": "heestertplaats", 
      "numOfAddr": 18, 
      "lonmax": 3.4115983288579708, 
      "latmin": 50.78186063759392
    }, 
    {
      "latmax": 50.80339267738897, 
      "name": "Heestertstraat", 
      "lonmin": 3.4143786725430454, 
      "sanName": "heestertstraat", 
      "numOfAddr": 4, 
      "lonmax": 3.4150352358669362, 
      "latmin": 50.80194436822045
    }, 
    {
      "latmax": 50.80528717659387, 
      "name": "Hellekenlos", 
      "lonmin": 3.369475394487984, 
      "sanName": "hellekenlos", 
      "numOfAddr": 5, 
      "lonmax": 3.375117979121379, 
      "latmin": 50.800734162815736
    }, 
    {
      "latmax": 50.78303858712695, 
      "name": "Jan Joseph Raepsaetstraat", 
      "lonmin": 3.4130306971211617, 
      "sanName": "janjosephraepsaetstraat", 
      "numOfAddr": 14, 
      "lonmax": 3.414417815078107, 
      "latmin": 50.78247846710339
    }, 
    {
      "latmax": 50.78151879184571, 
      "name": "Kampenhove", 
      "lonmin": 3.4134164935382536, 
      "sanName": "kampenhove", 
      "numOfAddr": 18, 
      "lonmax": 3.4153017487359394, 
      "latmin": 50.77996940506385
    }, 
    {
      "latmax": 50.798083781619994, 
      "name": "Keiberg", 
      "lonmin": 3.3674478285773457, 
      "sanName": "keiberg", 
      "numOfAddr": 43, 
      "lonmax": 3.392974519934608, 
      "latmin": 50.78041625652248
    }, 
    {
      "latmax": 50.780706292071166, 
      "name": "Kerkhofplein", 
      "lonmin": 3.411502016557083, 
      "sanName": "kerkhofplein", 
      "numOfAddr": 2, 
      "lonmax": 3.4133250867842357, 
      "latmin": 50.78068593124251
    }, 
    {
      "latmax": 50.78189371824615, 
      "name": "Kerkomtrek", 
      "lonmin": 3.4109499198436657, 
      "sanName": "kerkomtrek", 
      "numOfAddr": 4, 
      "lonmax": 3.4111846354885516, 
      "latmin": 50.78124942231331
    }, 
    {
      "latmax": 50.7833024816331, 
      "name": "Klokkengietersstraat", 
      "lonmin": 3.4114323437782743, 
      "sanName": "klokkengietersstraat", 
      "numOfAddr": 11, 
      "lonmax": 3.4126132341582265, 
      "latmin": 50.78240207204101
    }, 
    {
      "latmax": 50.79538807580269, 
      "name": "Kloosterstraat", 
      "lonmin": 3.4228551054580008, 
      "sanName": "kloosterstraat", 
      "numOfAddr": 6, 
      "lonmax": 3.4284464219407393, 
      "latmin": 50.7913441558894
    }, 
    {
      "latmax": 50.79345983008689, 
      "name": "Konijnstraat", 
      "lonmin": 3.417817423106465, 
      "sanName": "konijnstraat", 
      "numOfAddr": 6, 
      "lonmax": 3.4200989488098608, 
      "latmin": 50.78994105079989
    }, 
    {
      "latmax": 50.80922688980426, 
      "name": "Kortestraat", 
      "lonmin": 3.388000817977293, 
      "sanName": "kortestraat", 
      "numOfAddr": 1, 
      "lonmax": 3.388000817977293, 
      "latmin": 50.80922688980426
    }, 
    {
      "latmax": 50.805953767693694, 
      "name": "Kroonstraat", 
      "lonmin": 3.4088387204187285, 
      "sanName": "kroonstraat", 
      "numOfAddr": 6, 
      "lonmax": 3.4116611274781454, 
      "latmin": 50.80500200752271
    }, 
    {
      "latmax": 50.80298157352886, 
      "name": "Kwadestraat", 
      "lonmin": 3.3705956651723357, 
      "sanName": "kwadestraat", 
      "numOfAddr": 29, 
      "lonmax": 3.384984462108245, 
      "latmin": 50.78767541598022
    }, 
    {
      "latmax": 50.78184537615538, 
      "name": "Lentelaan", 
      "lonmin": 3.41432927722831, 
      "sanName": "lentelaan", 
      "numOfAddr": 33, 
      "lonmax": 3.4165633072111277, 
      "latmin": 50.780751064684225
    }, 
    {
      "latmax": 50.788274952456085, 
      "name": "Lindelos", 
      "lonmin": 3.3865402668593614, 
      "sanName": "lindelos", 
      "numOfAddr": 4, 
      "lonmax": 3.3908031156141085, 
      "latmin": 50.78518498774984
    }, 
    {
      "latmax": 50.78449548831488, 
      "name": "Modest Rohaertstraat", 
      "lonmin": 3.413397021196184, 
      "sanName": "modestrohaertstraat", 
      "numOfAddr": 7, 
      "lonmax": 3.4143266059399857, 
      "latmin": 50.78394567244197
    }, 
    {
      "latmax": 50.792160142736115, 
      "name": "Molenstraat", 
      "lonmin": 3.385387852289537, 
      "sanName": "molenstraat", 
      "numOfAddr": 21, 
      "lonmax": 3.3986188984941035, 
      "latmin": 50.789890155088386
    }, 
    {
      "latmax": 50.7846919874421, 
      "name": "Nieuwstraat", 
      "lonmin": 3.4094369924772256, 
      "sanName": "nieuwstraat", 
      "numOfAddr": 27, 
      "lonmax": 3.411623075399771, 
      "latmin": 50.78373936554877
    }, 
    {
      "latmax": 50.781572709424175, 
      "name": "Outrijvestraat", 
      "lonmin": 3.409333895659379, 
      "sanName": "outrijvestraat", 
      "numOfAddr": 91, 
      "lonmax": 3.4137827796413944, 
      "latmin": 50.77167860169911
    }, 
    {
      "latmax": 50.79929247577528, 
      "name": "Paepestraat", 
      "lonmin": 3.415006343881294, 
      "sanName": "paepestraat", 
      "numOfAddr": 3, 
      "lonmax": 3.415857280007302, 
      "latmin": 50.79908177713052
    }, 
    {
      "latmax": 50.79123048785959, 
      "name": "Petrus Hooghestraat", 
      "lonmin": 3.4084438434677926, 
      "sanName": "petrushooghestraat", 
      "numOfAddr": 1, 
      "lonmax": 3.4084438434677926, 
      "latmin": 50.79123048785959
    }, 
    {
      "latmax": 50.781987037565955, 
      "name": "Plein", 
      "lonmin": 3.410164625982405, 
      "sanName": "plein", 
      "numOfAddr": 4, 
      "lonmax": 3.410678462300813, 
      "latmin": 50.78120187466649
    }, 
    {
      "latmax": 50.81467748585759, 
      "name": "Pontstraat", 
      "lonmin": 3.3900884027966245, 
      "sanName": "pontstraat", 
      "numOfAddr": 111, 
      "lonmax": 3.4176071029149955, 
      "latmin": 50.78243887094891
    }, 
    {
      "latmax": 50.77398579065325, 
      "name": "Raaptorfstraat", 
      "lonmin": 3.4161111134107016, 
      "sanName": "raaptorfstraat", 
      "numOfAddr": 4, 
      "lonmax": 3.4194002108209354, 
      "latmin": 50.77151522879167
    }, 
    {
      "latmax": 50.786180111909985, 
      "name": "Remi Deprezstraat", 
      "lonmin": 3.4070371597948714, 
      "sanName": "remideprezstraat", 
      "numOfAddr": 31, 
      "lonmax": 3.409514944560234, 
      "latmin": 50.78491080564763
    }, 
    {
      "latmax": 50.794593315694, 
      "name": "Schaapstraat", 
      "lonmin": 3.400213741438265, 
      "sanName": "schaapstraat", 
      "numOfAddr": 6, 
      "lonmax": 3.4030993716169897, 
      "latmin": 50.79267627680352
    }, 
    {
      "latmax": 50.78054094103268, 
      "name": "Schoolstraat", 
      "lonmin": 3.4073282811604715, 
      "sanName": "schoolstraat", 
      "numOfAddr": 26, 
      "lonmax": 3.41044840052176, 
      "latmin": 50.77752114265989
    }, 
    {
      "latmax": 50.78415542254606, 
      "name": "Smissepad", 
      "lonmin": 3.4096786725362853, 
      "sanName": "smissepad", 
      "numOfAddr": 7, 
      "lonmax": 3.41043496323955, 
      "latmin": 50.78371580846805
    }, 
    {
      "latmax": 50.778340826074604, 
      "name": "Spichtestraat", 
      "lonmin": 3.4127277690654743, 
      "sanName": "spichtestraat", 
      "numOfAddr": 15, 
      "lonmax": 3.417038372826501, 
      "latmin": 50.777476806026236
    }, 
    {
      "latmax": 50.77389399327883, 
      "name": "Sportstraat", 
      "lonmin": 3.4086071691798763, 
      "sanName": "sportstraat", 
      "numOfAddr": 2, 
      "lonmax": 3.4086959799484555, 
      "latmin": 50.77380614825914
    }, 
    {
      "latmax": 50.802310053020975, 
      "name": "Stampkotstraat", 
      "lonmin": 3.3943922555689263, 
      "sanName": "stampkotstraat", 
      "numOfAddr": 25, 
      "lonmax": 3.412346409073372, 
      "latmin": 50.78919604153615
    }, 
    {
      "latmax": 50.780190213912185, 
      "name": "Stationsstraat", 
      "lonmin": 3.3929178007326075, 
      "sanName": "stationsstraat", 
      "numOfAddr": 17, 
      "lonmax": 3.393723485451047, 
      "latmin": 50.77843883765841
    }, 
    {
      "latmax": 50.7824521907936, 
      "name": "Stijn Streuvelsstraat", 
      "lonmin": 3.4116003083898905, 
      "sanName": "stijnstreuvelsstraat", 
      "numOfAddr": 40, 
      "lonmax": 3.425141984702634, 
      "latmin": 50.77969036968079
    }, 
    {
      "latmax": 50.79918535955948, 
      "name": "Truweelstraat", 
      "lonmin": 3.4064486772639024, 
      "sanName": "truweelstraat", 
      "numOfAddr": 8, 
      "lonmax": 3.4088056485059943, 
      "latmin": 50.79849338751707
    }, 
    {
      "latmax": 50.780469996582646, 
      "name": "V-dagstraat", 
      "lonmin": 3.411378545431941, 
      "sanName": "vdagstraat", 
      "numOfAddr": 2, 
      "lonmax": 3.4117460556085266, 
      "latmin": 50.78031406790902
    }, 
    {
      "latmax": 50.81334636202268, 
      "name": "Vierkeerstraat", 
      "lonmin": 3.381378128870746, 
      "sanName": "vierkeerstraat", 
      "numOfAddr": 166, 
      "lonmax": 3.410367482734291, 
      "latmin": 50.78269921747352
    }, 
    {
      "latmax": 50.77676481503473, 
      "name": "Waffelstraat", 
      "lonmin": 3.400048911028455, 
      "sanName": "waffelstraat", 
      "numOfAddr": 6, 
      "lonmax": 3.4082074785684315, 
      "latmin": 50.77622390606884
    }, 
    {
      "latmax": 50.781181947756714, 
      "name": "Wandelweg", 
      "lonmin": 3.410584735915491, 
      "sanName": "wandelweg", 
      "numOfAddr": 6, 
      "lonmax": 3.4112837634526807, 
      "latmin": 50.780640292149016
    }, 
    {
      "latmax": 50.81584442203448, 
      "name": "Zwevegemstraat", 
      "lonmin": 3.3873432505370493, 
      "sanName": "zwevegemstraat", 
      "numOfAddr": 1, 
      "lonmax": 3.3873432505370493, 
      "latmin": 50.81584442203448
    }
  ]
}