{
  "streets": [
    {
      "latmax": 50.78609910100009, 
      "name": "Achterdriesstraat", 
      "lonmin": 3.426195470193257, 
      "sanName": "achterdriesstraat", 
      "numOfAddr": 40, 
      "lonmax": 3.4328484985425516, 
      "latmin": 50.78189520844326
    }, 
    {
      "latmax": 50.783050089398536, 
      "name": "Albert Decockstraat", 
      "lonmin": 3.4349312304752853, 
      "sanName": "albertdecockstraat", 
      "numOfAddr": 30, 
      "lonmax": 3.438654289182703, 
      "latmin": 50.781262580507104
    }, 
    {
      "latmax": 50.78157966423982, 
      "name": "Assegem", 
      "lonmin": 3.431903792182546, 
      "sanName": "assegem", 
      "numOfAddr": 79, 
      "lonmax": 3.4347852377702064, 
      "latmin": 50.77915833779151
    }, 
    {
      "latmax": 50.76921578548876, 
      "name": "Beekstraat", 
      "lonmin": 3.4468345103635145, 
      "sanName": "beekstraat", 
      "numOfAddr": 22, 
      "lonmax": 3.448205844932979, 
      "latmin": 50.768032212673106
    }, 
    {
      "latmax": 50.784598187171746, 
      "name": "Bettestraat", 
      "lonmin": 3.433838609831914, 
      "sanName": "bettestraat", 
      "numOfAddr": 6, 
      "lonmax": 3.434578414350334, 
      "latmin": 50.784041247353926
    }, 
    {
      "latmax": 50.78363428745502, 
      "name": "Bevrijdingslaan", 
      "lonmin": 3.447918461365799, 
      "sanName": "bevrijdingslaan", 
      "numOfAddr": 36, 
      "lonmax": 3.45006683353232, 
      "latmin": 50.77916338028483
    }, 
    {
      "latmax": 50.77450974866692, 
      "name": "Bleekveld", 
      "lonmin": 3.4389540856218264, 
      "sanName": "bleekveld", 
      "numOfAddr": 22, 
      "lonmax": 3.441352217029139, 
      "latmin": 50.7734346928184
    }, 
    {
      "latmax": 50.79005664192238, 
      "name": "Bosstraat", 
      "lonmin": 3.44223885682812, 
      "sanName": "bosstraat", 
      "numOfAddr": 59, 
      "lonmax": 3.446952151313147, 
      "latmin": 50.78347608172613
    }, 
    {
      "latmax": 50.778177392893696, 
      "name": "Burchthof", 
      "lonmin": 3.4483587584995083, 
      "sanName": "burchthof", 
      "numOfAddr": 22, 
      "lonmax": 3.4498307670772794, 
      "latmin": 50.777437825637044
    }, 
    {
      "latmax": 50.77267487158402, 
      "name": "De Ronde", 
      "lonmin": 3.446244396530894, 
      "sanName": "deronde", 
      "numOfAddr": 38, 
      "lonmax": 3.448773742126284, 
      "latmin": 50.77062214711574
    }, 
    {
      "latmax": 50.775936865885704, 
      "name": "Doorniksesteenweg", 
      "lonmin": 3.4386073343847063, 
      "sanName": "doorniksesteenweg", 
      "numOfAddr": 203, 
      "lonmax": 3.4456626102935957, 
      "latmin": 50.764490337526816
    }, 
    {
      "latmax": 50.77053502398936, 
      "name": "Doornstraat", 
      "lonmin": 3.4395324016355455, 
      "sanName": "doornstraat", 
      "numOfAddr": 5, 
      "lonmax": 3.44009048729492, 
      "latmin": 50.76999890732331
    }, 
    {
      "latmax": 50.776790887182536, 
      "name": "Drieputtenstraat", 
      "lonmin": 3.429739445095846, 
      "sanName": "drieputtenstraat", 
      "numOfAddr": 3, 
      "lonmax": 3.43004657509725, 
      "latmin": 50.77668440765821
    }, 
    {
      "latmax": 50.78320623066768, 
      "name": "Driesstraat", 
      "lonmin": 3.432256895255883, 
      "sanName": "driesstraat", 
      "numOfAddr": 134, 
      "lonmax": 3.441673932010737, 
      "latmin": 50.77783513050252
    }, 
    {
      "latmax": 50.76466592791479, 
      "name": "Etienne Balcaenstraat", 
      "lonmin": 3.4401640298228293, 
      "sanName": "etiennebalcaenstraat", 
      "numOfAddr": 17, 
      "lonmax": 3.4438196356246102, 
      "latmin": 50.75943188286526
    }, 
    {
      "latmax": 50.777236013748244, 
      "name": "Ettenheimstraat", 
      "lonmin": 3.434550805646228, 
      "sanName": "ettenheimstraat", 
      "numOfAddr": 53, 
      "lonmax": 3.4369421178388717, 
      "latmin": 50.77539366754883
    }, 
    {
      "latmax": 50.77826159425579, 
      "name": "Gabriel Herpoelstraat", 
      "lonmin": 3.4427702410971572, 
      "sanName": "gabrielherpoelstraat", 
      "numOfAddr": 40, 
      "lonmax": 3.4448958987777196, 
      "latmin": 50.77711932463269
    }, 
    {
      "latmax": 50.78330969827683, 
      "name": "Ganzenhofstraat", 
      "lonmin": 3.442157944339554, 
      "sanName": "ganzenhofstraat", 
      "numOfAddr": 30, 
      "lonmax": 3.4475434724450302, 
      "latmin": 50.77977600791423
    }, 
    {
      "latmax": 50.77570308156774, 
      "name": "Gemeenteplein", 
      "lonmin": 3.443848967886894, 
      "sanName": "gemeenteplein", 
      "numOfAddr": 7, 
      "lonmax": 3.4444771802845233, 
      "latmin": 50.77535937226205
    }, 
    {
      "latmax": 50.770130914973684, 
      "name": "Harent", 
      "lonmin": 3.453402181479914, 
      "sanName": "harent", 
      "numOfAddr": 1, 
      "lonmax": 3.453402181479914, 
      "latmin": 50.770130914973684
    }, 
    {
      "latmax": 50.77761107325606, 
      "name": "Hoogstraat", 
      "lonmin": 3.437472875776835, 
      "sanName": "hoogstraat", 
      "numOfAddr": 43, 
      "lonmax": 3.4411952289424024, 
      "latmin": 50.77509076532653
    }, 
    {
      "latmax": 50.77773057771327, 
      "name": "Hoogveld", 
      "lonmin": 3.4330821752727254, 
      "sanName": "hoogveld", 
      "numOfAddr": 13, 
      "lonmax": 3.4344358820265137, 
      "latmin": 50.776643990967145
    }, 
    {
      "latmax": 50.77114538109601, 
      "name": "Huttegemstraat", 
      "lonmin": 3.438457802657271, 
      "sanName": "huttegemstraat", 
      "numOfAddr": 45, 
      "lonmax": 3.4434608754076974, 
      "latmin": 50.76941712088024
    }, 
    {
      "latmax": 50.77980265699552, 
      "name": "Kapellekouter", 
      "lonmin": 3.4613396026439713, 
      "sanName": "kapellekouter", 
      "numOfAddr": 18, 
      "lonmax": 3.465121778657727, 
      "latmin": 50.777671011901546
    }, 
    {
      "latmax": 50.79202572248584, 
      "name": "Kaphoekstraat", 
      "lonmin": 3.444503380255086, 
      "sanName": "kaphoekstraat", 
      "numOfAddr": 32, 
      "lonmax": 3.45303746713639, 
      "latmin": 50.78643575894363
    }, 
    {
      "latmax": 50.77759057058061, 
      "name": "Kasteelstraat", 
      "lonmin": 3.4471911969170246, 
      "sanName": "kasteelstraat", 
      "numOfAddr": 26, 
      "lonmax": 3.4510423115857893, 
      "latmin": 50.77542681879721
    }, 
    {
      "latmax": 50.77978642771774, 
      "name": "Kerkhofstraat", 
      "lonmin": 3.4421211533632516, 
      "sanName": "kerkhofstraat", 
      "numOfAddr": 38, 
      "lonmax": 3.4485146490686844, 
      "latmin": 50.77812478098506
    }, 
    {
      "latmax": 50.77602154167829, 
      "name": "Kerkstraat", 
      "lonmin": 3.445583224769442, 
      "sanName": "kerkstraat", 
      "numOfAddr": 26, 
      "lonmax": 3.4472711958573177, 
      "latmin": 50.775198471050075
    }, 
    {
      "latmax": 50.79343624235465, 
      "name": "Knobbelstraat", 
      "lonmin": 3.4331361002198775, 
      "sanName": "knobbelstraat", 
      "numOfAddr": 68, 
      "lonmax": 3.4423701618676605, 
      "latmin": 50.782993524902786
    }, 
    {
      "latmax": 50.781181226246716, 
      "name": "Knokstraat", 
      "lonmin": 3.437562930936369, 
      "sanName": "knokstraat", 
      "numOfAddr": 27, 
      "lonmax": 3.43876463939899, 
      "latmin": 50.7799916070907
    }, 
    {
      "latmax": 50.77631007870719, 
      "name": "Kortrijkstraat", 
      "lonmin": 3.4345015979064764, 
      "sanName": "kortrijkstraat", 
      "numOfAddr": 72, 
      "lonmax": 3.444805911486068, 
      "latmin": 50.77457201648605
    }, 
    {
      "latmax": 50.77242730650241, 
      "name": "Kouterlosstraat", 
      "lonmin": 3.432736759223492, 
      "sanName": "kouterlosstraat", 
      "numOfAddr": 14, 
      "lonmax": 3.434050486622906, 
      "latmin": 50.770720478648386
    }, 
    {
      "latmax": 50.77918576080385, 
      "name": "Kruisgrachtstraat", 
      "lonmin": 3.433077338292563, 
      "sanName": "kruisgrachtstraat", 
      "numOfAddr": 27, 
      "lonmax": 3.4347517764451907, 
      "latmin": 50.77775465451265
    }, 
    {
      "latmax": 50.788771544956056, 
      "name": "Langestraat", 
      "lonmin": 3.4554825189818117, 
      "sanName": "langestraat", 
      "numOfAddr": 42, 
      "lonmax": 3.4625377993107396, 
      "latmin": 50.78219833033733
    }, 
    {
      "latmax": 50.775063337080184, 
      "name": "Leopoldstraat", 
      "lonmin": 3.4450114724067022, 
      "sanName": "leopoldstraat", 
      "numOfAddr": 57, 
      "lonmax": 3.44881973598685, 
      "latmin": 50.77105357229898
    }, 
    {
      "latmax": 50.779474350896415, 
      "name": "Leynseelstraat", 
      "lonmin": 3.424787151523249, 
      "sanName": "leynseelstraat", 
      "numOfAddr": 87, 
      "lonmax": 3.4335565469095415, 
      "latmin": 50.774703131284504
    }, 
    {
      "latmax": 50.780846420206856, 
      "name": "Lijsterhof", 
      "lonmin": 3.45230797743802, 
      "sanName": "lijsterhof", 
      "numOfAddr": 12, 
      "lonmax": 3.4535946573195573, 
      "latmin": 50.78034467099847
    }, 
    {
      "latmax": 50.78295580916854, 
      "name": "Lindestraat", 
      "lonmin": 3.4640132674300195, 
      "sanName": "lindestraat", 
      "numOfAddr": 12, 
      "lonmax": 3.468973668741005, 
      "latmin": 50.78203653477397
    }, 
    {
      "latmax": 50.77469875856221, 
      "name": "Marktweg", 
      "lonmin": 3.4356709039715243, 
      "sanName": "marktweg", 
      "numOfAddr": 19, 
      "lonmax": 3.439321172436455, 
      "latmin": 50.77288093291452
    }, 
    {
      "latmax": 50.77043559436188, 
      "name": "Meersstraat", 
      "lonmin": 3.445448942406144, 
      "sanName": "meersstraat", 
      "numOfAddr": 36, 
      "lonmax": 3.4533055362594274, 
      "latmin": 50.767325677076826
    }, 
    {
      "latmax": 50.777353275181014, 
      "name": "Meulekouter", 
      "lonmin": 3.4435140355833815, 
      "sanName": "meulekouter", 
      "numOfAddr": 5, 
      "lonmax": 3.443847336554469, 
      "latmin": 50.77723647892157
    }, 
    {
      "latmax": 50.77815439615441, 
      "name": "Molendam", 
      "lonmin": 3.435862534036325, 
      "sanName": "molendam", 
      "numOfAddr": 42, 
      "lonmax": 3.4386401964650415, 
      "latmin": 50.77620973653429
    }, 
    {
      "latmax": 50.77071243651853, 
      "name": "Molenvoetweg", 
      "lonmin": 3.446107910719803, 
      "sanName": "molenvoetweg", 
      "numOfAddr": 6, 
      "lonmax": 3.4466641761657084, 
      "latmin": 50.7704367862459
    }, 
    {
      "latmax": 50.76898532101393, 
      "name": "Munkkouter", 
      "lonmin": 3.440067877048077, 
      "sanName": "munkkouter", 
      "numOfAddr": 4, 
      "lonmax": 3.440563494337567, 
      "latmin": 50.76770439705564
    }, 
    {
      "latmax": 50.77808066008893, 
      "name": "Neerstraat", 
      "lonmin": 3.4414592711519703, 
      "sanName": "neerstraat", 
      "numOfAddr": 49, 
      "lonmax": 3.4453438892093975, 
      "latmin": 50.776010572107296
    }, 
    {
      "latmax": 50.76236826852524, 
      "name": "Nijverheidslaan", 
      "lonmin": 3.443608533141008, 
      "sanName": "nijverheidslaan", 
      "numOfAddr": 23, 
      "lonmax": 3.4523083064459725, 
      "latmin": 50.758508376994136
    }, 
    {
      "latmax": 50.77498368933505, 
      "name": "Oedelestraat", 
      "lonmin": 3.4309738645206207, 
      "sanName": "oedelestraat", 
      "numOfAddr": 22, 
      "lonmax": 3.4339975479249207, 
      "latmin": 50.77323044625138
    }, 
    {
      "latmax": 50.78021641079237, 
      "name": "Olieslagershof", 
      "lonmin": 3.448778747956962, 
      "sanName": "olieslagershof", 
      "numOfAddr": 14, 
      "lonmax": 3.4493974665586604, 
      "latmin": 50.77972389879726
    }, 
    {
      "latmax": 50.78325127290042, 
      "name": "Oudenaardsesteenweg", 
      "lonmin": 3.4454324999274757, 
      "sanName": "oudenaardsesteenweg", 
      "numOfAddr": 134, 
      "lonmax": 3.4648238058846785, 
      "latmin": 50.77612795900501
    }, 
    {
      "latmax": 50.77953886428067, 
      "name": "Pietersveld", 
      "lonmin": 3.4349143500142407, 
      "sanName": "pietersveld", 
      "numOfAddr": 47, 
      "lonmax": 3.4365915142540886, 
      "latmin": 50.77773783052459
    }, 
    {
      "latmax": 50.77343821818343, 
      "name": "Pontstraat", 
      "lonmin": 3.434324915851557, 
      "sanName": "pontstraat", 
      "numOfAddr": 76, 
      "lonmax": 3.440850421516558, 
      "latmin": 50.765208690033035
    }, 
    {
      "latmax": 50.77318677694811, 
      "name": "Raaptorfstraat", 
      "lonmin": 3.4211290633891456, 
      "sanName": "raaptorfstraat", 
      "numOfAddr": 49, 
      "lonmax": 3.438382020054008, 
      "latmin": 50.76478073689535
    }, 
    {
      "latmax": 50.78096882232825, 
      "name": "Reigershof", 
      "lonmin": 3.4413583161418555, 
      "sanName": "reigershof", 
      "numOfAddr": 28, 
      "lonmax": 3.4434929950247097, 
      "latmin": 50.779237835083734
    }, 
    {
      "latmax": 50.77991510587287, 
      "name": "Rozenstraat", 
      "lonmin": 3.449870391001043, 
      "sanName": "rozenstraat", 
      "numOfAddr": 15, 
      "lonmax": 3.4510650094239304, 
      "latmin": 50.77908970394112
    }, 
    {
      "latmax": 50.778756352327214, 
      "name": "Ruggekouterweg", 
      "lonmin": 3.4619207902746276, 
      "sanName": "ruggekouterweg", 
      "numOfAddr": 20, 
      "lonmax": 3.465479454169597, 
      "latmin": 50.777680095623765
    }, 
    {
      "latmax": 50.78190223543459, 
      "name": "Ruggestraat", 
      "lonmin": 3.4634357159266527, 
      "sanName": "ruggestraat", 
      "numOfAddr": 63, 
      "lonmax": 3.4684961093653492, 
      "latmin": 50.77395468894782
    }, 
    {
      "latmax": 50.775779985021906, 
      "name": "Scheldelaan", 
      "lonmin": 3.4478320150414863, 
      "sanName": "scheldelaan", 
      "numOfAddr": 6, 
      "lonmax": 3.4558577682560445, 
      "latmin": 50.7714198651689
    }, 
    {
      "latmax": 50.779192058575624, 
      "name": "Sint-Jansstraat", 
      "lonmin": 3.4447863015423743, 
      "sanName": "sintjansstraat", 
      "numOfAddr": 19, 
      "lonmax": 3.4470158235596946, 
      "latmin": 50.77749806385092
    }, 
    {
      "latmax": 50.77460284315443, 
      "name": "Sint-Maartensstraat", 
      "lonmin": 3.433638536945776, 
      "sanName": "sintmaartensstraat", 
      "numOfAddr": 18, 
      "lonmax": 3.4343032549354744, 
      "latmin": 50.773634549947054
    }, 
    {
      "latmax": 50.778464926912, 
      "name": "Spichtestraat", 
      "lonmin": 3.4202717821669952, 
      "sanName": "spichtestraat", 
      "numOfAddr": 18, 
      "lonmax": 3.4258149224182652, 
      "latmin": 50.777662613453295
    }, 
    {
      "latmax": 50.78087260616329, 
      "name": "Stampkotstraat", 
      "lonmin": 3.4337795035473397, 
      "sanName": "stampkotstraat", 
      "numOfAddr": 25, 
      "lonmax": 3.435644942513785, 
      "latmin": 50.775215720855314
    }, 
    {
      "latmax": 50.77190454088757, 
      "name": "Stationsstraat", 
      "lonmin": 3.442700222400067, 
      "sanName": "stationsstraat", 
      "numOfAddr": 20, 
      "lonmax": 3.44358792878268, 
      "latmin": 50.77085294513177
    }, 
    {
      "latmax": 50.77791045834487, 
      "name": "Steenbakkerstraat", 
      "lonmin": 3.4252658343727016, 
      "sanName": "steenbakkerstraat", 
      "numOfAddr": 13, 
      "lonmax": 3.4264709973060747, 
      "latmin": 50.77668972840051
    }, 
    {
      "latmax": 50.77454433972166, 
      "name": "Stijn Streuvelslaan", 
      "lonmin": 3.434339786904771, 
      "sanName": "stijnstreuvelslaan", 
      "numOfAddr": 30, 
      "lonmax": 3.4428675941988103, 
      "latmin": 50.772107227462655
    }, 
    {
      "latmax": 50.78126672889706, 
      "name": "Toekomststraat", 
      "lonmin": 3.450613191626152, 
      "sanName": "toekomststraat", 
      "numOfAddr": 94, 
      "lonmax": 3.4576653742872168, 
      "latmin": 50.77844847397792
    }, 
    {
      "latmax": 50.78105690186607, 
      "name": "Tuinwijk", 
      "lonmin": 3.4499609788211014, 
      "sanName": "tuinwijk", 
      "numOfAddr": 36, 
      "lonmax": 3.45248629278228, 
      "latmin": 50.77973837231958
    }, 
    {
      "latmax": 50.780054856359754, 
      "name": "Tulpenlaan", 
      "lonmin": 3.4522777907670266, 
      "sanName": "tulpenlaan", 
      "numOfAddr": 44, 
      "lonmax": 3.4558181576096216, 
      "latmin": 50.77887027737488
    }, 
    {
      "latmax": 50.77073016974398, 
      "name": "Veldstraat", 
      "lonmin": 3.446846179949392, 
      "sanName": "veldstraat", 
      "numOfAddr": 24, 
      "lonmax": 3.447502465017097, 
      "latmin": 50.76971610504336
    }, 
    {
      "latmax": 50.77297297520274, 
      "name": "Vijverhoek", 
      "lonmin": 3.4413820941464617, 
      "sanName": "vijverhoek", 
      "numOfAddr": 20, 
      "lonmax": 3.443248050027119, 
      "latmin": 50.77164446203728
    }, 
    {
      "latmax": 50.774439740888816, 
      "name": "Volksstraat", 
      "lonmin": 3.4426490349594023, 
      "sanName": "volksstraat", 
      "numOfAddr": 16, 
      "lonmax": 3.443765914192702, 
      "latmin": 50.77399410106292
    }, 
    {
      "latmax": 50.76706652379949, 
      "name": "Vredestraat", 
      "lonmin": 3.4438250914051527, 
      "sanName": "vredestraat", 
      "numOfAddr": 31, 
      "lonmax": 3.445986631269237, 
      "latmin": 50.76625161132421
    }, 
    {
      "latmax": 50.787733922422795, 
      "name": "Waffelstraat", 
      "lonmin": 3.449670852325364, 
      "sanName": "waffelstraat", 
      "numOfAddr": 17, 
      "lonmax": 3.4555663775757752, 
      "latmin": 50.78162164316229
    }, 
    {
      "latmax": 50.78149628278915, 
      "name": "Waterhoek", 
      "lonmin": 3.4658004816146812, 
      "sanName": "waterhoek", 
      "numOfAddr": 42, 
      "lonmax": 3.4756264387351723, 
      "latmin": 50.77826292661704
    }, 
    {
      "latmax": 50.770866629134154, 
      "name": "Yzerwegstraat", 
      "lonmin": 3.4434738148864694, 
      "sanName": "yzerwegstraat", 
      "numOfAddr": 12, 
      "lonmax": 3.4445327738772495, 
      "latmin": 50.77023561507791
    }, 
    {
      "latmax": 50.77465489613559, 
      "name": "Zolderstraat", 
      "lonmin": 3.441218395328974, 
      "sanName": "zolderstraat", 
      "numOfAddr": 19, 
      "lonmax": 3.4425629235407684, 
      "latmin": 50.77301514709611
    }
  ]
}