{
  "streets": [
    {
      "latmax": 50.747275066004086, 
      "name": "Abdijstraat", 
      "lonmin": 3.40994579623612, 
      "sanName": "abdijstraat", 
      "numOfAddr": 3, 
      "lonmax": 3.41086502462869, 
      "latmin": 50.747248537934595
    }, 
    {
      "latmax": 50.74739808507174, 
      "name": "Amelbergastraat", 
      "lonmin": 3.406659175457814, 
      "sanName": "amelbergastraat", 
      "numOfAddr": 13, 
      "lonmax": 3.408113984483395, 
      "latmin": 50.74702652112302
    }, 
    {
      "latmax": 50.74791547628598, 
      "name": "Bossuitstraat", 
      "lonmin": 3.4062421251712824, 
      "sanName": "bossuitstraat", 
      "numOfAddr": 8, 
      "lonmax": 3.4097803273174865, 
      "latmin": 50.746764539681315
    }, 
    {
      "latmax": 50.75252288876181, 
      "name": "Bouvriestraat", 
      "lonmin": 3.3910146070808542, 
      "sanName": "bouvriestraat", 
      "numOfAddr": 9, 
      "lonmax": 3.404723921863016, 
      "latmin": 50.74821794549726
    }, 
    {
      "latmax": 50.750163903376084, 
      "name": "Doorniksesteenweg", 
      "lonmin": 3.396068276570612, 
      "sanName": "doorniksesteenweg", 
      "numOfAddr": 91, 
      "lonmax": 3.4147353636855216, 
      "latmin": 50.742268011995215
    }, 
    {
      "latmax": 50.75030103978321, 
      "name": "Dorrestraat", 
      "lonmin": 3.408288202820097, 
      "sanName": "dorrestraat", 
      "numOfAddr": 15, 
      "lonmax": 3.4091242151213947, 
      "latmin": 50.748514712367225
    }, 
    {
      "latmax": 50.75204980037658, 
      "name": "Kwastraat", 
      "lonmin": 3.4112510041376307, 
      "sanName": "kwastraat", 
      "numOfAddr": 9, 
      "lonmax": 3.412401069194269, 
      "latmin": 50.75091186383033
    }, 
    {
      "latmax": 50.7545345920163, 
      "name": "Moenstraat", 
      "lonmin": 3.410939291402008, 
      "sanName": "moenstraat", 
      "numOfAddr": 16, 
      "lonmax": 3.4134296715704107, 
      "latmin": 50.750229790749266
    }, 
    {
      "latmax": 50.747709623660384, 
      "name": "Oeverstraat", 
      "lonmin": 3.410081158464508, 
      "sanName": "oeverstraat", 
      "numOfAddr": 4, 
      "lonmax": 3.410665639946627, 
      "latmin": 50.74735201192433
    }, 
    {
      "latmax": 50.749627925915, 
      "name": "Oudstrijderslaan", 
      "lonmin": 3.4041693008416942, 
      "sanName": "oudstrijderslaan", 
      "numOfAddr": 26, 
      "lonmax": 3.406141009371874, 
      "latmin": 50.74875919826381
    }, 
    {
      "latmax": 50.74520384012041, 
      "name": "Parkstraat", 
      "lonmin": 3.4013069797963307, 
      "sanName": "parkstraat", 
      "numOfAddr": 3, 
      "lonmax": 3.4019599070272406, 
      "latmin": 50.74431368728063
    }, 
    {
      "latmax": 50.75538268473151, 
      "name": "Plein", 
      "lonmin": 3.4071148519530525, 
      "sanName": "plein", 
      "numOfAddr": 3, 
      "lonmax": 3.4103263659341096, 
      "latmin": 50.75411423719984
    }, 
    {
      "latmax": 50.74653090910696, 
      "name": "Scheldeoeverstraat", 
      "lonmin": 3.402833530537243, 
      "sanName": "scheldeoeverstraat", 
      "numOfAddr": 9, 
      "lonmax": 3.4035596705392153, 
      "latmin": 50.7456228492005
    }, 
    {
      "latmax": 50.749181145133605, 
      "name": "Schoolstraat", 
      "lonmin": 3.40640220826387, 
      "sanName": "schoolstraat", 
      "numOfAddr": 8, 
      "lonmax": 3.4072926380350403, 
      "latmin": 50.74847762311202
    }, 
    {
      "latmax": 50.74539323018699, 
      "name": "Vierabeelstraat", 
      "lonmin": 3.3951620939562703, 
      "sanName": "vierabeelstraat", 
      "numOfAddr": 1, 
      "lonmax": 3.3951620939562703, 
      "latmin": 50.74539323018699
    }, 
    {
      "latmax": 50.74955330280759, 
      "name": "Vlaanderenstraat", 
      "lonmin": 3.4073327666411557, 
      "sanName": "vlaanderenstraat", 
      "numOfAddr": 19, 
      "lonmax": 3.408278509047083, 
      "latmin": 50.748715309069816
    }
  ]
}