{
  "streets": [
    {
      "latmax": 50.918654459738555, 
      "name": "Abeelestraat", 
      "lonmin": 2.6682782257686672, 
      "sanName": "abeelestraat", 
      "numOfAddr": 3, 
      "lonmax": 2.6693805292150925, 
      "latmin": 50.91604623818565
    }, 
    {
      "latmax": 50.940560044918556, 
      "name": "Alexis Decarneplein", 
      "lonmin": 2.6727456573446826, 
      "sanName": "alexisdecarneplein", 
      "numOfAddr": 5, 
      "lonmax": 2.673689880448112, 
      "latmin": 50.93981662323656
    }, 
    {
      "latmax": 51.00125357957938, 
      "name": "Beauvoordestraat", 
      "lonmin": 2.65499355962407, 
      "sanName": "beauvoordestraat", 
      "numOfAddr": 13, 
      "lonmax": 2.6609947432764347, 
      "latmin": 50.997115455858484
    }, 
    {
      "latmax": 50.98107001903826, 
      "name": "Bellestraat", 
      "lonmin": 2.666727302254307, 
      "sanName": "bellestraat", 
      "numOfAddr": 35, 
      "lonmax": 2.6836873778717347, 
      "latmin": 50.97103114480634
    }, 
    {
      "latmax": 50.92530926725904, 
      "name": "Bergenstraat", 
      "lonmin": 2.600784430315974, 
      "sanName": "bergenstraat", 
      "numOfAddr": 89, 
      "lonmax": 2.6207133692844455, 
      "latmin": 50.92071312569811
    }, 
    {
      "latmax": 50.98429732906561, 
      "name": "Beverenstraat", 
      "lonmin": 2.6224825131150324, 
      "sanName": "beverenstraat", 
      "numOfAddr": 95, 
      "lonmax": 2.642344873274198, 
      "latmin": 50.9506773053953
    }, 
    {
      "latmax": 50.93886128992258, 
      "name": "Binneweg", 
      "lonmin": 2.639103791789528, 
      "sanName": "binneweg", 
      "numOfAddr": 5, 
      "lonmax": 2.6402987925108556, 
      "latmin": 50.93805145171752
    }, 
    {
      "latmax": 50.91325215639907, 
      "name": "Bromstraat", 
      "lonmin": 2.6562344363525416, 
      "sanName": "bromstraat", 
      "numOfAddr": 6, 
      "lonmax": 2.6613787527828063, 
      "latmin": 50.90770441874755
    }, 
    {
      "latmax": 50.925034423715616, 
      "name": "Casselstraat", 
      "lonmin": 2.590673339330049, 
      "sanName": "casselstraat", 
      "numOfAddr": 15, 
      "lonmax": 2.6008887155441403, 
      "latmin": 50.91916531164431
    }, 
    {
      "latmax": 50.96584964563465, 
      "name": "Ekestraat", 
      "lonmin": 2.6554031191407543, 
      "sanName": "ekestraat", 
      "numOfAddr": 8, 
      "lonmax": 2.6767208444373884, 
      "latmin": 50.95619515474318
    }, 
    {
      "latmax": 50.967243532405334, 
      "name": "Elzendammestraat", 
      "lonmin": 2.6796436250680076, 
      "sanName": "elzendammestraat", 
      "numOfAddr": 11, 
      "lonmax": 2.694781492053758, 
      "latmin": 50.95905336196322
    }, 
    {
      "latmax": 50.949245206413785, 
      "name": "Eversamstraat", 
      "lonmin": 2.690749978900297, 
      "sanName": "eversamstraat", 
      "numOfAddr": 12, 
      "lonmax": 2.7149132266676985, 
      "latmin": 50.93573298618923
    }, 
    {
      "latmax": 50.94976788203162, 
      "name": "Foortstraat", 
      "lonmin": 2.6505049235349833, 
      "sanName": "foortstraat", 
      "numOfAddr": 2, 
      "lonmax": 2.6509869220769806, 
      "latmin": 50.94871528991119
    }, 
    {
      "latmax": 50.972686393722796, 
      "name": "Gemeneweg", 
      "lonmin": 2.613313886121698, 
      "sanName": "gemeneweg", 
      "numOfAddr": 14, 
      "lonmax": 2.6314923787330744, 
      "latmin": 50.949323797203064
    }, 
    {
      "latmax": 50.968558051747074, 
      "name": "Gijverinkhovestraat", 
      "lonmin": 2.667940848601442, 
      "sanName": "gijverinkhovestraat", 
      "numOfAddr": 2, 
      "lonmax": 2.669988587470298, 
      "latmin": 50.96695304961035
    }, 
    {
      "latmax": 50.9459158410434, 
      "name": "Grensstraat", 
      "lonmin": 2.60406324246477, 
      "sanName": "grensstraat", 
      "numOfAddr": 15, 
      "lonmax": 2.634073076616731, 
      "latmin": 50.927769263714076
    }, 
    {
      "latmax": 50.99415647937686, 
      "name": "Groenestraat", 
      "lonmin": 2.652393638650961, 
      "sanName": "groenestraat", 
      "numOfAddr": 80, 
      "lonmax": 2.6658330501542062, 
      "latmin": 50.97030323157296
    }, 
    {
      "latmax": 50.91488313937233, 
      "name": "Handstraat", 
      "lonmin": 2.6695778083978254, 
      "sanName": "handstraat", 
      "numOfAddr": 1, 
      "lonmax": 2.6695778083978254, 
      "latmin": 50.91488313937233
    }, 
    {
      "latmax": 50.93887717655443, 
      "name": "Hoekjestraat", 
      "lonmin": 2.677107096237336, 
      "sanName": "hoekjestraat", 
      "numOfAddr": 18, 
      "lonmax": 2.689524001617662, 
      "latmin": 50.929037965070144
    }, 
    {
      "latmax": 50.92725622248595, 
      "name": "Hoge Seine", 
      "lonmin": 2.6165346443802777, 
      "sanName": "hogeseine", 
      "numOfAddr": 7, 
      "lonmax": 2.6173071201904246, 
      "latmin": 50.92465504721342
    }, 
    {
      "latmax": 50.93981040025559, 
      "name": "Hondschootestraat", 
      "lonmin": 2.6284475083915666, 
      "sanName": "hondschootestraat", 
      "numOfAddr": 32, 
      "lonmax": 2.639590445907704, 
      "latmin": 50.93807482279026
    }, 
    {
      "latmax": 50.93480784109165, 
      "name": "Hondspootstraat", 
      "lonmin": 2.655667396868091, 
      "sanName": "hondspootstraat", 
      "numOfAddr": 15, 
      "lonmax": 2.676963210009047, 
      "latmin": 50.918232697645045
    }, 
    {
      "latmax": 50.98927517592037, 
      "name": "Houtemstraat", 
      "lonmin": 2.6133492064473733, 
      "sanName": "houtemstraat", 
      "numOfAddr": 2, 
      "lonmax": 2.617826482060881, 
      "latmin": 50.9880997790398
    }, 
    {
      "latmax": 50.95678468859715, 
      "name": "IJzerstraat", 
      "lonmin": 2.6565296131686935, 
      "sanName": "ijzerstraat", 
      "numOfAddr": 36, 
      "lonmax": 2.6728169508756583, 
      "latmin": 50.93985613596306
    }, 
    {
      "latmax": 51.00422659061965, 
      "name": "Izenbergestraat", 
      "lonmin": 2.6218712811423304, 
      "sanName": "izenbergestraat", 
      "numOfAddr": 139, 
      "lonmax": 2.67170988172357, 
      "latmin": 50.98435298047787
    }, 
    {
      "latmax": 50.95839663101659, 
      "name": "Jokweg", 
      "lonmin": 2.6842603045121773, 
      "sanName": "jokweg", 
      "numOfAddr": 2, 
      "lonmax": 2.687941577842744, 
      "latmin": 50.95658320534135
    }, 
    {
      "latmax": 50.94017529575581, 
      "name": "Kallebeekweg", 
      "lonmin": 2.6414567564365283, 
      "sanName": "kallebeekweg", 
      "numOfAddr": 3, 
      "lonmax": 2.6421698415035193, 
      "latmin": 50.939378845386614
    }, 
    {
      "latmax": 50.96501254540942, 
      "name": "Kallestraat", 
      "lonmin": 2.6374910775477027, 
      "sanName": "kallestraat", 
      "numOfAddr": 54, 
      "lonmax": 2.6629776249621964, 
      "latmin": 50.939496269793636
    }, 
    {
      "latmax": 50.974052599989434, 
      "name": "Kasteeldreef", 
      "lonmin": 2.6757572168017747, 
      "sanName": "kasteeldreef", 
      "numOfAddr": 2, 
      "lonmax": 2.675814160828265, 
      "latmin": 50.9732788702669
    }, 
    {
      "latmax": 50.99691380405384, 
      "name": "Kazernestraat", 
      "lonmin": 2.6635642763084757, 
      "sanName": "kazernestraat", 
      "numOfAddr": 10, 
      "lonmax": 2.683333657154994, 
      "latmin": 50.98187571295027
    }, 
    {
      "latmax": 50.989229442062545, 
      "name": "Kerselaarstraat", 
      "lonmin": 2.630424917412281, 
      "sanName": "kerselaarstraat", 
      "numOfAddr": 10, 
      "lonmax": 2.6357984619015964, 
      "latmin": 50.98089490117133
    }, 
    {
      "latmax": 50.92189934501709, 
      "name": "Kleine St.-Omaarsstraat", 
      "lonmin": 2.619494437300042, 
      "sanName": "kleinestomaarsstraat", 
      "numOfAddr": 2, 
      "lonmax": 2.6195571610111146, 
      "latmin": 50.92185318242562
    }, 
    {
      "latmax": 50.93984531644279, 
      "name": "Krombekestraat", 
      "lonmin": 2.669195316401015, 
      "sanName": "krombekestraat", 
      "numOfAddr": 99, 
      "lonmax": 2.6756922239013874, 
      "latmin": 50.92189365411799
    }, 
    {
      "latmax": 50.98518875138051, 
      "name": "Leiseledorp", 
      "lonmin": 2.62017528106371, 
      "sanName": "leiseledorp", 
      "numOfAddr": 31, 
      "lonmax": 2.6225989793295916, 
      "latmin": 50.98339848371512
    }, 
    {
      "latmax": 50.95641717711801, 
      "name": "Lindestraat", 
      "lonmin": 2.639521238243048, 
      "sanName": "lindestraat", 
      "numOfAddr": 36, 
      "lonmax": 2.706656262041503, 
      "latmin": 50.941899567898794
    }, 
    {
      "latmax": 50.984135923533074, 
      "name": "Linseledreef", 
      "lonmin": 2.66392578249754, 
      "sanName": "linseledreef", 
      "numOfAddr": 3, 
      "lonmax": 2.6686389857229753, 
      "latmin": 50.98223661651538
    }, 
    {
      "latmax": 50.9781899503674, 
      "name": "Lostraat", 
      "lonmin": 2.610691003725499, 
      "sanName": "lostraat", 
      "numOfAddr": 40, 
      "lonmax": 2.6824421243346097, 
      "latmin": 50.96738989654444
    }, 
    {
      "latmax": 50.93041678164218, 
      "name": "Meersdreef", 
      "lonmin": 2.6986235194935735, 
      "sanName": "meersdreef", 
      "numOfAddr": 2, 
      "lonmax": 2.7019894376540927, 
      "latmin": 50.92927948870239
    }, 
    {
      "latmax": 50.92405231600411, 
      "name": "Molendreef", 
      "lonmin": 2.666709039789754, 
      "sanName": "molendreef", 
      "numOfAddr": 4, 
      "lonmax": 2.6710651280986264, 
      "latmin": 50.92147837844521
    }, 
    {
      "latmax": 50.96343517815333, 
      "name": "Neerloopstraat", 
      "lonmin": 2.6638913206322488, 
      "sanName": "neerloopstraat", 
      "numOfAddr": 4, 
      "lonmax": 2.665596826646526, 
      "latmin": 50.95220027655011
    }, 
    {
      "latmax": 50.93489547431592, 
      "name": "Notelaarstraat", 
      "lonmin": 2.6877670350319858, 
      "sanName": "notelaarstraat", 
      "numOfAddr": 15, 
      "lonmax": 2.702901728452815, 
      "latmin": 50.92941157174537
    }, 
    {
      "latmax": 50.94672097788457, 
      "name": "Oude Bekestraat", 
      "lonmin": 2.678466230464988, 
      "sanName": "oudebekestraat", 
      "numOfAddr": 6, 
      "lonmax": 2.6934194240974385, 
      "latmin": 50.93671383724803
    }, 
    {
      "latmax": 51.0015460896473, 
      "name": "Oude Molenstraat", 
      "lonmin": 2.6454976428917383, 
      "sanName": "oudemolenstraat", 
      "numOfAddr": 5, 
      "lonmax": 2.654063077349212, 
      "latmin": 50.997936024756164
    }, 
    {
      "latmax": 50.99400516132288, 
      "name": "Pastoriedreef", 
      "lonmin": 2.6564878414790463, 
      "sanName": "pastoriedreef", 
      "numOfAddr": 10, 
      "lonmax": 2.665966115195746, 
      "latmin": 50.99197377411815
    }, 
    {
      "latmax": 51.003769532795914, 
      "name": "Reningheersdijk", 
      "lonmin": 2.6133755946161568, 
      "sanName": "reningheersdijk", 
      "numOfAddr": 5, 
      "lonmax": 2.642106130927196, 
      "latmin": 50.9877678509031
    }, 
    {
      "latmax": 50.93932271050336, 
      "name": "Roesbruggestraat", 
      "lonmin": 2.617265903970376, 
      "sanName": "roesbruggestraat", 
      "numOfAddr": 81, 
      "lonmax": 2.6416915528088007, 
      "latmin": 50.92356256127786
    }, 
    {
      "latmax": 50.927950442654, 
      "name": "Roggestraat", 
      "lonmin": 2.678569213588333, 
      "sanName": "roggestraat", 
      "numOfAddr": 10, 
      "lonmax": 2.6906147520449117, 
      "latmin": 50.923226174013294
    }, 
    {
      "latmax": 50.9807293466404, 
      "name": "Sleutelstraat", 
      "lonmin": 2.66326468731214, 
      "sanName": "sleutelstraat", 
      "numOfAddr": 8, 
      "lonmax": 2.6753797448814773, 
      "latmin": 50.972267466452564
    }, 
    {
      "latmax": 50.9870065659834, 
      "name": "Stationsplein", 
      "lonmin": 2.6207406935657014, 
      "sanName": "stationsplein", 
      "numOfAddr": 32, 
      "lonmax": 2.6231377150448316, 
      "latmin": 50.98515297337272
    }, 
    {
      "latmax": 51.00144087184044, 
      "name": "Stavelestraat", 
      "lonmin": 2.306689562140502, 
      "sanName": "stavelestraat", 
      "numOfAddr": 23, 
      "lonmax": 2.655589767724411, 
      "latmin": 49.293335165093566
    }, 
    {
      "latmax": 50.93910205180661, 
      "name": "St.-Brigidaplein", 
      "lonmin": 2.641361270770022, 
      "sanName": "stbrigidaplein", 
      "numOfAddr": 6, 
      "lonmax": 2.642267517069063, 
      "latmin": 50.93868244590631
    }, 
    {
      "latmax": 50.99378628920259, 
      "name": "St.-Mildredaplein", 
      "lonmin": 2.6538403171937706, 
      "sanName": "stmildredaplein", 
      "numOfAddr": 11, 
      "lonmax": 2.6549535664736785, 
      "latmin": 50.99307484437929
    }, 
    {
      "latmax": 50.9200771521155, 
      "name": "St.-Omaarsstraat", 
      "lonmin": 2.5944051363564204, 
      "sanName": "stomaarsstraat", 
      "numOfAddr": 9, 
      "lonmax": 2.6140934758391334, 
      "latmin": 50.91668440794473
    }, 
    {
      "latmax": 50.997763536472064, 
      "name": "Turfweg", 
      "lonmin": 2.6433802640925426, 
      "sanName": "turfweg", 
      "numOfAddr": 3, 
      "lonmax": 2.6453282163841703, 
      "latmin": 50.99363583070149
    }, 
    {
      "latmax": 50.992221744650806, 
      "name": "Veurnestraat", 
      "lonmin": 2.6134219916006787, 
      "sanName": "veurnestraat", 
      "numOfAddr": 48, 
      "lonmax": 2.627434235371348, 
      "latmin": 50.968774661417754
    }, 
    {
      "latmax": 50.91735822391386, 
      "name": "Waaienburgstraat", 
      "lonmin": 2.653969991507676, 
      "sanName": "waaienburgstraat", 
      "numOfAddr": 11, 
      "lonmax": 2.669425052121823, 
      "latmin": 50.91529167031637
    }, 
    {
      "latmax": 50.97205503723601, 
      "name": "Weegschede", 
      "lonmin": 2.673721303244971, 
      "sanName": "weegschede", 
      "numOfAddr": 70, 
      "lonmax": 2.6792688783384566, 
      "latmin": 50.96874764635747
    }, 
    {
      "latmax": 50.939940422835285, 
      "name": "Westsluisstraat", 
      "lonmin": 2.654113463184028, 
      "sanName": "westsluisstraat", 
      "numOfAddr": 17, 
      "lonmax": 2.6694417050961077, 
      "latmin": 50.927475150313526
    }, 
    {
      "latmax": 50.92656894755695, 
      "name": "Zuidstraat", 
      "lonmin": 2.612991084260967, 
      "sanName": "zuidstraat", 
      "numOfAddr": 14, 
      "lonmax": 2.616454526287013, 
      "latmin": 50.92572074747273
    }, 
    {
      "latmax": 50.939674051200534, 
      "name": "Zwanestraat", 
      "lonmin": 2.673158317186901, 
      "sanName": "zwanestraat", 
      "numOfAddr": 30, 
      "lonmax": 2.67534320411219, 
      "latmin": 50.938443960164854
    }
  ]
}