{
  "streets": [
    {
      "latmax": 51.04482834840034, 
      "name": "Akkerstraat", 
      "lonmin": 3.2292556187104586, 
      "sanName": "akkerstraat", 
      "numOfAddr": 8, 
      "lonmax": 3.246494794027113, 
      "latmin": 51.04030698406969
    }, 
    {
      "latmax": 51.03955022614696, 
      "name": "Aspergemstraat", 
      "lonmin": 3.1833103869011117, 
      "sanName": "aspergemstraat", 
      "numOfAddr": 29, 
      "lonmax": 3.1930918179885577, 
      "latmin": 51.026734588565894
    }, 
    {
      "latmax": 51.06878045981441, 
      "name": "Balgerhoekstraat", 
      "lonmin": 3.305939491430295, 
      "sanName": "balgerhoekstraat", 
      "numOfAddr": 109, 
      "lonmax": 3.327250998098084, 
      "latmin": 51.0554758946803
    }, 
    {
      "latmax": 51.0467287224767, 
      "name": "Barbierstraat", 
      "lonmin": 3.2287331374347277, 
      "sanName": "barbierstraat", 
      "numOfAddr": 8, 
      "lonmax": 3.230112374624834, 
      "latmin": 51.046209797376804
    }, 
    {
      "latmax": 51.03473721610971, 
      "name": "Baron de Boesinghestraat", 
      "lonmin": 3.2057061464809977, 
      "sanName": "barondeboesinghestraat", 
      "numOfAddr": 26, 
      "lonmax": 3.2073446848990175, 
      "latmin": 51.03217889945627
    }, 
    {
      "latmax": 51.08180801123653, 
      "name": "Baron van der Bruggenlaan", 
      "lonmin": 3.302880090740049, 
      "sanName": "baronvanderbruggenlaan", 
      "numOfAddr": 21, 
      "lonmax": 3.3060542714342986, 
      "latmin": 51.08038307934445
    }, 
    {
      "latmax": 51.07086254431966, 
      "name": "Bedelfstraat", 
      "lonmin": 3.2907959597544654, 
      "sanName": "bedelfstraat", 
      "numOfAddr": 26, 
      "lonmax": 3.3001471775576348, 
      "latmin": 51.06933987839556
    }, 
    {
      "latmax": 51.10085845896501, 
      "name": "Beernemsteenweg", 
      "lonmin": 2.306689562140502, 
      "sanName": "beernemsteenweg", 
      "numOfAddr": 144, 
      "lonmax": 3.3114691186384344, 
      "latmin": 49.293335165093566
    }, 
    {
      "latmax": 51.06568166376972, 
      "name": "Beernemstraat", 
      "lonmin": 3.274629268716654, 
      "sanName": "beernemstraat", 
      "numOfAddr": 88, 
      "lonmax": 3.283477457068905, 
      "latmin": 51.0591728282486
    }, 
    {
      "latmax": 51.05966540700167, 
      "name": "Beerweg", 
      "lonmin": 3.304798357794496, 
      "sanName": "beerweg", 
      "numOfAddr": 3, 
      "lonmax": 3.306096622933829, 
      "latmin": 51.05575576722461
    }, 
    {
      "latmax": 51.05193553207419, 
      "name": "Belgi\u0089laan", 
      "lonmin": 3.2274451792777596, 
      "sanName": "belgilaan", 
      "numOfAddr": 28, 
      "lonmax": 3.229219493145009, 
      "latmin": 51.05073440418126
    }, 
    {
      "latmax": 51.03716123901848, 
      "name": "Berkenlaan", 
      "lonmin": 3.217603275567607, 
      "sanName": "berkenlaan", 
      "numOfAddr": 10, 
      "lonmax": 3.218550624604028, 
      "latmin": 51.036287417736936
    }, 
    {
      "latmax": 51.05411496080113, 
      "name": "Bertstraat", 
      "lonmin": 3.256285325299255, 
      "sanName": "bertstraat", 
      "numOfAddr": 7, 
      "lonmax": 3.2581156857380704, 
      "latmin": 51.04783210080859
    }, 
    {
      "latmax": 51.08211326632072, 
      "name": "Beukendreef", 
      "lonmin": 3.318688775386058, 
      "sanName": "beukendreef", 
      "numOfAddr": 2, 
      "lonmax": 3.3300356388425305, 
      "latmin": 51.08158003137356
    }, 
    {
      "latmax": 51.036334732545775, 
      "name": "Beukenlaan", 
      "lonmin": 3.216933437814003, 
      "sanName": "beukenlaan", 
      "numOfAddr": 10, 
      "lonmax": 3.2191718962225093, 
      "latmin": 51.03559857887623
    }, 
    {
      "latmax": 51.05438012801022, 
      "name": "Blauwe-Reigerlaan", 
      "lonmin": 3.2697269303085905, 
      "sanName": "blauwereigerlaan", 
      "numOfAddr": 4, 
      "lonmax": 3.270410510781134, 
      "latmin": 51.05412574258196
    }, 
    {
      "latmax": 51.097845231759926, 
      "name": "Blauwhuisstraat", 
      "lonmin": 3.310527656897499, 
      "sanName": "blauwhuisstraat", 
      "numOfAddr": 13, 
      "lonmax": 3.328596374839566, 
      "latmin": 51.09120757179042
    }, 
    {
      "latmax": 51.05932868202964, 
      "name": "Blekreke", 
      "lonmin": 3.280571320506275, 
      "sanName": "blekreke", 
      "numOfAddr": 7, 
      "lonmax": 3.2812497259931943, 
      "latmin": 51.05860661454321
    }, 
    {
      "latmax": 51.04058392901088, 
      "name": "Blindestraat", 
      "lonmin": 3.195817697118032, 
      "sanName": "blindestraat", 
      "numOfAddr": 3, 
      "lonmax": 3.1979969514735407, 
      "latmin": 51.03947468725745
    }, 
    {
      "latmax": 51.0553372046838, 
      "name": "Boekweitlaan", 
      "lonmin": 3.2681500194669213, 
      "sanName": "boekweitlaan", 
      "numOfAddr": 16, 
      "lonmax": 3.2691431336229533, 
      "latmin": 51.05438400323603
    }, 
    {
      "latmax": 51.097023691460585, 
      "name": "Bosbessendreef", 
      "lonmin": 3.2916460452174525, 
      "sanName": "bosbessendreef", 
      "numOfAddr": 2, 
      "lonmax": 3.291783286983851, 
      "latmin": 51.09589322477837
    }, 
    {
      "latmax": 51.0873331644535, 
      "name": "Boskapeldreef", 
      "lonmin": 3.3148143580626273, 
      "sanName": "boskapeldreef", 
      "numOfAddr": 6, 
      "lonmax": 3.335804075570815, 
      "latmin": 51.085396033404265
    }, 
    {
      "latmax": 51.06419405600083, 
      "name": "Bosveldstraat", 
      "lonmin": 3.209194031734709, 
      "sanName": "bosveldstraat", 
      "numOfAddr": 17, 
      "lonmax": 3.215141022477347, 
      "latmin": 51.04946441900758
    }, 
    {
      "latmax": 51.052738491180754, 
      "name": "Boterstraat", 
      "lonmin": 3.2264502405588957, 
      "sanName": "boterstraat", 
      "numOfAddr": 39, 
      "lonmax": 3.239418876286004, 
      "latmin": 51.04948387499514
    }, 
    {
      "latmax": 51.05395377277317, 
      "name": "Bredenbarm", 
      "lonmin": 3.1887905774959595, 
      "sanName": "bredenbarm", 
      "numOfAddr": 1, 
      "lonmax": 3.1887905774959595, 
      "latmin": 51.05395377277317
    }, 
    {
      "latmax": 51.09703585780554, 
      "name": "Bremdreef", 
      "lonmin": 3.2917894791445925, 
      "sanName": "bremdreef", 
      "numOfAddr": 61, 
      "lonmax": 3.301686826894288, 
      "latmin": 51.09584102576139
    }, 
    {
      "latmax": 51.056039057938456, 
      "name": "Breughellaan", 
      "lonmin": 3.266685824699359, 
      "sanName": "breughellaan", 
      "numOfAddr": 27, 
      "lonmax": 3.267988635822289, 
      "latmin": 51.05410960493762
    }, 
    {
      "latmax": 51.040246217256346, 
      "name": "Brokkelingstraat", 
      "lonmin": 3.2230994797859003, 
      "sanName": "brokkelingstraat", 
      "numOfAddr": 30, 
      "lonmax": 3.227017892793034, 
      "latmin": 51.03877143585533
    }, 
    {
      "latmax": 51.05701462851511, 
      "name": "Brouwerijstraat", 
      "lonmin": 3.273407374137389, 
      "sanName": "brouwerijstraat", 
      "numOfAddr": 39, 
      "lonmax": 3.2757859178666244, 
      "latmin": 51.055509305107215
    }, 
    {
      "latmax": 51.04449377110857, 
      "name": "Bruggestraat", 
      "lonmin": 3.210294446567004, 
      "sanName": "bruggestraat", 
      "numOfAddr": 221, 
      "lonmax": 3.225515579656293, 
      "latmin": 51.036402367418546
    }, 
    {
      "latmax": 51.064256225359756, 
      "name": "Brugsesteenweg", 
      "lonmin": 3.2229239192013184, 
      "sanName": "brugsesteenweg", 
      "numOfAddr": 37, 
      "lonmax": 3.2291773533655457, 
      "latmin": 51.055973087214014
    }, 
    {
      "latmax": 51.0448380514316, 
      "name": "Bruwaenestraat", 
      "lonmin": 3.271999988633892, 
      "sanName": "bruwaenestraat", 
      "numOfAddr": 2, 
      "lonmax": 3.2739937726022648, 
      "latmin": 51.04312566520675
    }, 
    {
      "latmax": 51.04002078408718, 
      "name": "Cauwenteynestraat", 
      "lonmin": 3.1713824721559303, 
      "sanName": "cauwenteynestraat", 
      "numOfAddr": 9, 
      "lonmax": 3.187142003354703, 
      "latmin": 51.034988817687015
    }, 
    {
      "latmax": 51.05613499516934, 
      "name": "De Ast", 
      "lonmin": 3.2796292692586975, 
      "sanName": "deast", 
      "numOfAddr": 10, 
      "lonmax": 3.280382776932629, 
      "latmin": 51.05506011871587
    }, 
    {
      "latmax": 51.080852278901595, 
      "name": "De Gruyterdreef", 
      "lonmin": 3.300907349159449, 
      "sanName": "degruyterdreef", 
      "numOfAddr": 31, 
      "lonmax": 3.323465920090668, 
      "latmin": 51.07851819976673
    }, 
    {
      "latmax": 51.06379249876895, 
      "name": "De Schakel", 
      "lonmin": 3.287316440320012, 
      "sanName": "deschakel", 
      "numOfAddr": 30, 
      "lonmax": 3.2886805198492532, 
      "latmin": 51.06289401026543
    }, 
    {
      "latmax": 51.0713214005113, 
      "name": "Doornstraat", 
      "lonmin": 3.2553610528626824, 
      "sanName": "doornstraat", 
      "numOfAddr": 20, 
      "lonmax": 3.258782737596492, 
      "latmin": 51.07009972733411
    }, 
    {
      "latmax": 51.04534238255103, 
      "name": "Driekavenstraat", 
      "lonmin": 3.1949058181328023, 
      "sanName": "driekavenstraat", 
      "numOfAddr": 5, 
      "lonmax": 3.2080951362634775, 
      "latmin": 51.04287154275416
    }, 
    {
      "latmax": 51.058180216342215, 
      "name": "Egemsestraat", 
      "lonmin": 3.261549125497369, 
      "sanName": "egemsestraat", 
      "numOfAddr": 74, 
      "lonmax": 3.2740159350667017, 
      "latmin": 51.039077414910714
    }, 
    {
      "latmax": 51.077263835369784, 
      "name": "Eikendreef", 
      "lonmin": 3.317259447233809, 
      "sanName": "eikendreef", 
      "numOfAddr": 15, 
      "lonmax": 3.3256335193929334, 
      "latmin": 51.07333294556664
    }, 
    {
      "latmax": 51.03622640243136, 
      "name": "Eikenhof", 
      "lonmin": 3.2160841029000067, 
      "sanName": "eikenhof", 
      "numOfAddr": 4, 
      "lonmax": 3.216571986869868, 
      "latmin": 51.03572019509371
    }, 
    {
      "latmax": 51.057448626696385, 
      "name": "Eikenstraat", 
      "lonmin": 3.2844369040046604, 
      "sanName": "eikenstraat", 
      "numOfAddr": 3, 
      "lonmax": 3.2857856948446846, 
      "latmin": 51.05725679744747
    }, 
    {
      "latmax": 51.05472977182739, 
      "name": "Europalaan", 
      "lonmin": 3.2814048940912817, 
      "sanName": "europalaan", 
      "numOfAddr": 7, 
      "lonmax": 3.2824625071315467, 
      "latmin": 51.05388299078779
    }, 
    {
      "latmax": 51.09899681572935, 
      "name": "Fazantendreef", 
      "lonmin": 3.30790587502398, 
      "sanName": "fazantendreef", 
      "numOfAddr": 1, 
      "lonmax": 3.30790587502398, 
      "latmin": 51.09899681572935
    }, 
    {
      "latmax": 51.055303782915985, 
      "name": "Fonteinlaan", 
      "lonmin": 3.269272417634619, 
      "sanName": "fonteinlaan", 
      "numOfAddr": 10, 
      "lonmax": 3.270229574837794, 
      "latmin": 51.05450597702452
    }, 
    {
      "latmax": 51.060288560175316, 
      "name": "Futselstraat", 
      "lonmin": 3.276587474585731, 
      "sanName": "futselstraat", 
      "numOfAddr": 40, 
      "lonmax": 3.2783820384167637, 
      "latmin": 51.05853660838431
    }, 
    {
      "latmax": 51.05790296632212, 
      "name": "Galgenstraat", 
      "lonmin": 3.273882304025221, 
      "sanName": "galgenstraat", 
      "numOfAddr": 15, 
      "lonmax": 3.2756829878655775, 
      "latmin": 51.05717839926686
    }, 
    {
      "latmax": 51.05697739360743, 
      "name": "Gemeenteplein", 
      "lonmin": 3.276693866494654, 
      "sanName": "gemeenteplein", 
      "numOfAddr": 1, 
      "lonmax": 3.276693866494654, 
      "latmin": 51.05697739360743
    }, 
    {
      "latmax": 51.03142424243675, 
      "name": "Gemenestraat", 
      "lonmin": 3.1839119825832682, 
      "sanName": "gemenestraat", 
      "numOfAddr": 2, 
      "lonmax": 3.1853113251801575, 
      "latmin": 51.031345169476054
    }, 
    {
      "latmax": 51.047522684199606, 
      "name": "Gevaertstraat", 
      "lonmin": 3.252941613731822, 
      "sanName": "gevaertstraat", 
      "numOfAddr": 5, 
      "lonmax": 3.2599869860439212, 
      "latmin": 51.04402289862475
    }, 
    {
      "latmax": 51.082476753289036, 
      "name": "Gravestraat", 
      "lonmin": 3.2798110720637283, 
      "sanName": "gravestraat", 
      "numOfAddr": 56, 
      "lonmax": 3.301538042289668, 
      "latmin": 51.07690591372783
    }, 
    {
      "latmax": 51.05814059695579, 
      "name": "Guido Gezelleplein", 
      "lonmin": 3.279107209153675, 
      "sanName": "guidogezelleplein", 
      "numOfAddr": 4, 
      "lonmax": 3.279268677124394, 
      "latmin": 51.057809085688
    }, 
    {
      "latmax": 51.058223056307675, 
      "name": "Guido Gezellestraat", 
      "lonmin": 3.279338404518011, 
      "sanName": "guidogezellestraat", 
      "numOfAddr": 13, 
      "lonmax": 3.2803943159983886, 
      "latmin": 51.05787873232076
    }, 
    {
      "latmax": 51.049178674973525, 
      "name": "Guldensporenstraat", 
      "lonmin": 3.22260121361736, 
      "sanName": "guldensporenstraat", 
      "numOfAddr": 8, 
      "lonmax": 3.223533733038631, 
      "latmin": 51.04852981961117
    }, 
    {
      "latmax": 51.09770910670979, 
      "name": "Hazelnotedreef", 
      "lonmin": 3.2916619912151717, 
      "sanName": "hazelnotedreef", 
      "numOfAddr": 21, 
      "lonmax": 3.302233665053958, 
      "latmin": 51.09566856726726
    }, 
    {
      "latmax": 51.0378002563833, 
      "name": "Hazewindstraat", 
      "lonmin": 3.174351359927297, 
      "sanName": "hazewindstraat", 
      "numOfAddr": 1, 
      "lonmax": 3.174351359927297, 
      "latmin": 51.0378002563833
    }, 
    {
      "latmax": 51.06388093777276, 
      "name": "Heilig Sacramentstraat", 
      "lonmin": 3.279633437168444, 
      "sanName": "heiligsacramentstraat", 
      "numOfAddr": 75, 
      "lonmax": 3.285169430163835, 
      "latmin": 51.056586152763295
    }, 
    {
      "latmax": 51.07031257003172, 
      "name": "Hekkestraat", 
      "lonmin": 3.3323202167851513, 
      "sanName": "hekkestraat", 
      "numOfAddr": 24, 
      "lonmax": 3.3400731263347816, 
      "latmin": 51.05531859227057
    }, 
    {
      "latmax": 51.05254374600279, 
      "name": "Helakkerstraat", 
      "lonmin": 3.266180752773387, 
      "sanName": "helakkerstraat", 
      "numOfAddr": 30, 
      "lonmax": 3.271987070571663, 
      "latmin": 51.05040915416945
    }, 
    {
      "latmax": 51.0386523966559, 
      "name": "Hellestraat", 
      "lonmin": 3.194745445712847, 
      "sanName": "hellestraat", 
      "numOfAddr": 9, 
      "lonmax": 3.202808130313752, 
      "latmin": 51.03185882455059
    }, 
    {
      "latmax": 51.06769674701222, 
      "name": "Heremeersstraat", 
      "lonmin": 3.242759233683754, 
      "sanName": "heremeersstraat", 
      "numOfAddr": 16, 
      "lonmax": 3.2538981218726724, 
      "latmin": 51.06610165391117
    }, 
    {
      "latmax": 51.07476918921805, 
      "name": "Hereveldstraat", 
      "lonmin": 3.2466082003294368, 
      "sanName": "hereveldstraat", 
      "numOfAddr": 10, 
      "lonmax": 3.2556015787599035, 
      "latmin": 51.069902044588055
    }, 
    {
      "latmax": 51.03988060818789, 
      "name": "Herreweg", 
      "lonmin": 3.1817619279253972, 
      "sanName": "herreweg", 
      "numOfAddr": 18, 
      "lonmax": 3.1857486390056367, 
      "latmin": 51.02618318193633
    }, 
    {
      "latmax": 51.095081442203224, 
      "name": "Hertsbergeveldstraat", 
      "lonmin": 3.2636872220665714, 
      "sanName": "hertsbergeveldstraat", 
      "numOfAddr": 18, 
      "lonmax": 3.2712930549670998, 
      "latmin": 51.078373019918
    }, 
    {
      "latmax": 51.048134743283256, 
      "name": "Heulstraat", 
      "lonmin": 3.2135930432035846, 
      "sanName": "heulstraat", 
      "numOfAddr": 18, 
      "lonmax": 3.2245824022692324, 
      "latmin": 51.045247801984274
    }, 
    {
      "latmax": 51.05585802270261, 
      "name": "Hille", 
      "lonmin": 3.223114662884585, 
      "sanName": "hille", 
      "numOfAddr": 202, 
      "lonmax": 3.2305409537356433, 
      "latmin": 51.03770181203671
    }, 
    {
      "latmax": 51.04987209489919, 
      "name": "Hille-Noord", 
      "lonmin": 3.233083577564741, 
      "sanName": "hillenoord", 
      "numOfAddr": 1, 
      "lonmax": 3.233083577564741, 
      "latmin": 51.04987209489919
    }, 
    {
      "latmax": 51.05740510626034, 
      "name": "Hillesteenweg", 
      "lonmin": 3.243849668905519, 
      "sanName": "hillesteenweg", 
      "numOfAddr": 77, 
      "lonmax": 3.266778142919848, 
      "latmin": 51.050367032928776
    }, 
    {
      "latmax": 51.048135772841256, 
      "name": "Hille-Zuid", 
      "lonmin": 3.2315458770194168, 
      "sanName": "hillezuid", 
      "numOfAddr": 26, 
      "lonmax": 3.2361515614714453, 
      "latmin": 51.043498984908446
    }, 
    {
      "latmax": 51.05617051397963, 
      "name": "Hofakkerlaan", 
      "lonmin": 3.2676798539496597, 
      "sanName": "hofakkerlaan", 
      "numOfAddr": 22, 
      "lonmax": 3.2721391041562797, 
      "latmin": 51.05537745470211
    }, 
    {
      "latmax": 51.040498572277066, 
      "name": "Hommelstraat", 
      "lonmin": 3.218926277476041, 
      "sanName": "hommelstraat", 
      "numOfAddr": 12, 
      "lonmax": 3.2207883709953045, 
      "latmin": 51.04000086151258
    }, 
    {
      "latmax": 51.05558395657863, 
      "name": "Hondsweg", 
      "lonmin": 3.240928952836838, 
      "sanName": "hondsweg", 
      "numOfAddr": 7, 
      "lonmax": 3.2483329975619926, 
      "latmin": 51.052693777043494
    }, 
    {
      "latmax": 51.05116189232937, 
      "name": "Hoogstraat", 
      "lonmin": 3.1813058692673097, 
      "sanName": "hoogstraat", 
      "numOfAddr": 17, 
      "lonmax": 3.1905673249881317, 
      "latmin": 51.04177478782126
    }, 
    {
      "latmax": 51.06629148607691, 
      "name": "Hoogweg", 
      "lonmin": 3.2822390225593066, 
      "sanName": "hoogweg", 
      "numOfAddr": 65, 
      "lonmax": 3.3010889615073262, 
      "latmin": 51.06099535878245
    }, 
    {
      "latmax": 51.047532487693196, 
      "name": "Hovenierstraat", 
      "lonmin": 3.229498088478866, 
      "sanName": "hovenierstraat", 
      "numOfAddr": 21, 
      "lonmax": 3.230780989779199, 
      "latmin": 51.045714562551325
    }, 
    {
      "latmax": 51.04832175800984, 
      "name": "Huisakkerstraat", 
      "lonmin": 3.3058648346103627, 
      "sanName": "huisakkerstraat", 
      "numOfAddr": 5, 
      "lonmax": 3.3124807088894865, 
      "latmin": 51.04357095268689
    }, 
    {
      "latmax": 51.045374472799644, 
      "name": "Industrieweg", 
      "lonmin": 3.230507442539616, 
      "sanName": "industrieweg", 
      "numOfAddr": 13, 
      "lonmax": 3.234815669214887, 
      "latmin": 51.043256214519964
    }, 
    {
      "latmax": 51.0467013464729, 
      "name": "Jan Breydellaan", 
      "lonmin": 3.223395034874946, 
      "sanName": "janbreydellaan", 
      "numOfAddr": 5, 
      "lonmax": 3.224416964723157, 
      "latmin": 51.04625937728214
    }, 
    {
      "latmax": 51.031133479489235, 
      "name": "Joostraat", 
      "lonmin": 2.306689562140502, 
      "sanName": "joostraat", 
      "numOfAddr": 10, 
      "lonmax": 3.2245134936422915, 
      "latmin": 49.293335165093566
    }, 
    {
      "latmax": 51.0652622860565, 
      "name": "Kapelledreef", 
      "lonmin": 3.2153933931615573, 
      "sanName": "kapelledreef", 
      "numOfAddr": 15, 
      "lonmax": 3.218834830412512, 
      "latmin": 51.064226058903046
    }, 
    {
      "latmax": 51.057249696140566, 
      "name": "Kapellestraat", 
      "lonmin": 3.2775274288570455, 
      "sanName": "kapellestraat", 
      "numOfAddr": 67, 
      "lonmax": 3.283919962213196, 
      "latmin": 51.041611351334055
    }, 
    {
      "latmax": 51.05923439330777, 
      "name": "Kaplotestraat", 
      "lonmin": 3.279555255159925, 
      "sanName": "kaplotestraat", 
      "numOfAddr": 49, 
      "lonmax": 3.282833304489508, 
      "latmin": 51.05712505148414
    }, 
    {
      "latmax": 51.05356791062978, 
      "name": "Karnemelkstraat", 
      "lonmin": 3.2273653118836427, 
      "sanName": "karnemelkstraat", 
      "numOfAddr": 8, 
      "lonmax": 3.2285369921577662, 
      "latmin": 51.052962794997846
    }, 
    {
      "latmax": 51.035607267165894, 
      "name": "Kastanjelaan", 
      "lonmin": 3.2166282802140693, 
      "sanName": "kastanjelaan", 
      "numOfAddr": 23, 
      "lonmax": 3.218359609420543, 
      "latmin": 51.03413280916419
    }, 
    {
      "latmax": 51.085567237703515, 
      "name": "Kasteeldreef", 
      "lonmin": 3.281915257283364, 
      "sanName": "kasteeldreef", 
      "numOfAddr": 2, 
      "lonmax": 3.282731060709581, 
      "latmin": 51.08504723001897
    }, 
    {
      "latmax": 51.0371753306528, 
      "name": "Kasteelstraat", 
      "lonmin": 3.204470978248181, 
      "sanName": "kasteelstraat", 
      "numOfAddr": 103, 
      "lonmax": 3.2085350662010304, 
      "latmin": 51.032743323872424
    }, 
    {
      "latmax": 51.05651692731396, 
      "name": "Keizerstraat", 
      "lonmin": 3.2762801659558436, 
      "sanName": "keizerstraat", 
      "numOfAddr": 19, 
      "lonmax": 3.2781061798756745, 
      "latmin": 51.0552209277068
    }, 
    {
      "latmax": 51.05866259187116, 
      "name": "Kerkplein", 
      "lonmin": 3.277295705546951, 
      "sanName": "kerkplein", 
      "numOfAddr": 18, 
      "lonmax": 3.27953504421844, 
      "latmin": 51.057943622996156
    }, 
    {
      "latmax": 51.036600840764144, 
      "name": "Kerkstraat", 
      "lonmin": 3.211438221940917, 
      "sanName": "kerkstraat", 
      "numOfAddr": 8, 
      "lonmax": 3.212272379735394, 
      "latmin": 51.03615795457992
    }, 
    {
      "latmax": 51.06507195618467, 
      "name": "Keukelstraat", 
      "lonmin": 3.3036949251110115, 
      "sanName": "keukelstraat", 
      "numOfAddr": 77, 
      "lonmax": 3.3238832986901246, 
      "latmin": 51.06014525654498
    }, 
    {
      "latmax": 51.019489600177295, 
      "name": "Kleine Meiboomstraat", 
      "lonmin": 3.1858154399025436, 
      "sanName": "kleinemeiboomstraat", 
      "numOfAddr": 1, 
      "lonmax": 3.1858154399025436, 
      "latmin": 51.019489600177295
    }, 
    {
      "latmax": 51.03967978972247, 
      "name": "Kleine Tieltstraat", 
      "lonmin": 3.3135406951497366, 
      "sanName": "kleinetieltstraat", 
      "numOfAddr": 2, 
      "lonmax": 3.3150555725406656, 
      "latmin": 51.03877326909483
    }, 
    {
      "latmax": 51.06698993226822, 
      "name": "Kleine Veldstraat", 
      "lonmin": 3.323537674325107, 
      "sanName": "kleineveldstraat", 
      "numOfAddr": 28, 
      "lonmax": 3.332461122570191, 
      "latmin": 51.05756203810578
    }, 
    {
      "latmax": 51.02368459392932, 
      "name": "Kleistraat", 
      "lonmin": 3.1866175237126337, 
      "sanName": "kleistraat", 
      "numOfAddr": 4, 
      "lonmax": 3.192319098949159, 
      "latmin": 51.018725396681546
    }, 
    {
      "latmax": 51.056352717738655, 
      "name": "Kleiweg", 
      "lonmin": 3.3380339699666224, 
      "sanName": "kleiweg", 
      "numOfAddr": 2, 
      "lonmax": 3.341243876542294, 
      "latmin": 51.05382377192609
    }, 
    {
      "latmax": 51.05441278386553, 
      "name": "Klokhof", 
      "lonmin": 3.284240706120982, 
      "sanName": "klokhof", 
      "numOfAddr": 7, 
      "lonmax": 3.2856027104188623, 
      "latmin": 51.0528936121331
    }, 
    {
      "latmax": 51.05369444543528, 
      "name": "Koekoekslaan", 
      "lonmin": 3.2673812743084425, 
      "sanName": "koekoekslaan", 
      "numOfAddr": 7, 
      "lonmax": 3.2681497129021344, 
      "latmin": 51.05298693101783
    }, 
    {
      "latmax": 51.05541691211981, 
      "name": "Kokerstraat", 
      "lonmin": 3.2732752690916507, 
      "sanName": "kokerstraat", 
      "numOfAddr": 41, 
      "lonmax": 3.2779194284636413, 
      "latmin": 51.052492793179255
    }, 
    {
      "latmax": 51.05557291428412, 
      "name": "Kolonel Dobbelaerestraat", 
      "lonmin": 3.2785237181850824, 
      "sanName": "koloneldobbelaerestraat", 
      "numOfAddr": 5, 
      "lonmax": 3.279371067879837, 
      "latmin": 51.05524029480921
    }, 
    {
      "latmax": 51.055783704022964, 
      "name": "Koning Boudewijnlaan", 
      "lonmin": 3.281514658980561, 
      "sanName": "koningboudewijnlaan", 
      "numOfAddr": 9, 
      "lonmax": 3.283518915574378, 
      "latmin": 51.05514929555289
    }, 
    {
      "latmax": 51.05537966963403, 
      "name": "Koningin Fabiolalaan", 
      "lonmin": 3.282027599752231, 
      "sanName": "koninginfabiolalaan", 
      "numOfAddr": 7, 
      "lonmax": 3.282777424614011, 
      "latmin": 51.05467794241772
    }, 
    {
      "latmax": 51.035455190513886, 
      "name": "Koolskampstraat", 
      "lonmin": 3.2082443293338825, 
      "sanName": "koolskampstraat", 
      "numOfAddr": 21, 
      "lonmax": 3.2121338507687947, 
      "latmin": 51.02638924482716
    }, 
    {
      "latmax": 51.06499347130373, 
      "name": "Koolstraat", 
      "lonmin": 3.2833052357321613, 
      "sanName": "koolstraat", 
      "numOfAddr": 4, 
      "lonmax": 3.2866523662183083, 
      "latmin": 51.06415306549428
    }, 
    {
      "latmax": 51.03772184740363, 
      "name": "Kortrijksteenweg", 
      "lonmin": 3.2286913193401268, 
      "sanName": "kortrijksteenweg", 
      "numOfAddr": 46, 
      "lonmax": 3.2322646739610335, 
      "latmin": 51.02142046396606
    }, 
    {
      "latmax": 51.060636852702935, 
      "name": "Kortstraat", 
      "lonmin": 3.3193121398410925, 
      "sanName": "kortstraat", 
      "numOfAddr": 11, 
      "lonmax": 3.3234947460184068, 
      "latmin": 51.05819395499605
    }, 
    {
      "latmax": 51.06404345506041, 
      "name": "Kozijnhoekstraat", 
      "lonmin": 3.2746309302865884, 
      "sanName": "kozijnhoekstraat", 
      "numOfAddr": 25, 
      "lonmax": 3.278099226626959, 
      "latmin": 51.06319339095
    }, 
    {
      "latmax": 51.03917224138233, 
      "name": "Krekelstraat", 
      "lonmin": 3.2189432007342678, 
      "sanName": "krekelstraat", 
      "numOfAddr": 33, 
      "lonmax": 3.2222521625808915, 
      "latmin": 51.03797262066316
    }, 
    {
      "latmax": 51.044986418679414, 
      "name": "Krommestraat", 
      "lonmin": 3.249153057133077, 
      "sanName": "krommestraat", 
      "numOfAddr": 9, 
      "lonmax": 3.2551246373914355, 
      "latmin": 51.040700255942426
    }, 
    {
      "latmax": 51.03761528691438, 
      "name": "Kruisstraat", 
      "lonmin": 3.212183979360956, 
      "sanName": "kruisstraat", 
      "numOfAddr": 10, 
      "lonmax": 3.2133646258075506, 
      "latmin": 51.0370411527514
    }, 
    {
      "latmax": 51.06859998351668, 
      "name": "Lammersdam", 
      "lonmin": 3.3332789817446877, 
      "sanName": "lammersdam", 
      "numOfAddr": 11, 
      "lonmax": 3.336152186008332, 
      "latmin": 51.06656075237232
    }, 
    {
      "latmax": 51.0600670641772, 
      "name": "Landsmanstraat", 
      "lonmin": 3.2070555510302157, 
      "sanName": "landsmanstraat", 
      "numOfAddr": 23, 
      "lonmax": 3.2248192927240615, 
      "latmin": 51.05611941336023
    }, 
    {
      "latmax": 51.03752479150982, 
      "name": "Landweg", 
      "lonmin": 3.296396811849374, 
      "sanName": "landweg", 
      "numOfAddr": 1, 
      "lonmax": 3.296396811849374, 
      "latmin": 51.03752479150982
    }, 
    {
      "latmax": 51.07616498893522, 
      "name": "Lavoordestraat", 
      "lonmin": 3.254414038654177, 
      "sanName": "lavoordestraat", 
      "numOfAddr": 84, 
      "lonmax": 3.259860833850666, 
      "latmin": 51.05550002426631
    }, 
    {
      "latmax": 51.06905610828598, 
      "name": "Leendreef", 
      "lonmin": 3.3125938482712955, 
      "sanName": "leendreef", 
      "numOfAddr": 16, 
      "lonmax": 3.320957944608584, 
      "latmin": 51.067378303873284
    }, 
    {
      "latmax": 51.07358565221581, 
      "name": "Leenmolenstraat", 
      "lonmin": 3.266209806928401, 
      "sanName": "leenmolenstraat", 
      "numOfAddr": 89, 
      "lonmax": 3.2766222854875755, 
      "latmin": 51.061310026242445
    }, 
    {
      "latmax": 51.06890412041355, 
      "name": "Leenzerkstraat", 
      "lonmin": 3.265644687273515, 
      "sanName": "leenzerkstraat", 
      "numOfAddr": 5, 
      "lonmax": 3.268284807702473, 
      "latmin": 51.066679124953524
    }, 
    {
      "latmax": 51.05256915766857, 
      "name": "Leeuweriklaan", 
      "lonmin": 3.2670900405105208, 
      "sanName": "leeuweriklaan", 
      "numOfAddr": 6, 
      "lonmax": 3.2677851234097153, 
      "latmin": 51.05200733474263
    }, 
    {
      "latmax": 51.05567036141836, 
      "name": "Lentakkerlaan", 
      "lonmin": 3.2651745434110095, 
      "sanName": "lentakkerlaan", 
      "numOfAddr": 20, 
      "lonmax": 3.2666823489324717, 
      "latmin": 51.05493762939131
    }, 
    {
      "latmax": 51.05438639617473, 
      "name": "Lentakkervoetweg", 
      "lonmin": 3.268050293853367, 
      "sanName": "lentakkervoetweg", 
      "numOfAddr": 10, 
      "lonmax": 3.269161057405084, 
      "latmin": 51.0539851977455
    }, 
    {
      "latmax": 51.03843195398418, 
      "name": "Lichterveldestraat", 
      "lonmin": 3.2022412694400937, 
      "sanName": "lichterveldestraat", 
      "numOfAddr": 63, 
      "lonmax": 3.209888658067091, 
      "latmin": 51.03594594925008
    }, 
    {
      "latmax": 51.04838334607126, 
      "name": "Lijkstraat", 
      "lonmin": 3.3040428946256664, 
      "sanName": "lijkstraat", 
      "numOfAddr": 1, 
      "lonmax": 3.3040428946256664, 
      "latmin": 51.04838334607126
    }, 
    {
      "latmax": 51.054056336126855, 
      "name": "Lijsterlaan", 
      "lonmin": 3.2653802311098534, 
      "sanName": "lijsterlaan", 
      "numOfAddr": 48, 
      "lonmax": 3.271494565727215, 
      "latmin": 51.05225828042079
    }, 
    {
      "latmax": 51.0312823354376, 
      "name": "Lindeboomstraat", 
      "lonmin": 3.1903794631892053, 
      "sanName": "lindeboomstraat", 
      "numOfAddr": 1, 
      "lonmax": 3.1903794631892053, 
      "latmin": 51.0312823354376
    }, 
    {
      "latmax": 51.056433697240514, 
      "name": "Lostraat", 
      "lonmin": 3.2273469572187543, 
      "sanName": "lostraat", 
      "numOfAddr": 22, 
      "lonmax": 3.232821144172616, 
      "latmin": 51.051921730030145
    }, 
    {
      "latmax": 51.067998892752044, 
      "name": "Maagdenstraat", 
      "lonmin": 3.2962267545089716, 
      "sanName": "maagdenstraat", 
      "numOfAddr": 2, 
      "lonmax": 3.2966381076212645, 
      "latmin": 51.06760688108555
    }, 
    {
      "latmax": 51.05788542170484, 
      "name": "Markt", 
      "lonmin": 3.2782660245346977, 
      "sanName": "markt", 
      "numOfAddr": 10, 
      "lonmax": 3.2788534578752095, 
      "latmin": 51.057594649683956
    }, 
    {
      "latmax": 51.03603214210185, 
      "name": "Marktplein", 
      "lonmin": 3.2097466224396807, 
      "sanName": "marktplein", 
      "numOfAddr": 23, 
      "lonmax": 3.212269296303561, 
      "latmin": 51.03539070946305
    }, 
    {
      "latmax": 51.03315805615948, 
      "name": "Meiboomstraat", 
      "lonmin": 3.1814034772529287, 
      "sanName": "meiboomstraat", 
      "numOfAddr": 71, 
      "lonmax": 3.2095971612284764, 
      "latmin": 51.02039533264518
    }, 
    {
      "latmax": 51.0408170588088, 
      "name": "Meikeverstraat", 
      "lonmin": 3.21955672542979, 
      "sanName": "meikeverstraat", 
      "numOfAddr": 16, 
      "lonmax": 3.2206953931729108, 
      "latmin": 51.03952843866527
    }, 
    {
      "latmax": 51.052694466941524, 
      "name": "Merellaan", 
      "lonmin": 3.268315362852187, 
      "sanName": "merellaan", 
      "numOfAddr": 5, 
      "lonmax": 3.2690660817852364, 
      "latmin": 51.052180483399674
    }, 
    {
      "latmax": 51.04670663012207, 
      "name": "Molenaarstraat", 
      "lonmin": 3.2261445585848687, 
      "sanName": "molenaarstraat", 
      "numOfAddr": 14, 
      "lonmax": 3.229619986341577, 
      "latmin": 51.045019573618276
    }, 
    {
      "latmax": 51.05457495891014, 
      "name": "Molenkouter", 
      "lonmin": 3.265417200627678, 
      "sanName": "molenkouter", 
      "numOfAddr": 16, 
      "lonmax": 3.2672322687315654, 
      "latmin": 51.05307882032961
    }, 
    {
      "latmax": 51.0549468590001, 
      "name": "Molenlaan", 
      "lonmin": 3.2655487678199537, 
      "sanName": "molenlaan", 
      "numOfAddr": 13, 
      "lonmax": 3.2668034426880874, 
      "latmin": 51.05446372496695
    }, 
    {
      "latmax": 51.05665756682101, 
      "name": "Molenstraat", 
      "lonmin": 3.2787941257988913, 
      "sanName": "molenstraat", 
      "numOfAddr": 44, 
      "lonmax": 3.28145781550487, 
      "latmin": 51.0536584005624
    }, 
    {
      "latmax": 51.0693828462694, 
      "name": "Morellestraat", 
      "lonmin": 3.2907283928919973, 
      "sanName": "morellestraat", 
      "numOfAddr": 10, 
      "lonmax": 3.2953655974085043, 
      "latmin": 51.068250031451726
    }, 
    {
      "latmax": 51.08639560714388, 
      "name": "Munkelostraat", 
      "lonmin": 3.2276154342317005, 
      "sanName": "munkelostraat", 
      "numOfAddr": 46, 
      "lonmax": 3.2509043839362786, 
      "latmin": 51.0588905453818
    }, 
    {
      "latmax": 51.07037000500099, 
      "name": "Munkestraat", 
      "lonmin": 3.243642002104391, 
      "sanName": "munkestraat", 
      "numOfAddr": 8, 
      "lonmax": 3.2467513100648007, 
      "latmin": 51.06930701552159
    }, 
    {
      "latmax": 51.05229373118881, 
      "name": "Nachtegaallaan", 
      "lonmin": 3.2658870635419106, 
      "sanName": "nachtegaallaan", 
      "numOfAddr": 5, 
      "lonmax": 3.2665277697283877, 
      "latmin": 51.05169854539934
    }, 
    {
      "latmax": 51.0416602170848, 
      "name": "Nederduin", 
      "lonmin": 3.189160284835569, 
      "sanName": "nederduin", 
      "numOfAddr": 5, 
      "lonmax": 3.190084566271988, 
      "latmin": 51.04090086528744
    }, 
    {
      "latmax": 51.061878168207784, 
      "name": "Nieuwstraat", 
      "lonmin": 3.2774485000118885, 
      "sanName": "nieuwstraat", 
      "numOfAddr": 32, 
      "lonmax": 3.279840598460076, 
      "latmin": 51.06020933024965
    }, 
    {
      "latmax": 51.07778013661422, 
      "name": "Noordakkerstraat", 
      "lonmin": 3.2598877610147508, 
      "sanName": "noordakkerstraat", 
      "numOfAddr": 28, 
      "lonmax": 3.278969317334035, 
      "latmin": 51.071669430094325
    }, 
    {
      "latmax": 51.064698066774135, 
      "name": "Ondankstraat", 
      "lonmin": 3.242414111399369, 
      "sanName": "ondankstraat", 
      "numOfAddr": 10, 
      "lonmax": 3.2481822366849595, 
      "latmin": 51.06001182344421
    }, 
    {
      "latmax": 51.059014853265325, 
      "name": "Oude Bruggestraat", 
      "lonmin": 3.267191252937081, 
      "sanName": "oudebruggestraat", 
      "numOfAddr": 102, 
      "lonmax": 3.2783045122742034, 
      "latmin": 51.05616094053492
    }, 
    {
      "latmax": 51.09845921168309, 
      "name": "Oude Bruggeweg", 
      "lonmin": 3.303690080420919, 
      "sanName": "oudebruggeweg", 
      "numOfAddr": 2, 
      "lonmax": 3.3045793302933237, 
      "latmin": 51.09564630381291
    }, 
    {
      "latmax": 51.05217585071021, 
      "name": "Pastoor Goethalsstraat", 
      "lonmin": 3.2227172589778394, 
      "sanName": "pastoorgoethalsstraat", 
      "numOfAddr": 19, 
      "lonmax": 3.225543149653072, 
      "latmin": 51.05143706447167
    }, 
    {
      "latmax": 51.060869641684654, 
      "name": "Pastoor Termotestraat", 
      "lonmin": 3.2767578190509687, 
      "sanName": "pastoortermotestraat", 
      "numOfAddr": 22, 
      "lonmax": 3.2793657827362437, 
      "latmin": 51.059109783125805
    }, 
    {
      "latmax": 51.03801510504278, 
      "name": "Pastorijstraat", 
      "lonmin": 3.2125591409413237, 
      "sanName": "pastorijstraat", 
      "numOfAddr": 118, 
      "lonmax": 3.226956409309539, 
      "latmin": 51.03550464984341
    }, 
    {
      "latmax": 51.079665282374926, 
      "name": "Patrijzenlaan", 
      "lonmin": 3.3016189154638838, 
      "sanName": "patrijzenlaan", 
      "numOfAddr": 2, 
      "lonmax": 3.3017337419419275, 
      "latmin": 51.07962406925167
    }, 
    {
      "latmax": 51.09677590379409, 
      "name": "Peerstalstraat", 
      "lonmin": 3.2671356016997914, 
      "sanName": "peerstalstraat", 
      "numOfAddr": 56, 
      "lonmax": 3.282552792800835, 
      "latmin": 51.06586263728879
    }, 
    {
      "latmax": 51.06269288209223, 
      "name": "Peerstalvoetweg", 
      "lonmin": 3.278993271090048, 
      "sanName": "peerstalvoetweg", 
      "numOfAddr": 25, 
      "lonmax": 3.2804640105365217, 
      "latmin": 51.06124307905225
    }, 
    {
      "latmax": 51.058063598484516, 
      "name": "Persynstraat", 
      "lonmin": 3.2429723182744477, 
      "sanName": "persynstraat", 
      "numOfAddr": 1, 
      "lonmax": 3.2429723182744477, 
      "latmin": 51.058063598484516
    }, 
    {
      "latmax": 51.04757903819059, 
      "name": "Pieter De Conincklaan", 
      "lonmin": 3.222945087152121, 
      "sanName": "pieterdeconincklaan", 
      "numOfAddr": 9, 
      "lonmax": 3.224307626604986, 
      "latmin": 51.04695587885152
    }, 
    {
      "latmax": 51.09485287347758, 
      "name": "Piewittedreef", 
      "lonmin": 3.283601381424948, 
      "sanName": "piewittedreef", 
      "numOfAddr": 5, 
      "lonmax": 3.2907302009321935, 
      "latmin": 51.09220013607191
    }, 
    {
      "latmax": 51.05065537582039, 
      "name": "Pincestraat", 
      "lonmin": 3.1842015065570473, 
      "sanName": "pincestraat", 
      "numOfAddr": 6, 
      "lonmax": 3.193457540179927, 
      "latmin": 51.04402699966592
    }, 
    {
      "latmax": 51.05152647243589, 
      "name": "Poelvoorde", 
      "lonmin": 3.3082620273109686, 
      "sanName": "poelvoorde", 
      "numOfAddr": 4, 
      "lonmax": 3.3120045991126132, 
      "latmin": 51.04998885645418
    }, 
    {
      "latmax": 51.090319389376226, 
      "name": "Polderdreef", 
      "lonmin": 3.29546311979785, 
      "sanName": "polderdreef", 
      "numOfAddr": 7, 
      "lonmax": 3.297727784501986, 
      "latmin": 51.08206748606865
    }, 
    {
      "latmax": 51.080609033687374, 
      "name": "Predikherenstraat", 
      "lonmin": 3.306646556858599, 
      "sanName": "predikherenstraat", 
      "numOfAddr": 83, 
      "lonmax": 3.348474117317425, 
      "latmin": 51.068519180422186
    }, 
    {
      "latmax": 51.03901924619521, 
      "name": "Processiestraat", 
      "lonmin": 3.2146142007009217, 
      "sanName": "processiestraat", 
      "numOfAddr": 27, 
      "lonmax": 3.2186345273208916, 
      "latmin": 51.03795822563099
    }, 
    {
      "latmax": 51.04240638770222, 
      "name": "Pyfferoenstraat", 
      "lonmin": 3.2937207772965533, 
      "sanName": "pyfferoenstraat", 
      "numOfAddr": 2, 
      "lonmax": 3.2950745520540723, 
      "latmin": 51.04135270541246
    }, 
    {
      "latmax": 51.07293817740886, 
      "name": "Rakestraat", 
      "lonmin": 3.2970679016244504, 
      "sanName": "rakestraat", 
      "numOfAddr": 30, 
      "lonmax": 3.3027467816246237, 
      "latmin": 51.06581931656048
    }, 
    {
      "latmax": 51.04668567425922, 
      "name": "Ratelingestraat", 
      "lonmin": 3.2691901478651526, 
      "sanName": "ratelingestraat", 
      "numOfAddr": 31, 
      "lonmax": 3.2951359572417327, 
      "latmin": 51.03620627581941
    }, 
    {
      "latmax": 51.040644537747305, 
      "name": "Raveschootsveldstraat", 
      "lonmin": 3.2293074016576426, 
      "sanName": "raveschootsveldstraat", 
      "numOfAddr": 32, 
      "lonmax": 3.2457263224731103, 
      "latmin": 51.03342777004637
    }, 
    {
      "latmax": 51.05503961775417, 
      "name": "Ricksteenweg", 
      "lonmin": 3.1825857464028604, 
      "sanName": "ricksteenweg", 
      "numOfAddr": 49, 
      "lonmax": 3.207418043889318, 
      "latmin": 51.03798836326831
    }, 
    {
      "latmax": 51.04060397452621, 
      "name": "Rickvoetweg", 
      "lonmin": 3.206806935104133, 
      "sanName": "rickvoetweg", 
      "numOfAddr": 8, 
      "lonmax": 3.2111182932149838, 
      "latmin": 51.037135694314166
    }, 
    {
      "latmax": 51.0791644531076, 
      "name": "Rijkerijweg", 
      "lonmin": 3.245694787471477, 
      "sanName": "rijkerijweg", 
      "numOfAddr": 7, 
      "lonmax": 3.2528447064687604, 
      "latmin": 51.075039620440826
    }, 
    {
      "latmax": 51.040149528203344, 
      "name": "Rijkestraat", 
      "lonmin": 3.188875550626972, 
      "sanName": "rijkestraat", 
      "numOfAddr": 19, 
      "lonmax": 3.191255125463572, 
      "latmin": 51.038396223056125
    }, 
    {
      "latmax": 51.08740304775567, 
      "name": "Rijsbergestraat", 
      "lonmin": 3.2618747877605827, 
      "sanName": "rijsbergestraat", 
      "numOfAddr": 3, 
      "lonmax": 3.2643661280569862, 
      "latmin": 51.08527255832504
    }, 
    {
      "latmax": 51.055457199645865, 
      "name": "Rokerstraat", 
      "lonmin": 3.2948393274206422, 
      "sanName": "rokerstraat", 
      "numOfAddr": 11, 
      "lonmax": 3.2983240252977075, 
      "latmin": 51.05307964189527
    }, 
    {
      "latmax": 51.07814177096391, 
      "name": "Romerijstraat", 
      "lonmin": 3.2994096885789803, 
      "sanName": "romerijstraat", 
      "numOfAddr": 7, 
      "lonmax": 3.3021525216249454, 
      "latmin": 51.07082004287379
    }, 
    {
      "latmax": 51.08757362241919, 
      "name": "Rozendalestraat", 
      "lonmin": 3.2523868091295234, 
      "sanName": "rozendalestraat", 
      "numOfAddr": 129, 
      "lonmax": 3.2738828151478105, 
      "latmin": 51.059055638626624
    }, 
    {
      "latmax": 51.06072406721856, 
      "name": "Ruddervoordestraat", 
      "lonmin": 3.200141206449646, 
      "sanName": "ruddervoordestraat", 
      "numOfAddr": 27, 
      "lonmax": 3.2147033696840253, 
      "latmin": 51.0394955350988
    }, 
    {
      "latmax": 51.058401745418884, 
      "name": "Ruiseledesteenweg", 
      "lonmin": 3.285009718526451, 
      "sanName": "ruiseledesteenweg", 
      "numOfAddr": 121, 
      "lonmax": 3.3394676605070535, 
      "latmin": 51.05433764044843
    }, 
    {
      "latmax": 51.0430725180207, 
      "name": "Rupsenstraat", 
      "lonmin": 3.2218297271329375, 
      "sanName": "rupsenstraat", 
      "numOfAddr": 71, 
      "lonmax": 3.224156308167292, 
      "latmin": 51.03553940134553
    }, 
    {
      "latmax": 51.05878160130171, 
      "name": "Sarosweg", 
      "lonmin": 3.294583433049932, 
      "sanName": "sarosweg", 
      "numOfAddr": 2, 
      "lonmax": 3.2953594655823695, 
      "latmin": 51.057356404714945
    }, 
    {
      "latmax": 51.02667177431023, 
      "name": "Schaapbrugstraat", 
      "lonmin": 3.2140921415817543, 
      "sanName": "schaapbrugstraat", 
      "numOfAddr": 13, 
      "lonmax": 3.229052100493496, 
      "latmin": 51.02055606129615
    }, 
    {
      "latmax": 51.08047990525111, 
      "name": "Schaapsdreef", 
      "lonmin": 3.29079178928077, 
      "sanName": "schaapsdreef", 
      "numOfAddr": 12, 
      "lonmax": 3.2931473200128623, 
      "latmin": 51.07675959732572
    }, 
    {
      "latmax": 51.06234394427287, 
      "name": "Schaapstraat", 
      "lonmin": 3.206412282816652, 
      "sanName": "schaapstraat", 
      "numOfAddr": 2, 
      "lonmax": 3.206829354682643, 
      "latmin": 51.06040441460928
    }, 
    {
      "latmax": 51.06621969689807, 
      "name": "Schauttewalle", 
      "lonmin": 3.280197127896921, 
      "sanName": "schauttewalle", 
      "numOfAddr": 21, 
      "lonmax": 3.2821734969630696, 
      "latmin": 51.065107171079056
    }, 
    {
      "latmax": 51.062710272232955, 
      "name": "Scheidingsstraat", 
      "lonmin": 3.340523132884762, 
      "sanName": "scheidingsstraat", 
      "numOfAddr": 2, 
      "lonmax": 3.3431481047220766, 
      "latmin": 51.06006056605929
    }, 
    {
      "latmax": 51.05482768875176, 
      "name": "Schewegestraat", 
      "lonmin": 3.254342917114368, 
      "sanName": "schewegestraat", 
      "numOfAddr": 18, 
      "lonmax": 3.263805438885444, 
      "latmin": 51.038836020427745
    }, 
    {
      "latmax": 51.03564962501237, 
      "name": "Schoolstraat", 
      "lonmin": 3.21251194654985, 
      "sanName": "schoolstraat", 
      "numOfAddr": 75, 
      "lonmax": 3.239987990210491, 
      "latmin": 51.02676645250259
    }, 
    {
      "latmax": 51.06125483371356, 
      "name": "Schuiferskapellestraat", 
      "lonmin": 3.3084447107003854, 
      "sanName": "schuiferskapellestraat", 
      "numOfAddr": 19, 
      "lonmax": 3.31658955333042, 
      "latmin": 51.0442772532044
    }, 
    {
      "latmax": 51.05858742636328, 
      "name": "Sint-Amandsstraat", 
      "lonmin": 3.2816482646565133, 
      "sanName": "sintamandsstraat", 
      "numOfAddr": 18, 
      "lonmax": 3.28343850534433, 
      "latmin": 51.05745227445622
    }, 
    {
      "latmax": 51.08314537947236, 
      "name": "Sint Jorisstraat", 
      "lonmin": 3.3043646196099474, 
      "sanName": "sintjorisstraat", 
      "numOfAddr": 22, 
      "lonmax": 3.3076396447805263, 
      "latmin": 51.081575595623804
    }, 
    {
      "latmax": 51.049492994121174, 
      "name": "Sint-Jozefsstraat", 
      "lonmin": 3.2267232313118592, 
      "sanName": "sintjozefsstraat", 
      "numOfAddr": 8, 
      "lonmax": 3.2279157525035207, 
      "latmin": 51.04833608476889
    }, 
    {
      "latmax": 51.08990212918988, 
      "name": "Sint Pietersveld", 
      "lonmin": 3.332470807401626, 
      "sanName": "sintpietersveld", 
      "numOfAddr": 32, 
      "lonmax": 3.3397469382223073, 
      "latmin": 51.084425322340735
    }, 
    {
      "latmax": 51.08491795115606, 
      "name": "Sint Pietersveldstraat", 
      "lonmin": 3.3302664080608735, 
      "sanName": "sintpietersveldstraat", 
      "numOfAddr": 8, 
      "lonmax": 3.338878455377116, 
      "latmin": 51.08098187318607
    }, 
    {
      "latmax": 51.0473425203216, 
      "name": "Smedenstraat", 
      "lonmin": 3.2273723942626225, 
      "sanName": "smedenstraat", 
      "numOfAddr": 22, 
      "lonmax": 3.2300916064650114, 
      "latmin": 51.04675522771664
    }, 
    {
      "latmax": 51.05527563458115, 
      "name": "Sneppestraat", 
      "lonmin": 3.272669733353736, 
      "sanName": "sneppestraat", 
      "numOfAddr": 56, 
      "lonmax": 3.274922294864895, 
      "latmin": 51.05335315326115
    }, 
    {
      "latmax": 51.071962892694515, 
      "name": "Sparreweg", 
      "lonmin": 3.3021585526768247, 
      "sanName": "sparreweg", 
      "numOfAddr": 6, 
      "lonmax": 3.308762388187439, 
      "latmin": 51.07033330334503
    }, 
    {
      "latmax": 51.060030407476376, 
      "name": "Speibeekweg", 
      "lonmin": 3.2514630729307377, 
      "sanName": "speibeekweg", 
      "numOfAddr": 3, 
      "lonmax": 3.2518457912766676, 
      "latmin": 51.05734517201135
    }, 
    {
      "latmax": 51.06053694102267, 
      "name": "Sportstraat", 
      "lonmin": 3.2730549182637416, 
      "sanName": "sportstraat", 
      "numOfAddr": 20, 
      "lonmax": 3.274554558012678, 
      "latmin": 51.059702286365706
    }, 
    {
      "latmax": 51.04468024430695, 
      "name": "Sprietstraat", 
      "lonmin": 3.16666043909211, 
      "sanName": "sprietstraat", 
      "numOfAddr": 39, 
      "lonmax": 3.182988942074294, 
      "latmin": 51.036827238687835
    }, 
    {
      "latmax": 51.0634329516632, 
      "name": "Sprookjesdreef", 
      "lonmin": 3.2152896516451475, 
      "sanName": "sprookjesdreef", 
      "numOfAddr": 43, 
      "lonmax": 3.2241498906834596, 
      "latmin": 51.06154705303799
    }, 
    {
      "latmax": 51.04765414183952, 
      "name": "Stampkotmolenstraat", 
      "lonmin": 3.189503927186082, 
      "sanName": "stampkotmolenstraat", 
      "numOfAddr": 17, 
      "lonmax": 3.1955883165843217, 
      "latmin": 51.0408847183104
    }, 
    {
      "latmax": 51.05889877024888, 
      "name": "Steenbeekweg", 
      "lonmin": 3.285240455587461, 
      "sanName": "steenbeekweg", 
      "numOfAddr": 6, 
      "lonmax": 3.28791193139583, 
      "latmin": 51.05850371813525
    }, 
    {
      "latmax": 51.04368346289154, 
      "name": "Temmerweg", 
      "lonmin": 3.2244458931642033, 
      "sanName": "temmerweg", 
      "numOfAddr": 7, 
      "lonmax": 3.225793234860246, 
      "latmin": 51.04342528710458
    }, 
    {
      "latmax": 51.06574569371542, 
      "name": "Ter Vloet", 
      "lonmin": 3.2765785297619234, 
      "sanName": "tervloet", 
      "numOfAddr": 54, 
      "lonmax": 3.280613250791049, 
      "latmin": 51.063913033060345
    }, 
    {
      "latmax": 51.05995394446082, 
      "name": "'t Hof van Wingene", 
      "lonmin": 3.2687561490302177, 
      "sanName": "thofvanwingene", 
      "numOfAddr": 19, 
      "lonmax": 3.2719166570044282, 
      "latmin": 51.05859723765655
    }, 
    {
      "latmax": 51.05242782779702, 
      "name": "Tieltsteenweg", 
      "lonmin": 3.290220804517887, 
      "sanName": "tieltsteenweg", 
      "numOfAddr": 33, 
      "lonmax": 3.303974591671182, 
      "latmin": 51.03774131626901
    }, 
    {
      "latmax": 51.05781472972721, 
      "name": "Tieltstraat", 
      "lonmin": 3.2784538998892083, 
      "sanName": "tieltstraat", 
      "numOfAddr": 74, 
      "lonmax": 3.2867092837827983, 
      "latmin": 51.054314798246274
    }, 
    {
      "latmax": 51.065015280579566, 
      "name": "Tijl en Nelestraat", 
      "lonmin": 3.27454784405824, 
      "sanName": "tijlennelestraat", 
      "numOfAddr": 16, 
      "lonmax": 3.276381226940459, 
      "latmin": 51.063913713473205
    }, 
    {
      "latmax": 51.04502912633118, 
      "name": "Torhoutstraat", 
      "lonmin": 3.1672445165812464, 
      "sanName": "torhoutstraat", 
      "numOfAddr": 10, 
      "lonmax": 3.188682122955918, 
      "latmin": 51.04136323411491
    }, 
    {
      "latmax": 51.03950346244394, 
      "name": "Tramstraat", 
      "lonmin": 3.2126025908740523, 
      "sanName": "tramstraat", 
      "numOfAddr": 18, 
      "lonmax": 3.21623211828488, 
      "latmin": 51.036606098398785
    }, 
    {
      "latmax": 51.063647694221956, 
      "name": "Uitkantstraat", 
      "lonmin": 3.3355237152647996, 
      "sanName": "uitkantstraat", 
      "numOfAddr": 2, 
      "lonmax": 3.3378531045897577, 
      "latmin": 51.06309582894529
    }, 
    {
      "latmax": 51.10384177147949, 
      "name": "Vagevuurstraat", 
      "lonmin": 3.3195866391890223, 
      "sanName": "vagevuurstraat", 
      "numOfAddr": 32, 
      "lonmax": 3.3483623505120694, 
      "latmin": 51.08098302730257
    }, 
    {
      "latmax": 51.058870216858395, 
      "name": "Van Haveskerckelaan", 
      "lonmin": 3.2686588095782834, 
      "sanName": "vanhaveskerckelaan", 
      "numOfAddr": 26, 
      "lonmax": 3.2711646359566937, 
      "latmin": 51.057508845620774
    }, 
    {
      "latmax": 51.05632455974344, 
      "name": "Vannekenstraat", 
      "lonmin": 3.1709065355308557, 
      "sanName": "vannekenstraat", 
      "numOfAddr": 24, 
      "lonmax": 3.1819379938950525, 
      "latmin": 51.045064368069944
    }, 
    {
      "latmax": 51.09610730177184, 
      "name": "Varendreef", 
      "lonmin": 3.292279554208639, 
      "sanName": "varendreef", 
      "numOfAddr": 51, 
      "lonmax": 3.301856978818003, 
      "latmin": 51.095354077692726
    }, 
    {
      "latmax": 51.05522254092585, 
      "name": "Varentakker", 
      "lonmin": 3.226952609188819, 
      "sanName": "varentakker", 
      "numOfAddr": 15, 
      "lonmax": 3.228118042507119, 
      "latmin": 51.054801998487186
    }, 
    {
      "latmax": 51.053065890033366, 
      "name": "Velddreef", 
      "lonmin": 3.1626755188767772, 
      "sanName": "velddreef", 
      "numOfAddr": 12, 
      "lonmax": 3.1734204493955156, 
      "latmin": 51.04715884457995
    }, 
    {
      "latmax": 51.06108347267284, 
      "name": "Veldsprietstraat", 
      "lonmin": 3.174917592455222, 
      "sanName": "veldsprietstraat", 
      "numOfAddr": 17, 
      "lonmax": 3.1796368846661465, 
      "latmin": 51.05810640234385
    }, 
    {
      "latmax": 51.07626959451384, 
      "name": "Verlorengoedstraat", 
      "lonmin": 3.283275803891667, 
      "sanName": "verlorengoedstraat", 
      "numOfAddr": 15, 
      "lonmax": 3.2888623160368056, 
      "latmin": 51.071494115079176
    }, 
    {
      "latmax": 51.05515899439297, 
      "name": "Verrekijker", 
      "lonmin": 3.2813801572157124, 
      "sanName": "verrekijker", 
      "numOfAddr": 48, 
      "lonmax": 3.2882703145738197, 
      "latmin": 51.051053920317365
    }, 
    {
      "latmax": 51.05835066239444, 
      "name": "Vijfwegenstraat", 
      "lonmin": 3.172240331295821, 
      "sanName": "vijfwegenstraat", 
      "numOfAddr": 13, 
      "lonmax": 3.180855475480586, 
      "latmin": 51.055332081186165
    }, 
    {
      "latmax": 51.07153658438473, 
      "name": "Vijverstraat", 
      "lonmin": 3.2554710473577857, 
      "sanName": "vijverstraat", 
      "numOfAddr": 11, 
      "lonmax": 3.2567877837151724, 
      "latmin": 51.07101234123307
    }, 
    {
      "latmax": 51.05316723737034, 
      "name": "Vinkestraat", 
      "lonmin": 3.2510392210660206, 
      "sanName": "vinkestraat", 
      "numOfAddr": 11, 
      "lonmax": 3.252200612973058, 
      "latmin": 51.04910335883554
    }, 
    {
      "latmax": 51.04602800957069, 
      "name": "Vlaanderenlaan", 
      "lonmin": 3.223596308407527, 
      "sanName": "vlaanderenlaan", 
      "numOfAddr": 18, 
      "lonmax": 3.225279699056403, 
      "latmin": 51.04463045167765
    }, 
    {
      "latmax": 51.049852704594926, 
      "name": "Vlasbloemstraat", 
      "lonmin": 3.228257530571116, 
      "sanName": "vlasbloemstraat", 
      "numOfAddr": 22, 
      "lonmax": 3.2300405322734007, 
      "latmin": 51.04846677163889
    }, 
    {
      "latmax": 51.09642166367982, 
      "name": "Vlierbessendreef", 
      "lonmin": 3.299669318984372, 
      "sanName": "vlierbessendreef", 
      "numOfAddr": 16, 
      "lonmax": 3.300848132786646, 
      "latmin": 51.09539856805645
    }, 
    {
      "latmax": 51.04144248614694, 
      "name": "Vlinderstraat", 
      "lonmin": 3.220758920656632, 
      "sanName": "vlinderstraat", 
      "numOfAddr": 30, 
      "lonmax": 3.222332636603748, 
      "latmin": 51.03955519226068
    }, 
    {
      "latmax": 51.049533771039606, 
      "name": "Volderstraat", 
      "lonmin": 3.2226999543776, 
      "sanName": "volderstraat", 
      "numOfAddr": 8, 
      "lonmax": 3.225036243686838, 
      "latmin": 51.04898834217846
    }, 
    {
      "latmax": 51.095581914191634, 
      "name": "Vorsevijverstraat", 
      "lonmin": 3.2779670281763114, 
      "sanName": "vorsevijverstraat", 
      "numOfAddr": 2, 
      "lonmax": 3.2910749195447466, 
      "latmin": 51.092758410063944
    }, 
    {
      "latmax": 51.051130677582385, 
      "name": "Vossebilk", 
      "lonmin": 3.2229129847576066, 
      "sanName": "vossebilk", 
      "numOfAddr": 22, 
      "lonmax": 3.225021586049085, 
      "latmin": 51.04966829938388
    }, 
    {
      "latmax": 51.055057153368715, 
      "name": "Vossestraat", 
      "lonmin": 3.189844721374453, 
      "sanName": "vossestraat", 
      "numOfAddr": 2, 
      "lonmax": 3.190374539937721, 
      "latmin": 51.05503853760181
    }, 
    {
      "latmax": 51.055746707867996, 
      "name": "Vredestraat", 
      "lonmin": 3.2744412247582035, 
      "sanName": "vredestraat", 
      "numOfAddr": 28, 
      "lonmax": 3.276266463148242, 
      "latmin": 51.05419717817564
    }, 
    {
      "latmax": 51.06027030577247, 
      "name": "Vriesestraat", 
      "lonmin": 3.327735668705793, 
      "sanName": "vriesestraat", 
      "numOfAddr": 5, 
      "lonmax": 3.3306459373745505, 
      "latmin": 51.058926447173626
    }, 
    {
      "latmax": 51.06318290609387, 
      "name": "Vrijgeweidstraat", 
      "lonmin": 3.160202778247933, 
      "sanName": "vrijgeweidstraat", 
      "numOfAddr": 54, 
      "lonmax": 3.1828194741901514, 
      "latmin": 51.04143077844026
    }, 
    {
      "latmax": 51.08812301899741, 
      "name": "Vrijstraat", 
      "lonmin": 3.25487050545197, 
      "sanName": "vrijstraat", 
      "numOfAddr": 17, 
      "lonmax": 3.2625056945659416, 
      "latmin": 51.07315813421421
    }, 
    {
      "latmax": 51.049899624942014, 
      "name": "Vromanstraat", 
      "lonmin": 3.2424407213904525, 
      "sanName": "vromanstraat", 
      "numOfAddr": 8, 
      "lonmax": 3.248548127592682, 
      "latmin": 51.04779444485538
    }, 
    {
      "latmax": 51.078771913211014, 
      "name": "Vusakkerstraat", 
      "lonmin": 3.259933121220474, 
      "sanName": "vusakkerstraat", 
      "numOfAddr": 8, 
      "lonmax": 3.2633932150089993, 
      "latmin": 51.07609395396572
    }, 
    {
      "latmax": 51.052780754937444, 
      "name": "Walbosstraat", 
      "lonmin": 3.3237443619020697, 
      "sanName": "walbosstraat", 
      "numOfAddr": 2, 
      "lonmax": 3.3250291413104653, 
      "latmin": 51.05259768774676
    }, 
    {
      "latmax": 51.036004060703, 
      "name": "Waldreef", 
      "lonmin": 3.2069278888638535, 
      "sanName": "waldreef", 
      "numOfAddr": 17, 
      "lonmax": 3.21058221690104, 
      "latmin": 51.03526686323953
    }, 
    {
      "latmax": 51.0377907662551, 
      "name": "Warande", 
      "lonmin": 3.21396462214693, 
      "sanName": "warande", 
      "numOfAddr": 19, 
      "lonmax": 3.214835190773665, 
      "latmin": 51.036971873661706
    }, 
    {
      "latmax": 51.03955453754196, 
      "name": "Waterjufferstraat", 
      "lonmin": 3.2181225739848656, 
      "sanName": "waterjufferstraat", 
      "numOfAddr": 21, 
      "lonmax": 3.2218592225345275, 
      "latmin": 51.03886190405067
    }, 
    {
      "latmax": 51.05936988415411, 
      "name": "Watermolenstraat", 
      "lonmin": 3.1893433856503917, 
      "sanName": "watermolenstraat", 
      "numOfAddr": 8, 
      "lonmax": 3.19771485786305, 
      "latmin": 51.052386351745966
    }, 
    {
      "latmax": 51.05709503950372, 
      "name": "Weverijstraat", 
      "lonmin": 3.269797314282189, 
      "sanName": "weverijstraat", 
      "numOfAddr": 19, 
      "lonmax": 3.272602852902027, 
      "latmin": 51.05642764241857
    }, 
    {
      "latmax": 51.06708073991685, 
      "name": "Weytstraat", 
      "lonmin": 3.299197049067336, 
      "sanName": "weytstraat", 
      "numOfAddr": 2, 
      "lonmax": 3.299843972190174, 
      "latmin": 51.06577674214184
    }, 
    {
      "latmax": 51.055485256710305, 
      "name": "Wiedouwlaan", 
      "lonmin": 3.270369662884603, 
      "sanName": "wiedouwlaan", 
      "numOfAddr": 9, 
      "lonmax": 3.27126926357888, 
      "latmin": 51.05470524550305
    }, 
    {
      "latmax": 51.03689511977765, 
      "name": "Wilgenhof", 
      "lonmin": 3.218491711141453, 
      "sanName": "wilgenhof", 
      "numOfAddr": 47, 
      "lonmax": 3.2222144452425394, 
      "latmin": 51.03575466857423
    }, 
    {
      "latmax": 51.0517230238668, 
      "name": "Willemstraat", 
      "lonmin": 3.19559623353964, 
      "sanName": "willemstraat", 
      "numOfAddr": 7, 
      "lonmax": 3.199183975969827, 
      "latmin": 51.04997632311769
    }, 
    {
      "latmax": 51.049955808751456, 
      "name": "Wingenesteenweg", 
      "lonmin": 3.2262437943184623, 
      "sanName": "wingenesteenweg", 
      "numOfAddr": 41, 
      "lonmax": 3.238453233582639, 
      "latmin": 51.047463103245036
    }, 
    {
      "latmax": 51.04996140191829, 
      "name": "Winkelhoekstraat", 
      "lonmin": 3.218414057376839, 
      "sanName": "winkelhoekstraat", 
      "numOfAddr": 12, 
      "lonmax": 3.220265609971687, 
      "latmin": 51.04868329377171
    }, 
    {
      "latmax": 51.072875320873145, 
      "name": "Wulfhoekstraat", 
      "lonmin": 3.2559040606597076, 
      "sanName": "wulfhoekstraat", 
      "numOfAddr": 11, 
      "lonmax": 3.2577165997226256, 
      "latmin": 51.071627676609104
    }, 
    {
      "latmax": 51.057164093819424, 
      "name": "Wyncom", 
      "lonmin": 3.278300729266528, 
      "sanName": "wyncom", 
      "numOfAddr": 16, 
      "lonmax": 3.2787071412516817, 
      "latmin": 51.05652708877167
    }, 
    {
      "latmax": 51.05796791796387, 
      "name": "Yzerbergstraat", 
      "lonmin": 3.2154968587728705, 
      "sanName": "yzerbergstraat", 
      "numOfAddr": 50, 
      "lonmax": 3.223568642765642, 
      "latmin": 51.04395018690631
    }, 
    {
      "latmax": 51.06191319074092, 
      "name": "Zandbergstraat", 
      "lonmin": 3.278927894271014, 
      "sanName": "zandbergstraat", 
      "numOfAddr": 57, 
      "lonmax": 3.282204622656373, 
      "latmin": 51.05849617126886
    }, 
    {
      "latmax": 51.06059308070086, 
      "name": "Zandweg", 
      "lonmin": 3.3412800947133374, 
      "sanName": "zandweg", 
      "numOfAddr": 3, 
      "lonmax": 3.342946998903848, 
      "latmin": 51.060306304951425
    }, 
    {
      "latmax": 51.04099223369965, 
      "name": "Zeswegestraat", 
      "lonmin": 3.183503558528172, 
      "sanName": "zeswegestraat", 
      "numOfAddr": 83, 
      "lonmax": 3.201909307574473, 
      "latmin": 51.03752667096683
    }, 
    {
      "latmax": 51.03581578730455, 
      "name": "Zonnebekestraat", 
      "lonmin": 3.2222564152335957, 
      "sanName": "zonnebekestraat", 
      "numOfAddr": 8, 
      "lonmax": 3.228521983493949, 
      "latmin": 51.035096219674074
    }, 
    {
      "latmax": 51.06581594437833, 
      "name": "Zuiddreef", 
      "lonmin": 3.218239673102674, 
      "sanName": "zuiddreef", 
      "numOfAddr": 28, 
      "lonmax": 3.2205988585028478, 
      "latmin": 51.060966729012044
    }
  ]
}