{
  "streets": [
    {
      "latmax": 50.94167050927989, 
      "name": "Aakstraat", 
      "lonmin": 3.1520982225905128, 
      "sanName": "aakstraat", 
      "numOfAddr": 6, 
      "lonmax": 3.153520028088788, 
      "latmin": 50.94046337460001
    }, 
    {
      "latmax": 50.953068301275195, 
      "name": "Aardappelhoekstraat", 
      "lonmin": 3.157707850747415, 
      "sanName": "aardappelhoekstraat", 
      "numOfAddr": 32, 
      "lonmax": 3.163518545867073, 
      "latmin": 50.95107418027545
    }, 
    {
      "latmax": 50.949909375283866, 
      "name": "Aardbeienstraat", 
      "lonmin": 3.1434449175478973, 
      "sanName": "aardbeienstraat", 
      "numOfAddr": 28, 
      "lonmax": 3.1452865147232703, 
      "latmin": 50.947809074241725
    }, 
    {
      "latmax": 50.942899218524786, 
      "name": "Abeelstraat", 
      "lonmin": 3.1101228983110323, 
      "sanName": "abeelstraat", 
      "numOfAddr": 49, 
      "lonmax": 3.1132431739316675, 
      "latmin": 50.93905928475753
    }, 
    {
      "latmax": 50.94204635360804, 
      "name": "Abraham Hansstraat", 
      "lonmin": 3.0993646191439144, 
      "sanName": "abrahamhansstraat", 
      "numOfAddr": 7, 
      "lonmax": 3.102119815456394, 
      "latmin": 50.94035765148953
    }, 
    {
      "latmax": 50.93696630167156, 
      "name": "Acaciastraat", 
      "lonmin": 3.112544929208907, 
      "sanName": "acaciastraat", 
      "numOfAddr": 29, 
      "lonmax": 3.1148816368620205, 
      "latmin": 50.93525047197846
    }, 
    {
      "latmax": 50.95096834838408, 
      "name": "Achiel Denysstraat", 
      "lonmin": 3.1240701394010038, 
      "sanName": "achieldenysstraat", 
      "numOfAddr": 14, 
      "lonmax": 3.125095049185232, 
      "latmin": 50.950637492381354
    }, 
    {
      "latmax": 50.95089778687136, 
      "name": "Adriaen Willaertstraat", 
      "lonmin": 3.1209721836050677, 
      "sanName": "adriaenwillaertstraat", 
      "numOfAddr": 19, 
      "lonmax": 3.123309887133245, 
      "latmin": 50.949723862951096
    }, 
    {
      "latmax": 50.92402932443521, 
      "name": "Albert Allemanstraat", 
      "lonmin": 3.158837160518436, 
      "sanName": "albertallemanstraat", 
      "numOfAddr": 38, 
      "lonmax": 3.1610540019477873, 
      "latmin": 50.922695101131104
    }, 
    {
      "latmax": 50.94691144525388, 
      "name": "Albrecht Rodenbachstraat", 
      "lonmin": 3.1200032388953263, 
      "sanName": "albrechtrodenbachstraat", 
      "numOfAddr": 42, 
      "lonmax": 3.1224844076113905, 
      "latmin": 50.945306068136546
    }, 
    {
      "latmax": 50.946101775053506, 
      "name": "Alfons Carlierstraat", 
      "lonmin": 3.1159896139322574, 
      "sanName": "alfonscarlierstraat", 
      "numOfAddr": 21, 
      "lonmax": 3.1165857259586214, 
      "latmin": 50.94528521576523
    }, 
    {
      "latmax": 50.93458985763953, 
      "name": "Ange Angillisstraat", 
      "lonmin": 3.1351826207874733, 
      "sanName": "angeangillisstraat", 
      "numOfAddr": 44, 
      "lonmax": 3.137336567217018, 
      "latmin": 50.93290102343425
    }, 
    {
      "latmax": 50.96979162118144, 
      "name": "Anna Bijnsstraat", 
      "lonmin": 3.1326806717084885, 
      "sanName": "annabijnsstraat", 
      "numOfAddr": 8, 
      "lonmax": 3.132882543871793, 
      "latmin": 50.96847273108084
    }, 
    {
      "latmax": 50.94833768378293, 
      "name": "Appelaarstraat", 
      "lonmin": 3.1430459521136225, 
      "sanName": "appelaarstraat", 
      "numOfAddr": 9, 
      "lonmax": 3.1439913050255024, 
      "latmin": 50.94757775915641
    }, 
    {
      "latmax": 50.959022021402504, 
      "name": "Ardooisesteenweg", 
      "lonmin": 3.1312157382878474, 
      "sanName": "ardooisesteenweg", 
      "numOfAddr": 322, 
      "lonmax": 3.166455064926368, 
      "latmin": 50.94853730329994
    }, 
    {
      "latmax": 50.94934804056298, 
      "name": "Ardooisewegel", 
      "lonmin": 3.1606967792408, 
      "sanName": "ardooisewegel", 
      "numOfAddr": 6, 
      "lonmax": 3.1636425087608626, 
      "latmin": 50.94864874945593
    }, 
    {
      "latmax": 50.94431194663215, 
      "name": "Arme-Klarenstraat", 
      "lonmin": 3.1189310710008744, 
      "sanName": "armeklarenstraat", 
      "numOfAddr": 33, 
      "lonmax": 3.1224741274567465, 
      "latmin": 50.94301644534112
    }, 
    {
      "latmax": 50.92735362912792, 
      "name": "Armoedestraat", 
      "lonmin": 3.158407540780356, 
      "sanName": "armoedestraat", 
      "numOfAddr": 43, 
      "lonmax": 3.173633020045665, 
      "latmin": 50.92203430790517
    }, 
    {
      "latmax": 50.90095035712392, 
      "name": "Astenstraat", 
      "lonmin": 3.1314792201471504, 
      "sanName": "astenstraat", 
      "numOfAddr": 8, 
      "lonmax": 3.133692404723332, 
      "latmin": 50.8997179189291
    }, 
    {
      "latmax": 50.94054403171216, 
      "name": "Azalealaan", 
      "lonmin": 3.1364446543338693, 
      "sanName": "azalealaan", 
      "numOfAddr": 18, 
      "lonmax": 3.1375970613914057, 
      "latmin": 50.93841562639423
    }, 
    {
      "latmax": 50.950513074580364, 
      "name": "Baasrodestraat", 
      "lonmin": 3.141994931596544, 
      "sanName": "baasrodestraat", 
      "numOfAddr": 6, 
      "lonmax": 3.142334215462845, 
      "latmin": 50.95022637422101
    }, 
    {
      "latmax": 50.91883198969056, 
      "name": "Babilliestraat", 
      "lonmin": 3.1278177124942044, 
      "sanName": "babilliestraat", 
      "numOfAddr": 7, 
      "lonmax": 3.1315017972596415, 
      "latmin": 50.913249459350595
    }, 
    {
      "latmax": 50.98759405669646, 
      "name": "Baertsdreef", 
      "lonmin": 3.1627494399147706, 
      "sanName": "baertsdreef", 
      "numOfAddr": 7, 
      "lonmax": 3.1635084553847803, 
      "latmin": 50.98658353229625
    }, 
    {
      "latmax": 50.9421005300543, 
      "name": "Bakkersstraat", 
      "lonmin": 3.1181906115683797, 
      "sanName": "bakkersstraat", 
      "numOfAddr": 28, 
      "lonmax": 3.1189449056538954, 
      "latmin": 50.94144606158752
    }, 
    {
      "latmax": 50.95604187477196, 
      "name": "Baliestraat", 
      "lonmin": 3.13909141764643, 
      "sanName": "baliestraat", 
      "numOfAddr": 36, 
      "lonmax": 3.141255988961043, 
      "latmin": 50.95431177082377
    }, 
    {
      "latmax": 50.956244323776104, 
      "name": "Barnumerf", 
      "lonmin": 3.1250900515360227, 
      "sanName": "barnumerf", 
      "numOfAddr": 19, 
      "lonmax": 3.1259725322250747, 
      "latmin": 50.955672875403486
    }, 
    {
      "latmax": 50.95245772547194, 
      "name": "Batavialaan", 
      "lonmin": 3.1406531687614536, 
      "sanName": "batavialaan", 
      "numOfAddr": 79, 
      "lonmax": 3.1439240310099286, 
      "latmin": 50.94856214585076
    }, 
    {
      "latmax": 50.96104614401488, 
      "name": "Beatrijsstraat", 
      "lonmin": 3.1300410054618335, 
      "sanName": "beatrijsstraat", 
      "numOfAddr": 4, 
      "lonmax": 3.130320203150535, 
      "latmin": 50.96046254623392
    }, 
    {
      "latmax": 50.95972297266103, 
      "name": "Beekstraat", 
      "lonmin": 3.1096288060615858, 
      "sanName": "beekstraat", 
      "numOfAddr": 49, 
      "lonmax": 3.115444596211562, 
      "latmin": 50.95632744433998
    }, 
    {
      "latmax": 50.95704233669502, 
      "name": "Beekwegel", 
      "lonmin": 3.1110001907575526, 
      "sanName": "beekwegel", 
      "numOfAddr": 5, 
      "lonmax": 3.111438880100279, 
      "latmin": 50.95649250350615
    }, 
    {
      "latmax": 50.899678620185256, 
      "name": "Begijnestraat", 
      "lonmin": 3.126988767975245, 
      "sanName": "begijnestraat", 
      "numOfAddr": 4, 
      "lonmax": 3.1302679167897876, 
      "latmin": 50.88876858037998
    }, 
    {
      "latmax": 50.93921630574491, 
      "name": "Begoniastraat", 
      "lonmin": 3.1373084088799232, 
      "sanName": "begoniastraat", 
      "numOfAddr": 58, 
      "lonmax": 3.1421573482830207, 
      "latmin": 50.93857157971065
    }, 
    {
      "latmax": 50.89273504819646, 
      "name": "Beheytstraat", 
      "lonmin": 3.1115631895986477, 
      "sanName": "beheytstraat", 
      "numOfAddr": 24, 
      "lonmax": 3.1127063968799495, 
      "latmin": 50.89116338000863
    }, 
    {
      "latmax": 50.9278229327184, 
      "name": "Bergeikenstraat", 
      "lonmin": 3.1284623524235, 
      "sanName": "bergeikenstraat", 
      "numOfAddr": 41, 
      "lonmax": 3.133574347714806, 
      "latmin": 50.9243231204689
    }, 
    {
      "latmax": 50.93715902661076, 
      "name": "Bergmolenstraat", 
      "lonmin": 3.127574784571267, 
      "sanName": "bergmolenstraat", 
      "numOfAddr": 7, 
      "lonmax": 3.1289103680748975, 
      "latmin": 50.93664758975934
    }, 
    {
      "latmax": 50.92221209097284, 
      "name": "Bergstraat", 
      "lonmin": 3.124158877937321, 
      "sanName": "bergstraat", 
      "numOfAddr": 11, 
      "lonmax": 3.135470492131717, 
      "latmin": 50.91967743591399
    }, 
    {
      "latmax": 50.934446828114766, 
      "name": "Berkenstraat", 
      "lonmin": 3.1130656165398087, 
      "sanName": "berkenstraat", 
      "numOfAddr": 25, 
      "lonmax": 3.1138738809431805, 
      "latmin": 50.93327796269952
    }, 
    {
      "latmax": 50.93425379989291, 
      "name": "Beukenstraat", 
      "lonmin": 3.103756829962376, 
      "sanName": "beukenstraat", 
      "numOfAddr": 20, 
      "lonmax": 3.10566859666078, 
      "latmin": 50.93194769112625
    }, 
    {
      "latmax": 50.94809411261241, 
      "name": "Beursgoed", 
      "lonmin": 3.1501390155544957, 
      "sanName": "beursgoed", 
      "numOfAddr": 8, 
      "lonmax": 3.1506548512300236, 
      "latmin": 50.9473784715079
    }, 
    {
      "latmax": 50.94629776729565, 
      "name": "Beurtkaai", 
      "lonmin": 3.148399623520001, 
      "sanName": "beurtkaai", 
      "numOfAddr": 2, 
      "lonmax": 3.1510492179753546, 
      "latmin": 50.94518101526897
    }, 
    {
      "latmax": 50.961982770923775, 
      "name": "Beverseaardeweg", 
      "lonmin": 3.1358588006179486, 
      "sanName": "beverseaardeweg", 
      "numOfAddr": 52, 
      "lonmax": 3.147062412110491, 
      "latmin": 50.9544428195669
    }, 
    {
      "latmax": 50.9782200536938, 
      "name": "Beversesteenweg", 
      "lonmin": 3.1288095167077437, 
      "sanName": "beversesteenweg", 
      "numOfAddr": 423, 
      "lonmax": 3.1709193016551906, 
      "latmin": 50.94912408823651
    }, 
    {
      "latmax": 50.96885804325013, 
      "name": "Bevrijdingsstraat", 
      "lonmin": 3.1482523532645876, 
      "sanName": "bevrijdingsstraat", 
      "numOfAddr": 22, 
      "lonmax": 3.1500672543566717, 
      "latmin": 50.966991934635196
    }, 
    {
      "latmax": 50.94975043041879, 
      "name": "Bietstraat", 
      "lonmin": 3.087871928627038, 
      "sanName": "bietstraat", 
      "numOfAddr": 9, 
      "lonmax": 3.0909266508865767, 
      "latmin": 50.946226134682384
    }, 
    {
      "latmax": 50.964703210712536, 
      "name": "Biezenhof A", 
      "lonmin": 3.111576183908667, 
      "sanName": "biezenhofa", 
      "numOfAddr": 2, 
      "lonmax": 3.111643009471424, 
      "latmin": 50.96459496015473
    }, 
    {
      "latmax": 50.965314700001066, 
      "name": "Biezenhof B", 
      "lonmin": 3.1103163398663938, 
      "sanName": "biezenhofb", 
      "numOfAddr": 12, 
      "lonmax": 3.1109772945636203, 
      "latmin": 50.964734853051084
    }, 
    {
      "latmax": 50.964540209258, 
      "name": "Biezenhof C", 
      "lonmin": 3.110919810293, 
      "sanName": "biezenhofc", 
      "numOfAddr": 2, 
      "lonmax": 3.110986649188103, 
      "latmin": 50.964431509672075
    }, 
    {
      "latmax": 50.96453865391921, 
      "name": "Biezenhof D", 
      "lonmin": 3.1109172893263044, 
      "sanName": "biezenhofd", 
      "numOfAddr": 10, 
      "lonmax": 3.1118024108477225, 
      "latmin": 50.96334833414737
    }, 
    {
      "latmax": 50.96380105363485, 
      "name": "Biezenhof E", 
      "lonmin": 3.110426394750884, 
      "sanName": "biezenhofe", 
      "numOfAddr": 16, 
      "lonmax": 3.1112444104148334, 
      "latmin": 50.96313113235768
    }, 
    {
      "latmax": 50.96429443454335, 
      "name": "Biezenhof F", 
      "lonmin": 3.1097984024550587, 
      "sanName": "biezenhoff", 
      "numOfAddr": 16, 
      "lonmax": 3.1106967670712615, 
      "latmin": 50.963848753275386
    }, 
    {
      "latmax": 50.96503735367824, 
      "name": "Biezenhof G", 
      "lonmin": 3.109460942730711, 
      "sanName": "biezenhofg", 
      "numOfAddr": 16, 
      "lonmax": 3.110232501633702, 
      "latmin": 50.96434631457865
    }, 
    {
      "latmax": 50.964772140632434, 
      "name": "Biezenhof H", 
      "lonmin": 3.1085095365965927, 
      "sanName": "biezenhofh", 
      "numOfAddr": 26, 
      "lonmax": 3.10997109717189, 
      "latmin": 50.96360867278925
    }, 
    {
      "latmax": 50.963440041535456, 
      "name": "Biezenhof I", 
      "lonmin": 3.1094858888298686, 
      "sanName": "biezenhofi", 
      "numOfAddr": 10, 
      "lonmax": 3.1102475199254402, 
      "latmin": 50.96300184806716
    }, 
    {
      "latmax": 50.963189802867376, 
      "name": "Biezenhof J", 
      "lonmin": 3.108630705248905, 
      "sanName": "biezenhofj", 
      "numOfAddr": 8, 
      "lonmax": 3.1091559710789896, 
      "latmin": 50.9629612269522
    }, 
    {
      "latmax": 50.96383311141576, 
      "name": "Biezenhof K", 
      "lonmin": 3.1079245234534767, 
      "sanName": "biezenhofk", 
      "numOfAddr": 16, 
      "lonmax": 3.1087384251680756, 
      "latmin": 50.963379117465635
    }, 
    {
      "latmax": 50.96457571577228, 
      "name": "Biezenhof L", 
      "lonmin": 3.107519015461538, 
      "sanName": "biezenhofl", 
      "numOfAddr": 16, 
      "lonmax": 3.108416567993067, 
      "latmin": 50.9639976874598
    }, 
    {
      "latmax": 50.964481784906305, 
      "name": "Biezenhof M", 
      "lonmin": 3.1071263486340954, 
      "sanName": "biezenhofm", 
      "numOfAddr": 4, 
      "lonmax": 3.107292603548296, 
      "latmin": 50.964255389047125
    }, 
    {
      "latmax": 50.96402853797291, 
      "name": "Biezenhof N", 
      "lonmin": 3.106603372593743, 
      "sanName": "biezenhofn", 
      "numOfAddr": 4, 
      "lonmax": 3.106780922413373, 
      "latmin": 50.9638109847675
    }, 
    {
      "latmax": 50.96399069387198, 
      "name": "Biezenhof O", 
      "lonmin": 3.1069273395465613, 
      "sanName": "biezenhofo", 
      "numOfAddr": 14, 
      "lonmax": 3.1077932705437403, 
      "latmin": 50.96312372866761
    }, 
    {
      "latmax": 50.96299762241271, 
      "name": "Biezenhof P", 
      "lonmin": 3.108123247905369, 
      "sanName": "biezenhofp", 
      "numOfAddr": 4, 
      "lonmax": 3.1082962686134215, 
      "latmin": 50.962778669853854
    }, 
    {
      "latmax": 50.96285732957828, 
      "name": "Biezenhof R", 
      "lonmin": 3.107272397108548, 
      "sanName": "biezenhofr", 
      "numOfAddr": 4, 
      "lonmax": 3.10744037010744, 
      "latmin": 50.962635626949826
    }, 
    {
      "latmax": 50.96375604761856, 
      "name": "Biezenhof S", 
      "lonmin": 3.1061771922991976, 
      "sanName": "biezenhofs", 
      "numOfAddr": 16, 
      "lonmax": 3.1069407761943144, 
      "latmin": 50.96252049489003
    }, 
    {
      "latmax": 50.96330588827839, 
      "name": "Biezenstraat", 
      "lonmin": 3.104531077482508, 
      "sanName": "biezenstraat", 
      "numOfAddr": 92, 
      "lonmax": 3.1133256749611924, 
      "latmin": 50.95900324635377
    }, 
    {
      "latmax": 50.95881995599771, 
      "name": "Bilkwegel", 
      "lonmin": 3.1104895981551763, 
      "sanName": "bilkwegel", 
      "numOfAddr": 10, 
      "lonmax": 3.1119599227988477, 
      "latmin": 50.95808555797054
    }, 
    {
      "latmax": 50.941255369601606, 
      "name": "Blauwvoetstraat", 
      "lonmin": 3.1045966545358032, 
      "sanName": "blauwvoetstraat", 
      "numOfAddr": 41, 
      "lonmax": 3.1061173033357097, 
      "latmin": 50.939576261094444
    }, 
    {
      "latmax": 50.945101885707835, 
      "name": "Blekerijstraat", 
      "lonmin": 3.117702086043309, 
      "sanName": "blekerijstraat", 
      "numOfAddr": 81, 
      "lonmax": 3.120485362551063, 
      "latmin": 50.94228893732071
    }, 
    {
      "latmax": 50.934494166246246, 
      "name": "Blinde-Rodenbachstraat", 
      "lonmin": 3.1365266948734853, 
      "sanName": "blinderodenbachstraat", 
      "numOfAddr": 126, 
      "lonmax": 3.1483250432205265, 
      "latmin": 50.93169009880569
    }, 
    {
      "latmax": 50.93201229720574, 
      "name": "Blommestraat", 
      "lonmin": 3.13815977728225, 
      "sanName": "blommestraat", 
      "numOfAddr": 80, 
      "lonmax": 3.146016952063464, 
      "latmin": 50.93088664010169
    }, 
    {
      "latmax": 50.96777836261788, 
      "name": "Bobijnstraat", 
      "lonmin": 3.1149841262850932, 
      "sanName": "bobijnstraat", 
      "numOfAddr": 24, 
      "lonmax": 3.1165447162954734, 
      "latmin": 50.967339311775
    }, 
    {
      "latmax": 50.913068382645044, 
      "name": "Boerenkrijglaan", 
      "lonmin": 3.158621257442966, 
      "sanName": "boerenkrijglaan", 
      "numOfAddr": 20, 
      "lonmax": 3.1600751951064616, 
      "latmin": 50.909835332035584
    }, 
    {
      "latmax": 50.91792552521804, 
      "name": "Boeversstraat", 
      "lonmin": 3.1580960870872827, 
      "sanName": "boeversstraat", 
      "numOfAddr": 36, 
      "lonmax": 3.159630470621024, 
      "latmin": 50.91606422919141
    }, 
    {
      "latmax": 50.96981957765797, 
      "name": "Bollaardstraat", 
      "lonmin": 3.1332088580220927, 
      "sanName": "bollaardstraat", 
      "numOfAddr": 35, 
      "lonmax": 3.135064414540667, 
      "latmin": 50.96569727028535
    }, 
    {
      "latmax": 50.94183501707115, 
      "name": "Bollenstraat", 
      "lonmin": 3.120973815506457, 
      "sanName": "bollenstraat", 
      "numOfAddr": 31, 
      "lonmax": 3.1243257679533367, 
      "latmin": 50.94107639827643
    }, 
    {
      "latmax": 50.93839606373253, 
      "name": "Boomgaardstraat", 
      "lonmin": 3.126129589391696, 
      "sanName": "boomgaardstraat", 
      "numOfAddr": 58, 
      "lonmax": 3.128473758613276, 
      "latmin": 50.935094657996196
    }, 
    {
      "latmax": 50.930331586202605, 
      "name": "Bornstraat", 
      "lonmin": 3.1201541092363008, 
      "sanName": "bornstraat", 
      "numOfAddr": 77, 
      "lonmax": 3.138458939808295, 
      "latmin": 50.92790250267746
    }, 
    {
      "latmax": 50.93934495598285, 
      "name": "Borstelstraat", 
      "lonmin": 3.125073453236576, 
      "sanName": "borstelstraat", 
      "numOfAddr": 26, 
      "lonmax": 3.1260783586110694, 
      "latmin": 50.93877864912454
    }, 
    {
      "latmax": 50.908404996543005, 
      "name": "Boskantstraat", 
      "lonmin": 3.1622127382540537, 
      "sanName": "boskantstraat", 
      "numOfAddr": 9, 
      "lonmax": 3.172984764980055, 
      "latmin": 50.90584980771823
    }, 
    {
      "latmax": 50.899056371149776, 
      "name": "Bosmolensstraat", 
      "lonmin": 3.1622288799846054, 
      "sanName": "bosmolensstraat", 
      "numOfAddr": 10, 
      "lonmax": 3.1735417781175213, 
      "latmin": 50.89758878231155
    }, 
    {
      "latmax": 50.90480189310759, 
      "name": "Bosweg", 
      "lonmin": 3.1642039798875405, 
      "sanName": "bosweg", 
      "numOfAddr": 4, 
      "lonmax": 3.165299959151379, 
      "latmin": 50.9018717772311
    }, 
    {
      "latmax": 50.94473873363223, 
      "name": "Botermarkt", 
      "lonmin": 3.124936026640751, 
      "sanName": "botermarkt", 
      "numOfAddr": 18, 
      "lonmax": 3.126764392516599, 
      "latmin": 50.94391691811881
    }, 
    {
      "latmax": 50.96199645195759, 
      "name": "Boterstraat", 
      "lonmin": 3.1574595719074403, 
      "sanName": "boterstraat", 
      "numOfAddr": 65, 
      "lonmax": 3.165567294905335, 
      "latmin": 50.95838755982044
    }, 
    {
      "latmax": 50.904038101071706, 
      "name": "Botteliersstraat", 
      "lonmin": 3.1742291463052714, 
      "sanName": "botteliersstraat", 
      "numOfAddr": 2, 
      "lonmax": 3.1766492473308467, 
      "latmin": 50.90342867032309
    }, 
    {
      "latmax": 50.93000540516142, 
      "name": "Braamstraat", 
      "lonmin": 3.142514651370909, 
      "sanName": "braamstraat", 
      "numOfAddr": 11, 
      "lonmax": 3.143835215944609, 
      "latmin": 50.929315022457686
    }, 
    {
      "latmax": 50.985216602374535, 
      "name": "Brabantstraat", 
      "lonmin": 3.158747735334223, 
      "sanName": "brabantstraat", 
      "numOfAddr": 28, 
      "lonmax": 3.1719529504252857, 
      "latmin": 50.98030119879296
    }, 
    {
      "latmax": 50.959673713500266, 
      "name": "Broeder Adolfstraat", 
      "lonmin": 3.1396143725365637, 
      "sanName": "broederadolfstraat", 
      "numOfAddr": 9, 
      "lonmax": 3.140351678850253, 
      "latmin": 50.95889775954186
    }, 
    {
      "latmax": 50.94979000727768, 
      "name": "Bruanestraat", 
      "lonmin": 3.135458504836396, 
      "sanName": "bruanestraat", 
      "numOfAddr": 81, 
      "lonmax": 3.1393007318869794, 
      "latmin": 50.947807983044186
    }, 
    {
      "latmax": 50.97718602880901, 
      "name": "Brugsesteenweg", 
      "lonmin": 2.306689562140502, 
      "sanName": "brugsesteenweg", 
      "numOfAddr": 341, 
      "lonmax": 3.123525596757992, 
      "latmin": 49.293335165093566
    }, 
    {
      "latmax": 50.932258959413716, 
      "name": "Bunderstraat", 
      "lonmin": 3.105407845785496, 
      "sanName": "bunderstraat", 
      "numOfAddr": 37, 
      "lonmax": 3.1100155833416534, 
      "latmin": 50.93033730434899
    }, 
    {
      "latmax": 50.91792814631465, 
      "name": "Burgemeestersstraat", 
      "lonmin": 3.1612008191150083, 
      "sanName": "burgemeestersstraat", 
      "numOfAddr": 31, 
      "lonmax": 3.1635435292942518, 
      "latmin": 50.91592259766105
    }, 
    {
      "latmax": 50.93221767215407, 
      "name": "Cecilia Callebertstraat", 
      "lonmin": 3.13067246725773, 
      "sanName": "ceciliacallebertstraat", 
      "numOfAddr": 8, 
      "lonmax": 3.131415016228187, 
      "latmin": 50.93194177200121
    }, 
    {
      "latmax": 50.93357886467974, 
      "name": "Cederstraat", 
      "lonmin": 3.1094960954195394, 
      "sanName": "cederstraat", 
      "numOfAddr": 27, 
      "lonmax": 3.1121852444949205, 
      "latmin": 50.93256193279482
    }, 
    {
      "latmax": 50.950528735996336, 
      "name": "Cichoreistraat", 
      "lonmin": 3.1250030428261817, 
      "sanName": "cichoreistraat", 
      "numOfAddr": 18, 
      "lonmax": 3.126259060491539, 
      "latmin": 50.94974793803225
    }, 
    {
      "latmax": 50.93661374799549, 
      "name": "Cipressenstraat", 
      "lonmin": 3.106291719562672, 
      "sanName": "cipressenstraat", 
      "numOfAddr": 30, 
      "lonmax": 3.109769653307838, 
      "latmin": 50.93519709925495
    }, 
    {
      "latmax": 50.94625290783412, 
      "name": "Citroenstraat", 
      "lonmin": 3.1240442581159678, 
      "sanName": "citroenstraat", 
      "numOfAddr": 1, 
      "lonmax": 3.1240442581159678, 
      "latmin": 50.94625290783412
    }, 
    {
      "latmax": 50.96601510572059, 
      "name": "Claeyssensstraat", 
      "lonmin": 3.1496193666356787, 
      "sanName": "claeyssensstraat", 
      "numOfAddr": 6, 
      "lonmax": 3.1556920587486443, 
      "latmin": 50.96462060860336
    }, 
    {
      "latmax": 50.99017569257094, 
      "name": "Colliensstraat", 
      "lonmin": 3.143540234678931, 
      "sanName": "colliensstraat", 
      "numOfAddr": 1, 
      "lonmax": 3.143540234678931, 
      "latmin": 50.99017569257094
    }, 
    {
      "latmax": 50.93460679695041, 
      "name": "Collievijverpark", 
      "lonmin": 3.109918434985327, 
      "sanName": "collievijverpark", 
      "numOfAddr": 38, 
      "lonmax": 3.11168471388797, 
      "latmin": 50.933453988832085
    }, 
    {
      "latmax": 50.93869815932257, 
      "name": "Constantijn Duboisstraat", 
      "lonmin": 3.132579339982841, 
      "sanName": "constantijnduboisstraat", 
      "numOfAddr": 13, 
      "lonmax": 3.1337702636190934, 
      "latmin": 50.93723458992578
    }, 
    {
      "latmax": 50.92470990899408, 
      "name": "Constant Lambrechtstraat", 
      "lonmin": 3.1619045559985373, 
      "sanName": "constantlambrechtstraat", 
      "numOfAddr": 28, 
      "lonmax": 3.1636945440523783, 
      "latmin": 50.923543722500966
    }, 
    {
      "latmax": 50.956624851773086, 
      "name": "Constant Lievensstraat", 
      "lonmin": 3.1396356177584606, 
      "sanName": "constantlievensstraat", 
      "numOfAddr": 31, 
      "lonmax": 3.1414525727871063, 
      "latmin": 50.95519421868366
    }, 
    {
      "latmax": 50.92492384532686, 
      "name": "Constant Permekestraat", 
      "lonmin": 3.157596963245735, 
      "sanName": "constantpermekestraat", 
      "numOfAddr": 20, 
      "lonmax": 3.158238577356828, 
      "latmin": 50.92402320254891
    }, 
    {
      "latmax": 50.96781316875083, 
      "name": "Constant Verbekestraat", 
      "lonmin": 3.135266354618248, 
      "sanName": "constantverbekestraat", 
      "numOfAddr": 22, 
      "lonmax": 3.1377622558948035, 
      "latmin": 50.96649089673669
    }, 
    {
      "latmax": 50.91295740209054, 
      "name": "Dadizeleleenstraat", 
      "lonmin": 3.118593766609017, 
      "sanName": "dadizeleleenstraat", 
      "numOfAddr": 19, 
      "lonmax": 3.137548466591488, 
      "latmin": 50.90704053055916
    }, 
    {
      "latmax": 50.93310835751135, 
      "name": "Daglandstraat", 
      "lonmin": 3.1060348651691934, 
      "sanName": "daglandstraat", 
      "numOfAddr": 49, 
      "lonmax": 3.110762050657777, 
      "latmin": 50.930800659457674
    }, 
    {
      "latmax": 50.92731312084359, 
      "name": "Dalstraat", 
      "lonmin": 3.1202002434134264, 
      "sanName": "dalstraat", 
      "numOfAddr": 20, 
      "lonmax": 3.1240367237195446, 
      "latmin": 50.92606152454926
    }, 
    {
      "latmax": 50.96431320812696, 
      "name": "Damaststraat", 
      "lonmin": 3.1152173581386124, 
      "sanName": "damaststraat", 
      "numOfAddr": 39, 
      "lonmax": 3.1161850009814196, 
      "latmin": 50.96326018417594
    }, 
    {
      "latmax": 50.940126338697596, 
      "name": "Damberdstraat", 
      "lonmin": 3.124950970134972, 
      "sanName": "damberdstraat", 
      "numOfAddr": 46, 
      "lonmax": 3.1269177713663217, 
      "latmin": 50.939513138464406
    }, 
    {
      "latmax": 50.966236089375585, 
      "name": "Dammestraat", 
      "lonmin": 3.1230168638432683, 
      "sanName": "dammestraat", 
      "numOfAddr": 44, 
      "lonmax": 3.1310600419643113, 
      "latmin": 50.96407194599281
    }, 
    {
      "latmax": 50.928060834883446, 
      "name": "David Teniersstraat", 
      "lonmin": 3.159301480523296, 
      "sanName": "davidteniersstraat", 
      "numOfAddr": 72, 
      "lonmax": 3.162378661148414, 
      "latmin": 50.926191086575486
    }, 
    {
      "latmax": 50.94907410997289, 
      "name": "de Coninckplein", 
      "lonmin": 3.1267038820089708, 
      "sanName": "deconinckplein", 
      "numOfAddr": 2, 
      "lonmax": 3.1271144739165, 
      "latmin": 50.948638810436584
    }, 
    {
      "latmax": 50.96976122798083, 
      "name": "De Gotelaar", 
      "lonmin": 3.1045602692585064, 
      "sanName": "degotelaar", 
      "numOfAddr": 91, 
      "lonmax": 3.1081166923365044, 
      "latmin": 50.96484680732643
    }, 
    {
      "latmax": 50.936930264136464, 
      "name": "De Karre", 
      "lonmin": 3.146183531417027, 
      "sanName": "dekarre", 
      "numOfAddr": 4, 
      "lonmax": 3.14727229812171, 
      "latmin": 50.93634101322054
    }, 
    {
      "latmax": 50.93992314733111, 
      "name": "Deken De Saegherplein", 
      "lonmin": 3.1363706548463592, 
      "sanName": "dekendesaegherplein", 
      "numOfAddr": 18, 
      "lonmax": 3.1377946710037055, 
      "latmin": 50.93924954774843
    }, 
    {
      "latmax": 50.97222703317086, 
      "name": "Deken Wallaertstraat", 
      "lonmin": 3.1367580951103893, 
      "sanName": "dekenwallaertstraat", 
      "numOfAddr": 34, 
      "lonmax": 3.1387181730976703, 
      "latmin": 50.969790417750005
    }, 
    {
      "latmax": 50.94687845116511, 
      "name": "Delaerestraat", 
      "lonmin": 3.1274200174667333, 
      "sanName": "delaerestraat", 
      "numOfAddr": 41, 
      "lonmax": 3.1291779768783012, 
      "latmin": 50.945275964303114
    }, 
    {
      "latmax": 50.946848967229, 
      "name": "De Munt", 
      "lonmin": 3.122775985861325, 
      "sanName": "demunt", 
      "numOfAddr": 11, 
      "lonmax": 3.125003316418001, 
      "latmin": 50.946302454303975
    }, 
    {
      "latmax": 50.9342526410939, 
      "name": "Dennenstraat", 
      "lonmin": 3.111872948025479, 
      "sanName": "dennenstraat", 
      "numOfAddr": 29, 
      "lonmax": 3.1126342005377956, 
      "latmin": 50.932907318763725
    }, 
    {
      "latmax": 50.95505006878436, 
      "name": "De Witte Reek", 
      "lonmin": 3.1365860421536014, 
      "sanName": "dewittereek", 
      "numOfAddr": 30, 
      "lonmax": 3.1383012176827, 
      "latmin": 50.9536959896099
    }, 
    {
      "latmax": 50.95784092218687, 
      "name": "De Zilten", 
      "lonmin": 3.093383037610429, 
      "sanName": "dezilten", 
      "numOfAddr": 8, 
      "lonmax": 3.0979318885909652, 
      "latmin": 50.954634854528656
    }, 
    {
      "latmax": 50.96084903834192, 
      "name": "Diederik van Assenedestraat", 
      "lonmin": 3.1290989542300833, 
      "sanName": "diederikvanassenedestraat", 
      "numOfAddr": 4, 
      "lonmax": 3.1296436370201253, 
      "latmin": 50.96080523993322
    }, 
    {
      "latmax": 50.95747336788867, 
      "name": "Diksmuidsesteenweg", 
      "lonmin": 3.0822723657092763, 
      "sanName": "diksmuidsesteenweg", 
      "numOfAddr": 312, 
      "lonmax": 3.1195751564161966, 
      "latmin": 50.94513153422967
    }, 
    {
      "latmax": 50.9610095659351, 
      "name": "Diswegel", 
      "lonmin": 3.1082147154349866, 
      "sanName": "diswegel", 
      "numOfAddr": 40, 
      "lonmax": 3.1100918213468796, 
      "latmin": 50.959586300405526
    }, 
    {
      "latmax": 50.93975626706741, 
      "name": "Dokter Delbekestraat", 
      "lonmin": 3.1220598386918508, 
      "sanName": "dokterdelbekestraat", 
      "numOfAddr": 24, 
      "lonmax": 3.1240617732285196, 
      "latmin": 50.93906410886545
    }, 
    {
      "latmax": 50.944737064622366, 
      "name": "Domien Craccostraat", 
      "lonmin": 3.1038994840932443, 
      "sanName": "domiencraccostraat", 
      "numOfAddr": 71, 
      "lonmax": 3.10740621081736, 
      "latmin": 50.94208876309374
    }, 
    {
      "latmax": 50.98881089006011, 
      "name": "Dominiek Saviostraat", 
      "lonmin": 3.137410040204433, 
      "sanName": "dominieksaviostraat", 
      "numOfAddr": 14, 
      "lonmax": 3.1459925819019072, 
      "latmin": 50.98118859160144
    }, 
    {
      "latmax": 50.969438913402755, 
      "name": "Domstraat", 
      "lonmin": 3.143104159574614, 
      "sanName": "domstraat", 
      "numOfAddr": 3, 
      "lonmax": 3.143534973564507, 
      "latmin": 50.96925439523344
    }, 
    {
      "latmax": 50.95466816481923, 
      "name": "Doorgangsstraat", 
      "lonmin": 3.125180082181588, 
      "sanName": "doorgangsstraat", 
      "numOfAddr": 13, 
      "lonmax": 3.1256645985865172, 
      "latmin": 50.95419173506461
    }, 
    {
      "latmax": 50.956034406225555, 
      "name": "Drafstraat", 
      "lonmin": 3.122115755165015, 
      "sanName": "drafstraat", 
      "numOfAddr": 15, 
      "lonmax": 3.1236638078988355, 
      "latmin": 50.955299942407386
    }, 
    {
      "latmax": 50.949274259715004, 
      "name": "Druivelaarstraat", 
      "lonmin": 3.1427357714592197, 
      "sanName": "druivelaarstraat", 
      "numOfAddr": 8, 
      "lonmax": 3.1434614558022287, 
      "latmin": 50.94893923450209
    }, 
    {
      "latmax": 50.94980986319213, 
      "name": "D\u0082sir\u0082 Mergaertstraat", 
      "lonmin": 3.1187558265940707, 
      "sanName": "dsirmergaertstraat", 
      "numOfAddr": 21, 
      "lonmax": 3.12045239946737, 
      "latmin": 50.948943184715844
    }, 
    {
      "latmax": 50.96931238364076, 
      "name": "D\u0082sir\u0082 Van de Wallestraat", 
      "lonmin": 3.1340875072586747, 
      "sanName": "dsirvandewallestraat", 
      "numOfAddr": 38, 
      "lonmax": 3.1367477497582996, 
      "latmin": 50.96667256986285
    }, 
    {
      "latmax": 50.91531234320306, 
      "name": "Duivelshoekstraat", 
      "lonmin": 3.104696256204585, 
      "sanName": "duivelshoekstraat", 
      "numOfAddr": 12, 
      "lonmax": 3.107060290758987, 
      "latmin": 50.90923966778208
    }, 
    {
      "latmax": 50.95147167594511, 
      "name": "Duivestraat", 
      "lonmin": 3.1214099149648726, 
      "sanName": "duivestraat", 
      "numOfAddr": 2, 
      "lonmax": 3.1241937641606325, 
      "latmin": 50.949931338183
    }, 
    {
      "latmax": 50.99105029674623, 
      "name": "Duivigestraat", 
      "lonmin": 3.1459891725529965, 
      "sanName": "duivigestraat", 
      "numOfAddr": 28, 
      "lonmax": 3.162269199953018, 
      "latmin": 50.987977552873765
    }, 
    {
      "latmax": 50.89184276525238, 
      "name": "Duizendzinnenstraat", 
      "lonmin": 3.128429372282909, 
      "sanName": "duizendzinnenstraat", 
      "numOfAddr": 18, 
      "lonmax": 3.1427890783187866, 
      "latmin": 50.889940370982664
    }, 
    {
      "latmax": 50.98366849858399, 
      "name": "Dwarsweg", 
      "lonmin": 3.124003881644662, 
      "sanName": "dwarsweg", 
      "numOfAddr": 3, 
      "lonmax": 3.1288980411966953, 
      "latmin": 50.98236087512974
    }, 
    {
      "latmax": 50.93524916086698, 
      "name": "Dweersstraat", 
      "lonmin": 3.1566009112380042, 
      "sanName": "dweersstraat", 
      "numOfAddr": 19, 
      "lonmax": 3.157593571628747, 
      "latmin": 50.93437550362578
    }, 
    {
      "latmax": 50.9586270843527, 
      "name": "Edmond De Leyestraat", 
      "lonmin": 3.1024789511097772, 
      "sanName": "edmonddeleyestraat", 
      "numOfAddr": 42, 
      "lonmax": 3.1046555562224594, 
      "latmin": 50.95685218378786
    }, 
    {
      "latmax": 50.92888135009982, 
      "name": "Edmond Van der Scheldenstraat", 
      "lonmin": 3.1677178624035554, 
      "sanName": "edmondvanderscheldenstraat", 
      "numOfAddr": 33, 
      "lonmax": 3.1712694444549556, 
      "latmin": 50.9266563937098
    }, 
    {
      "latmax": 50.937359596855735, 
      "name": "Eikstraat", 
      "lonmin": 3.109861201712464, 
      "sanName": "eikstraat", 
      "numOfAddr": 46, 
      "lonmax": 3.111631216812872, 
      "latmin": 50.93459861966485
    }, 
    {
      "latmax": 50.9548421372495, 
      "name": "Eksaardestraat", 
      "lonmin": 3.1331275358661186, 
      "sanName": "eksaardestraat", 
      "numOfAddr": 70, 
      "lonmax": 3.135697794793825, 
      "latmin": 50.95283269087505
    }, 
    {
      "latmax": 50.952310928054445, 
      "name": "Elf-Novemberstraat", 
      "lonmin": 3.132381592776242, 
      "sanName": "elfnovemberstraat", 
      "numOfAddr": 14, 
      "lonmax": 3.133273881891171, 
      "latmin": 50.95164411033665
    }, 
    {
      "latmax": 50.957431507352, 
      "name": "Elsbergestraat", 
      "lonmin": 3.1339791769526935, 
      "sanName": "elsbergestraat", 
      "numOfAddr": 22, 
      "lonmax": 3.135629736215103, 
      "latmin": 50.95524652988621
    }, 
    {
      "latmax": 50.93493647711001, 
      "name": "Elzenstraat", 
      "lonmin": 3.107360584119317, 
      "sanName": "elzenstraat", 
      "numOfAddr": 12, 
      "lonmax": 3.108198713850729, 
      "latmin": 50.93412340618034
    }, 
    {
      "latmax": 50.93400063959979, 
      "name": "Esdoornstraat", 
      "lonmin": 3.108704075276572, 
      "sanName": "esdoornstraat", 
      "numOfAddr": 15, 
      "lonmax": 3.1100194025250936, 
      "latmin": 50.933455046817286
    }, 
    {
      "latmax": 50.933885540367875, 
      "name": "Essenstraat", 
      "lonmin": 3.1077573821330313, 
      "sanName": "essenstraat", 
      "numOfAddr": 10, 
      "lonmax": 3.1085245358435727, 
      "latmin": 50.933232150225585
    }, 
    {
      "latmax": 50.937570868300966, 
      "name": "Eugeen Van Oyestraat", 
      "lonmin": 3.1463075031496244, 
      "sanName": "eugeenvanoyestraat", 
      "numOfAddr": 7, 
      "lonmax": 3.148141442677688, 
      "latmin": 50.936737246378065
    }, 
    {
      "latmax": 50.95245379335038, 
      "name": "Fabrieksstraat", 
      "lonmin": 3.1351177291364127, 
      "sanName": "fabrieksstraat", 
      "numOfAddr": 39, 
      "lonmax": 3.136604431416167, 
      "latmin": 50.95120130988203
    }, 
    {
      "latmax": 50.96281612826742, 
      "name": "Fazantendreef", 
      "lonmin": 3.1122192648543825, 
      "sanName": "fazantendreef", 
      "numOfAddr": 19, 
      "lonmax": 3.1133110505351196, 
      "latmin": 50.96156444825409
    }, 
    {
      "latmax": 50.93900202524031, 
      "name": "Fierheidstraat", 
      "lonmin": 3.104544826664152, 
      "sanName": "fierheidstraat", 
      "numOfAddr": 39, 
      "lonmax": 3.10595898309682, 
      "latmin": 50.93750044072365
    }, 
    {
      "latmax": 50.951443338281905, 
      "name": "Flandriastraat", 
      "lonmin": 3.147438142136015, 
      "sanName": "flandriastraat", 
      "numOfAddr": 19, 
      "lonmax": 3.148656142955595, 
      "latmin": 50.950658337717584
    }, 
    {
      "latmax": 50.986870525925234, 
      "name": "Foncierstraat", 
      "lonmin": 3.1310461345851905, 
      "sanName": "foncierstraat", 
      "numOfAddr": 7, 
      "lonmax": 3.1336358868313976, 
      "latmin": 50.98140081008173
    }, 
    {
      "latmax": 50.94682523199342, 
      "name": "Fortuinstraat", 
      "lonmin": 3.133797021246823, 
      "sanName": "fortuinstraat", 
      "numOfAddr": 3, 
      "lonmax": 3.1339093852522732, 
      "latmin": 50.94656314791985
    }, 
    {
      "latmax": 50.95101867351937, 
      "name": "Gaaipersstraat", 
      "lonmin": 3.118392308417639, 
      "sanName": "gaaipersstraat", 
      "numOfAddr": 27, 
      "lonmax": 3.1195411053357462, 
      "latmin": 50.95013713959937
    }, 
    {
      "latmax": 50.905179992104706, 
      "name": "Gabri\u0089lstraat", 
      "lonmin": 3.1284610715284322, 
      "sanName": "gabrilstraat", 
      "numOfAddr": 17, 
      "lonmax": 3.1334989795114714, 
      "latmin": 50.891312436775316
    }, 
    {
      "latmax": 50.90059666491645, 
      "name": "Galgestraat", 
      "lonmin": 3.104174493365162, 
      "sanName": "galgestraat", 
      "numOfAddr": 15, 
      "lonmax": 3.1135734091026435, 
      "latmin": 50.8950243567791
    }, 
    {
      "latmax": 50.91992762039971, 
      "name": "Gareelstraat", 
      "lonmin": 3.1577588664905796, 
      "sanName": "gareelstraat", 
      "numOfAddr": 21, 
      "lonmax": 3.1588995064438397, 
      "latmin": 50.91846882948686
    }, 
    {
      "latmax": 50.94827788711318, 
      "name": "Garenstraat", 
      "lonmin": 3.126565414629003, 
      "sanName": "garenstraat", 
      "numOfAddr": 12, 
      "lonmax": 3.128229778180165, 
      "latmin": 50.94775661146515
    }, 
    {
      "latmax": 50.946900244294945, 
      "name": "Gasstraat", 
      "lonmin": 3.130381522661018, 
      "sanName": "gasstraat", 
      "numOfAddr": 6, 
      "lonmax": 3.1307279732872217, 
      "latmin": 50.946418135646304
    }, 
    {
      "latmax": 50.952049427529566, 
      "name": "Gasthuisstraat", 
      "lonmin": 3.1255469592829557, 
      "sanName": "gasthuisstraat", 
      "numOfAddr": 5, 
      "lonmax": 3.1257347935621773, 
      "latmin": 50.951836180557
    }, 
    {
      "latmax": 50.924315101531185, 
      "name": "Gaston Vallaeysstraat", 
      "lonmin": 3.1610260310183227, 
      "sanName": "gastonvallaeysstraat", 
      "numOfAddr": 41, 
      "lonmax": 3.1626089460490596, 
      "latmin": 50.922897397365475
    }, 
    {
      "latmax": 50.92921966844436, 
      "name": "Gebroeders van Raemdonckstraat", 
      "lonmin": 3.1651466281769878, 
      "sanName": "gebroedersvanraemdonckstraat", 
      "numOfAddr": 23, 
      "lonmax": 3.1668841346944294, 
      "latmin": 50.92817552118856
    }, 
    {
      "latmax": 50.95070370292302, 
      "name": "Geelstraat", 
      "lonmin": 3.139195126974592, 
      "sanName": "geelstraat", 
      "numOfAddr": 14, 
      "lonmax": 3.1402333559395816, 
      "latmin": 50.95023322924799
    }, 
    {
      "latmax": 50.920897174831, 
      "name": "Gentstraat", 
      "lonmin": 3.116973331577778, 
      "sanName": "gentstraat", 
      "numOfAddr": 37, 
      "lonmax": 3.121319850790032, 
      "latmin": 50.913798483243724
    }, 
    {
      "latmax": 50.94868630685423, 
      "name": "Germain Hoetstraat", 
      "lonmin": 3.1388435718374987, 
      "sanName": "germainhoetstraat", 
      "numOfAddr": 30, 
      "lonmax": 3.140240552376616, 
      "latmin": 50.948111010080254
    }, 
    {
      "latmax": 50.96272850069454, 
      "name": "Getouwstraat", 
      "lonmin": 3.1155831500098534, 
      "sanName": "getouwstraat", 
      "numOfAddr": 36, 
      "lonmax": 3.1164587810758255, 
      "latmin": 50.96097273320354
    }, 
    {
      "latmax": 50.94608875678044, 
      "name": "Gieterijstraat", 
      "lonmin": 3.134984768598261, 
      "sanName": "gieterijstraat", 
      "numOfAddr": 11, 
      "lonmax": 3.135925427254847, 
      "latmin": 50.94537045930248
    }, 
    {
      "latmax": 50.97633794349481, 
      "name": "Gitsbergstraat", 
      "lonmin": 3.1307456087520587, 
      "sanName": "gitsbergstraat", 
      "numOfAddr": 6, 
      "lonmax": 3.133118393137785, 
      "latmin": 50.9757063567579
    }, 
    {
      "latmax": 50.975325379165156, 
      "name": "Gitsestraat", 
      "lonmin": 3.1132051665016314, 
      "sanName": "gitsestraat", 
      "numOfAddr": 338, 
      "lonmax": 3.1199494882746586, 
      "latmin": 50.95181149078877
    }, 
    {
      "latmax": 50.94097417459142, 
      "name": "Gladiolenstraat", 
      "lonmin": 3.1303323410074175, 
      "sanName": "gladiolenstraat", 
      "numOfAddr": 23, 
      "lonmax": 3.132405554146923, 
      "latmin": 50.940149419068334
    }, 
    {
      "latmax": 50.95378132401325, 
      "name": "Glazeniersstraat", 
      "lonmin": 3.1069616030448834, 
      "sanName": "glazeniersstraat", 
      "numOfAddr": 43, 
      "lonmax": 3.1105911432646405, 
      "latmin": 50.95202206494294
    }, 
    {
      "latmax": 50.95787760476057, 
      "name": "Godshuislaan", 
      "lonmin": 3.1219356442504536, 
      "sanName": "godshuislaan", 
      "numOfAddr": 45, 
      "lonmax": 3.1262234245959823, 
      "latmin": 50.95661657567675
    }, 
    {
      "latmax": 50.934447212714886, 
      "name": "Goudenregenstraat", 
      "lonmin": 3.1091104302032164, 
      "sanName": "goudenregenstraat", 
      "numOfAddr": 7, 
      "lonmax": 3.1097041615129424, 
      "latmin": 50.93409436740986
    }, 
    {
      "latmax": 50.92606933845575, 
      "name": "Graaf de Limburg Stirumlaan", 
      "lonmin": 3.140243165509498, 
      "sanName": "graafdelimburgstirumlaan", 
      "numOfAddr": 22, 
      "lonmax": 3.1448743217919928, 
      "latmin": 50.924394171058545
    }, 
    {
      "latmax": 50.927231953739714, 
      "name": "Graaf de Thienneslaan", 
      "lonmin": 3.140187429076998, 
      "sanName": "graafdethienneslaan", 
      "numOfAddr": 10, 
      "lonmax": 3.1411919021496923, 
      "latmin": 50.92488254097246
    }, 
    {
      "latmax": 50.93089546567727, 
      "name": "Graafschapsstraat", 
      "lonmin": 3.134969662790013, 
      "sanName": "graafschapsstraat", 
      "numOfAddr": 23, 
      "lonmax": 3.1372861204903555, 
      "latmin": 50.93041207516597
    }, 
    {
      "latmax": 50.946215702688384, 
      "name": "Graankaai", 
      "lonmin": 3.153667072804582, 
      "sanName": "graankaai", 
      "numOfAddr": 5, 
      "lonmax": 3.1619138730746124, 
      "latmin": 50.94256806576587
    }, 
    {
      "latmax": 50.92733502383071, 
      "name": "Gravin Judithstraat", 
      "lonmin": 3.127556408515126, 
      "sanName": "gravinjudithstraat", 
      "numOfAddr": 11, 
      "lonmax": 3.1284165683453757, 
      "latmin": 50.926057657917774
    }, 
    {
      "latmax": 50.92435415793363, 
      "name": "Grenadiersstraat", 
      "lonmin": 3.140023315539848, 
      "sanName": "grenadiersstraat", 
      "numOfAddr": 25, 
      "lonmax": 3.1448781094323075, 
      "latmin": 50.92293950780991
    }, 
    {
      "latmax": 50.9362875148623, 
      "name": "Groene-Herdersgoed", 
      "lonmin": 3.1426765480434087, 
      "sanName": "groeneherdersgoed", 
      "numOfAddr": 2, 
      "lonmax": 3.1435552147938703, 
      "latmin": 50.9361051773444
    }, 
    {
      "latmax": 50.93731294645512, 
      "name": "Groene-Herderstraat", 
      "lonmin": 3.139447465828534, 
      "sanName": "groeneherderstraat", 
      "numOfAddr": 126, 
      "lonmax": 3.1418536285849092, 
      "latmin": 50.92983001696099
    }, 
    {
      "latmax": 50.94553529258649, 
      "name": "Groenestraat", 
      "lonmin": 3.0797219802676477, 
      "sanName": "groenestraat", 
      "numOfAddr": 296, 
      "lonmax": 3.1189465331256234, 
      "latmin": 50.932127965369894
    }, 
    {
      "latmax": 50.93786352440881, 
      "name": "Groeningestraat", 
      "lonmin": 3.135435646404348, 
      "sanName": "groeningestraat", 
      "numOfAddr": 8, 
      "lonmax": 3.1361521711729496, 
      "latmin": 50.93711067851202
    }, 
    {
      "latmax": 50.965118996611864, 
      "name": "Groothofstraat", 
      "lonmin": 3.135443991296109, 
      "sanName": "groothofstraat", 
      "numOfAddr": 52, 
      "lonmax": 3.13798077491695, 
      "latmin": 50.963378270182524
    }, 
    {
      "latmax": 50.95239491541566, 
      "name": "Grote-Bassinstraat", 
      "lonmin": 3.1145915941679805, 
      "sanName": "grotebassinstraat", 
      "numOfAddr": 24, 
      "lonmax": 3.116402191418179, 
      "latmin": 50.951696586184134
    }, 
    {
      "latmax": 50.945766302622715, 
      "name": "Grote Markt", 
      "lonmin": 3.1233392589331648, 
      "sanName": "grotemarkt", 
      "numOfAddr": 28, 
      "lonmax": 3.1253078647972905, 
      "latmin": 50.94442921971627
    }, 
    {
      "latmax": 50.91906225355888, 
      "name": "Gruyaertshof", 
      "lonmin": 3.117763216786124, 
      "sanName": "gruyaertshof", 
      "numOfAddr": 11, 
      "lonmax": 3.119255463004047, 
      "latmin": 50.91753535299289
    }, 
    {
      "latmax": 50.9598728673198, 
      "name": "Gryspeerdts Hof", 
      "lonmin": 3.118609763603508, 
      "sanName": "gryspeerdtshof", 
      "numOfAddr": 15, 
      "lonmax": 3.120538341156775, 
      "latmin": 50.958267122774814
    }, 
    {
      "latmax": 50.93681493872225, 
      "name": "Gudrunplein", 
      "lonmin": 3.1325838264153374, 
      "sanName": "gudrunplein", 
      "numOfAddr": 1, 
      "lonmax": 3.1325838264153374, 
      "latmin": 50.93681493872225
    }, 
    {
      "latmax": 50.94276152620857, 
      "name": "Guido Gezellelaan", 
      "lonmin": 3.1343926929049633, 
      "sanName": "guidogezellelaan", 
      "numOfAddr": 60, 
      "lonmax": 3.15390148211319, 
      "latmin": 50.93635846138099
    }, 
    {
      "latmax": 50.93722836406002, 
      "name": "Gulden-Sporenstraat", 
      "lonmin": 3.133801948904784, 
      "sanName": "guldensporenstraat", 
      "numOfAddr": 12, 
      "lonmax": 3.136921274171448, 
      "latmin": 50.93659503653062
    }, 
    {
      "latmax": 50.96014295180517, 
      "name": "Haakwegel", 
      "lonmin": 3.1064531849194017, 
      "sanName": "haakwegel", 
      "numOfAddr": 20, 
      "lonmax": 3.107852243920421, 
      "latmin": 50.959080552926906
    }, 
    {
      "latmax": 50.963043246865766, 
      "name": "Hadewijchstraat", 
      "lonmin": 3.127375425291407, 
      "sanName": "hadewijchstraat", 
      "numOfAddr": 9, 
      "lonmax": 3.128625739433746, 
      "latmin": 50.962390939548406
    }, 
    {
      "latmax": 50.935480412360164, 
      "name": "Hagedoornstraat", 
      "lonmin": 3.1080150141042573, 
      "sanName": "hagedoornstraat", 
      "numOfAddr": 24, 
      "lonmax": 3.109396534947863, 
      "latmin": 50.93431791359595
    }, 
    {
      "latmax": 50.986415622059695, 
      "name": "Hagedoornweg", 
      "lonmin": 3.15622425593285, 
      "sanName": "hagedoornweg", 
      "numOfAddr": 2, 
      "lonmax": 3.1569270356178083, 
      "latmin": 50.98599159194126
    }, 
    {
      "latmax": 50.95946641712079, 
      "name": "Hagewegel", 
      "lonmin": 3.1078971578127557, 
      "sanName": "hagewegel", 
      "numOfAddr": 17, 
      "lonmax": 3.1090522825480953, 
      "latmin": 50.958386032196394
    }, 
    {
      "latmax": 50.95316221255539, 
      "name": "Hammestraat", 
      "lonmin": 3.132962591577646, 
      "sanName": "hammestraat", 
      "numOfAddr": 58, 
      "lonmax": 3.1363239910333087, 
      "latmin": 50.951262939103835
    }, 
    {
      "latmax": 50.95232809608936, 
      "name": "Handboogstraat", 
      "lonmin": 3.117000038719713, 
      "sanName": "handboogstraat", 
      "numOfAddr": 32, 
      "lonmax": 3.1182458992575928, 
      "latmin": 50.9518930422588
    }, 
    {
      "latmax": 50.95667014604111, 
      "name": "Handelsstraat", 
      "lonmin": 3.123377930907154, 
      "sanName": "handelsstraat", 
      "numOfAddr": 21, 
      "lonmax": 3.1250237905703706, 
      "latmin": 50.9531235025498
    }, 
    {
      "latmax": 50.9262083784201, 
      "name": "Hans Memlingstraat", 
      "lonmin": 3.1600191767041736, 
      "sanName": "hansmemlingstraat", 
      "numOfAddr": 36, 
      "lonmax": 3.1627987055095095, 
      "latmin": 50.92504608779935
    }, 
    {
      "latmax": 50.93460227733803, 
      "name": "Happestraat", 
      "lonmin": 3.1143860872166274, 
      "sanName": "happestraat", 
      "numOfAddr": 28, 
      "lonmax": 3.1155585137972146, 
      "latmin": 50.93360651515207
    }, 
    {
      "latmax": 50.941610345207195, 
      "name": "Havenstraat", 
      "lonmin": 3.1448050062074184, 
      "sanName": "havenstraat", 
      "numOfAddr": 43, 
      "lonmax": 3.1474021526299443, 
      "latmin": 50.93962026250003
    }, 
    {
      "latmax": 50.94357887690444, 
      "name": "Haverstraat", 
      "lonmin": 3.1120269291193767, 
      "sanName": "haverstraat", 
      "numOfAddr": 16, 
      "lonmax": 3.1126454949258355, 
      "latmin": 50.94244008130347
    }, 
    {
      "latmax": 50.92585463510729, 
      "name": "Hazegoedweg", 
      "lonmin": 3.098739450167932, 
      "sanName": "hazegoedweg", 
      "numOfAddr": 27, 
      "lonmax": 3.110205009903364, 
      "latmin": 50.91763656986075
    }, 
    {
      "latmax": 50.98867594063663, 
      "name": "Hazelstraat", 
      "lonmin": 3.1585569395461492, 
      "sanName": "hazelstraat", 
      "numOfAddr": 33, 
      "lonmax": 3.1608210293618124, 
      "latmin": 50.986777428750564
    }, 
    {
      "latmax": 50.98878697004665, 
      "name": "Heidestraat", 
      "lonmin": 3.156989981408287, 
      "sanName": "heidestraat", 
      "numOfAddr": 39, 
      "lonmax": 3.1597389593712553, 
      "latmin": 50.9857005979996
    }, 
    {
      "latmax": 50.96793646859285, 
      "name": "Heilige-Donatusstraat", 
      "lonmin": 3.146220663897238, 
      "sanName": "heiligedonatusstraat", 
      "numOfAddr": 5, 
      "lonmax": 3.1468465843283284, 
      "latmin": 50.96764041855402
    }, 
    {
      "latmax": 50.93632680183991, 
      "name": "Heilig-Hartstraat", 
      "lonmin": 3.1213132483271804, 
      "sanName": "heilighartstraat", 
      "numOfAddr": 42, 
      "lonmax": 3.1247989629577666, 
      "latmin": 50.934911572867236
    }, 
    {
      "latmax": 50.96854758025751, 
      "name": "Heilig-Kruisplein", 
      "lonmin": 3.145766318631645, 
      "sanName": "heiligkruisplein", 
      "numOfAddr": 11, 
      "lonmax": 3.1465445064553417, 
      "latmin": 50.96787061437633
    }, 
    {
      "latmax": 50.99099930378704, 
      "name": "Heirweg", 
      "lonmin": 3.1443422327258657, 
      "sanName": "heirweg", 
      "numOfAddr": 181, 
      "lonmax": 3.1666163663980353, 
      "latmin": 50.973314189300766
    }, 
    {
      "latmax": 50.975886327265776, 
      "name": "Heirwegmeers", 
      "lonmin": 3.1446828864504495, 
      "sanName": "heirwegmeers", 
      "numOfAddr": 18, 
      "lonmax": 3.1458235991592765, 
      "latmin": 50.97502651216315
    }, 
    {
      "latmax": 50.96128031217735, 
      "name": "Hellestraat", 
      "lonmin": 3.0836752922683517, 
      "sanName": "hellestraat", 
      "numOfAddr": 30, 
      "lonmax": 3.0897976927116098, 
      "latmin": 50.956433499736555
    }, 
    {
      "latmax": 50.94927859635659, 
      "name": "Hendrik Consciencestraat", 
      "lonmin": 3.1244274036100443, 
      "sanName": "hendrikconsciencestraat", 
      "numOfAddr": 53, 
      "lonmax": 3.129108168662149, 
      "latmin": 50.94774014108177
    }, 
    {
      "latmax": 50.94835265975895, 
      "name": "Henri Horriestraat", 
      "lonmin": 3.1235837511928164, 
      "sanName": "henrihorriestraat", 
      "numOfAddr": 40, 
      "lonmax": 3.1259195207064487, 
      "latmin": 50.946415267486074
    }, 
    {
      "latmax": 50.972372166299905, 
      "name": "Henri Jonckheerestraat", 
      "lonmin": 3.1460279694143085, 
      "sanName": "henrijonckheerestraat", 
      "numOfAddr": 13, 
      "lonmax": 3.1504429028779257, 
      "latmin": 50.96971879301846
    }, 
    {
      "latmax": 50.94200855350438, 
      "name": "Herdersstraat", 
      "lonmin": 3.141288211814643, 
      "sanName": "herdersstraat", 
      "numOfAddr": 91, 
      "lonmax": 3.1456930477834386, 
      "latmin": 50.93766176255162
    }, 
    {
      "latmax": 50.95536828451529, 
      "name": "Herentalslaan", 
      "lonmin": 3.1317527429855287, 
      "sanName": "herentalslaan", 
      "numOfAddr": 40, 
      "lonmax": 3.1335978419042734, 
      "latmin": 50.95463526082658
    }, 
    {
      "latmax": 50.93749150644567, 
      "name": "Heropbouwstraat", 
      "lonmin": 3.1322111042473697, 
      "sanName": "heropbouwstraat", 
      "numOfAddr": 151, 
      "lonmax": 3.1386039888178376, 
      "latmin": 50.9343542734705
    }, 
    {
      "latmax": 50.93143498485722, 
      "name": "Het Gemet", 
      "lonmin": 3.1065879170397563, 
      "sanName": "hetgemet", 
      "numOfAddr": 20, 
      "lonmax": 3.10837466916495, 
      "latmin": 50.930074225188974
    }, 
    {
      "latmax": 50.93566551085033, 
      "name": "Het Seminariegoed", 
      "lonmin": 3.142015848118999, 
      "sanName": "hetseminariegoed", 
      "numOfAddr": 37, 
      "lonmax": 3.1442058019625057, 
      "latmin": 50.933599712253795
    }, 
    {
      "latmax": 50.96159532337797, 
      "name": "Het Speelgoed", 
      "lonmin": 3.131564159207578, 
      "sanName": "hetspeelgoed", 
      "numOfAddr": 21, 
      "lonmax": 3.1327501348701454, 
      "latmin": 50.960717820738935
    }, 
    {
      "latmax": 50.928332265099634, 
      "name": "Heuvelstraat", 
      "lonmin": 3.1189652839867006, 
      "sanName": "heuvelstraat", 
      "numOfAddr": 28, 
      "lonmax": 3.122786499253589, 
      "latmin": 50.9256267966985
    }, 
    {
      "latmax": 50.95590402385809, 
      "name": "Hillestraat", 
      "lonmin": 3.083537170667961, 
      "sanName": "hillestraat", 
      "numOfAddr": 7, 
      "lonmax": 3.08420261395277, 
      "latmin": 50.954708108267766
    }, 
    {
      "latmax": 50.93842445884245, 
      "name": "Hippoliet Spilleboutdreef", 
      "lonmin": 3.121750503905179, 
      "sanName": "hippolietspilleboutdreef", 
      "numOfAddr": 22, 
      "lonmax": 3.12461876268776, 
      "latmin": 50.93624284333493
    }, 
    {
      "latmax": 50.925060165151955, 
      "name": "Hof ter Weze", 
      "lonmin": 3.11842025992841, 
      "sanName": "hofterweze", 
      "numOfAddr": 24, 
      "lonmax": 3.121261083082993, 
      "latmin": 50.922942449909044
    }, 
    {
      "latmax": 50.96698606281362, 
      "name": "Hof van Deynze", 
      "lonmin": 3.1315632248327128, 
      "sanName": "hofvandeynze", 
      "numOfAddr": 30, 
      "lonmax": 3.133696896707466, 
      "latmin": 50.96580579495589
    }, 
    {
      "latmax": 50.941050714217106, 
      "name": "Hof van 't Henneken", 
      "lonmin": 3.124285696491119, 
      "sanName": "hofvanthenneken", 
      "numOfAddr": 67, 
      "lonmax": 3.1251735888265255, 
      "latmin": 50.93846224622399
    }, 
    {
      "latmax": 50.928422643071684, 
      "name": "Hoge-Barrierestraat", 
      "lonmin": 3.1141645808302916, 
      "sanName": "hogebarrierestraat", 
      "numOfAddr": 12, 
      "lonmax": 3.1171376445993917, 
      "latmin": 50.9261318691944
    }, 
    {
      "latmax": 50.958785083010575, 
      "name": "Hommelweg", 
      "lonmin": 3.109101547639017, 
      "sanName": "hommelweg", 
      "numOfAddr": 16, 
      "lonmax": 3.1105269664671535, 
      "latmin": 50.95770513020629
    }, 
    {
      "latmax": 50.970002892878895, 
      "name": "Honzebroekstraat", 
      "lonmin": 3.107961169775419, 
      "sanName": "honzebroekstraat", 
      "numOfAddr": 127, 
      "lonmax": 3.117131243678429, 
      "latmin": 50.95867769075893
    }, 
    {
      "latmax": 50.96423396100927, 
      "name": "Hoogleedsesteenweg", 
      "lonmin": 3.0957920326055, 
      "sanName": "hoogleedsesteenweg", 
      "numOfAddr": 277, 
      "lonmax": 3.119804510867144, 
      "latmin": 50.95107206049078
    }, 
    {
      "latmax": 50.93305997504217, 
      "name": "Hoogstraat", 
      "lonmin": 3.1396113630696343, 
      "sanName": "hoogstraat", 
      "numOfAddr": 151, 
      "lonmax": 3.154021545766842, 
      "latmin": 50.929457509983735
    }, 
    {
      "latmax": 50.968277930498374, 
      "name": "Hooistraat", 
      "lonmin": 3.150941080033277, 
      "sanName": "hooistraat", 
      "numOfAddr": 34, 
      "lonmax": 3.166539990140348, 
      "latmin": 50.96126492385935
    }, 
    {
      "latmax": 50.94016098403388, 
      "name": "Hortensiastraat", 
      "lonmin": 3.1377535339299722, 
      "sanName": "hortensiastraat", 
      "numOfAddr": 9, 
      "lonmax": 3.1385839781229463, 
      "latmin": 50.939689355197416
    }, 
    {
      "latmax": 50.88898418066081, 
      "name": "Houtgrachtstraat", 
      "lonmin": 3.1384189843262904, 
      "sanName": "houtgrachtstraat", 
      "numOfAddr": 2, 
      "lonmax": 3.14240034458705, 
      "latmin": 50.888674799205376
    }, 
    {
      "latmax": 50.93545685207408, 
      "name": "Hoveniersstraat", 
      "lonmin": 3.155157930529561, 
      "sanName": "hoveniersstraat", 
      "numOfAddr": 14, 
      "lonmax": 3.156771167300469, 
      "latmin": 50.934802711453536
    }, 
    {
      "latmax": 50.95232902940543, 
      "name": "Hugo Verrieststraat", 
      "lonmin": 3.1214257209568745, 
      "sanName": "hugoverrieststraat", 
      "numOfAddr": 83, 
      "lonmax": 3.125549496181319, 
      "latmin": 50.949133296436074
    }, 
    {
      "latmax": 50.94397098851788, 
      "name": "Huidevetterijstraat", 
      "lonmin": 3.122122858326424, 
      "sanName": "huidevetterijstraat", 
      "numOfAddr": 4, 
      "lonmax": 3.122266360371619, 
      "latmin": 50.943872445317865
    }, 
    {
      "latmax": 50.93189459653048, 
      "name": "Ieperseaardeweg", 
      "lonmin": 3.0732085286299142, 
      "sanName": "ieperseaardeweg", 
      "numOfAddr": 42, 
      "lonmax": 3.0914631302550997, 
      "latmin": 50.92819052947239
    }, 
    {
      "latmax": 50.942733747161675, 
      "name": "Iepersestraat", 
      "lonmin": 3.0916284909740086, 
      "sanName": "iepersestraat", 
      "numOfAddr": 408, 
      "lonmax": 3.1242470827625204, 
      "latmin": 50.929321010724976
    }, 
    {
      "latmax": 50.90364697848665, 
      "name": "Ieperseweg", 
      "lonmin": 3.1153316896431047, 
      "sanName": "ieperseweg", 
      "numOfAddr": 145, 
      "lonmax": 3.172616064403388, 
      "latmin": 50.899472218292146
    }, 
    {
      "latmax": 50.96783997348512, 
      "name": "Ijzerstraat", 
      "lonmin": 3.148877653388286, 
      "sanName": "ijzerstraat", 
      "numOfAddr": 21, 
      "lonmax": 3.15132433794508, 
      "latmin": 50.96580188340793
    }, 
    {
      "latmax": 50.979206117903274, 
      "name": "Industrieweg", 
      "lonmin": 3.123744425729483, 
      "sanName": "industrieweg", 
      "numOfAddr": 45, 
      "lonmax": 3.1322986162257984, 
      "latmin": 50.971611100986046
    }, 
    {
      "latmax": 50.951108726134684, 
      "name": "Infanteriestraat", 
      "lonmin": 3.1070829376298184, 
      "sanName": "infanteriestraat", 
      "numOfAddr": 15, 
      "lonmax": 3.1077867565278883, 
      "latmin": 50.94964372872577
    }, 
    {
      "latmax": 50.93383558856978, 
      "name": "Ittrekapelstraat", 
      "lonmin": 3.1616523608166864, 
      "sanName": "ittrekapelstraat", 
      "numOfAddr": 57, 
      "lonmax": 3.163883598931498, 
      "latmin": 50.93254232976414
    }, 
    {
      "latmax": 50.96827302030275, 
      "name": "Izegemseaardeweg", 
      "lonmin": 3.142003792446822, 
      "sanName": "izegemseaardeweg", 
      "numOfAddr": 117, 
      "lonmax": 3.174170057839647, 
      "latmin": 50.95215170695536
    }, 
    {
      "latmax": 50.93300651792941, 
      "name": "Izegemsestraat", 
      "lonmin": 3.1565946140641175, 
      "sanName": "izegemsestraat", 
      "numOfAddr": 118, 
      "lonmax": 3.1722811615994937, 
      "latmin": 50.930215270496255
    }, 
    {
      "latmax": 50.92768819622117, 
      "name": "Jachthoornstraat", 
      "lonmin": 3.1483339823216685, 
      "sanName": "jachthoornstraat", 
      "numOfAddr": 28, 
      "lonmax": 3.1506590360510707, 
      "latmin": 50.92561517992814
    }, 
    {
      "latmax": 50.967370083088575, 
      "name": "Jacobus Vermanderstraat", 
      "lonmin": 3.1079884456544637, 
      "sanName": "jacobusvermanderstraat", 
      "numOfAddr": 40, 
      "lonmax": 3.1102447528923762, 
      "latmin": 50.966041554466244
    }, 
    {
      "latmax": 50.93868393658825, 
      "name": "Jacob van Arteveldestraat", 
      "lonmin": 3.131886121705601, 
      "sanName": "jacobvanarteveldestraat", 
      "numOfAddr": 15, 
      "lonmax": 3.1329792066067355, 
      "latmin": 50.93620437096577
    }, 
    {
      "latmax": 50.963204621130885, 
      "name": "Jacob van Maerlantlaan", 
      "lonmin": 3.1282253563833917, 
      "sanName": "jacobvanmaerlantlaan", 
      "numOfAddr": 34, 
      "lonmax": 3.1332766109722514, 
      "latmin": 50.96126979550319
    }, 
    {
      "latmax": 50.909867886242516, 
      "name": "Jakenshof", 
      "lonmin": 3.165022587595878, 
      "sanName": "jakenshof", 
      "numOfAddr": 2, 
      "lonmax": 3.1659333594511243, 
      "latmin": 50.909688818205986
    }, 
    {
      "latmax": 50.9254162609327, 
      "name": "James Ensorstraat", 
      "lonmin": 3.158299480484712, 
      "sanName": "jamesensorstraat", 
      "numOfAddr": 39, 
      "lonmax": 3.159918456724445, 
      "latmin": 50.924294661591254
    }, 
    {
      "latmax": 50.937886589796776, 
      "name": "Jan Breydelstraat", 
      "lonmin": 3.1344324261396377, 
      "sanName": "janbreydelstraat", 
      "numOfAddr": 7, 
      "lonmax": 3.1350470834506177, 
      "latmin": 50.93733373069433
    }, 
    {
      "latmax": 50.96403651292144, 
      "name": "Jan Deweertstraat", 
      "lonmin": 3.1272223878444083, 
      "sanName": "jandeweertstraat", 
      "numOfAddr": 8, 
      "lonmax": 3.1280348064003203, 
      "latmin": 50.96343621097846
    }, 
    {
      "latmax": 50.93933275542772, 
      "name": "Jan Hijoensstraat", 
      "lonmin": 3.10304665883186, 
      "sanName": "janhijoensstraat", 
      "numOfAddr": 34, 
      "lonmax": 3.104588210257196, 
      "latmin": 50.93753281587602
    }, 
    {
      "latmax": 50.94875448447758, 
      "name": "Jan Mahieustraat", 
      "lonmin": 3.125494490627926, 
      "sanName": "janmahieustraat", 
      "numOfAddr": 36, 
      "lonmax": 3.1274796554344437, 
      "latmin": 50.94708173706849
    }, 
    {
      "latmax": 50.96378046562098, 
      "name": "Jan van Boendalestraat", 
      "lonmin": 3.1291158797098078, 
      "sanName": "janvanboendalestraat", 
      "numOfAddr": 5, 
      "lonmax": 3.1298122566790685, 
      "latmin": 50.96333194691425
    }, 
    {
      "latmax": 50.92694654662392, 
      "name": "Jan Van Eyckstraat", 
      "lonmin": 3.1580896782689134, 
      "sanName": "janvaneyckstraat", 
      "numOfAddr": 28, 
      "lonmax": 3.159702379865244, 
      "latmin": 50.925823940213256
    }, 
    {
      "latmax": 50.96472811496563, 
      "name": "Jan van Ruusbroecstraat", 
      "lonmin": 3.127697905781297, 
      "sanName": "janvanruusbroecstraat", 
      "numOfAddr": 23, 
      "lonmax": 3.1306429184485443, 
      "latmin": 50.962432466710645
    }, 
    {
      "latmax": 50.952272853026145, 
      "name": "Jean-Pierre Monser\u0082straat", 
      "lonmin": 3.14414537926535, 
      "sanName": "jeanpierremonserstraat", 
      "numOfAddr": 61, 
      "lonmax": 3.14699559238563, 
      "latmin": 50.950048543147574
    }, 
    {
      "latmax": 50.946751154025165, 
      "name": "Jezu\u008betengoed", 
      "lonmin": 3.1090472861605485, 
      "sanName": "jezuetengoed", 
      "numOfAddr": 50, 
      "lonmax": 3.111217703930466, 
      "latmin": 50.94565678099153
    }, 
    {
      "latmax": 50.96923873506314, 
      "name": "Joannes Vande Ginstestraat", 
      "lonmin": 3.135818300361497, 
      "sanName": "joannesvandeginstestraat", 
      "numOfAddr": 18, 
      "lonmax": 3.1375075589717087, 
      "latmin": 50.96812141976278
    }, 
    {
      "latmax": 50.93006778875365, 
      "name": "Joe Englishstraat", 
      "lonmin": 3.161172080505786, 
      "sanName": "joeenglishstraat", 
      "numOfAddr": 60, 
      "lonmax": 3.1668561254171657, 
      "latmin": 50.928625112872545
    }, 
    {
      "latmax": 50.96413768797582, 
      "name": "Jonkersstraat", 
      "lonmin": 3.1345890334675373, 
      "sanName": "jonkersstraat", 
      "numOfAddr": 132, 
      "lonmax": 3.141357310875707, 
      "latmin": 50.96209435928903
    }, 
    {
      "latmax": 50.96807123061261, 
      "name": "Joseph Denolfstraat", 
      "lonmin": 3.1078431277026053, 
      "sanName": "josephdenolfstraat", 
      "numOfAddr": 20, 
      "lonmax": 3.1096698043030515, 
      "latmin": 50.96702325258492
    }, 
    {
      "latmax": 50.933176183592494, 
      "name": "Joseph Hanoullestraat", 
      "lonmin": 3.1304093776408193, 
      "sanName": "josephhanoullestraat", 
      "numOfAddr": 14, 
      "lonmax": 3.1312887169585872, 
      "latmin": 50.93265376406925
    }, 
    {
      "latmax": 50.932260376014135, 
      "name": "Jozef Delbaerestraat", 
      "lonmin": 3.146275200535076, 
      "sanName": "jozefdelbaerestraat", 
      "numOfAddr": 32, 
      "lonmax": 3.147946440505382, 
      "latmin": 50.931450069620965
    }, 
    {
      "latmax": 50.93895822233819, 
      "name": "Jozef De Meesterstraat", 
      "lonmin": 3.1233485596323236, 
      "sanName": "jozefdemeesterstraat", 
      "numOfAddr": 13, 
      "lonmax": 3.124374592544421, 
      "latmin": 50.938844653867584
    }, 
    {
      "latmax": 50.96870517827404, 
      "name": "Jozef Lievensstraat", 
      "lonmin": 3.1344805341903568, 
      "sanName": "jozeflievensstraat", 
      "numOfAddr": 19, 
      "lonmax": 3.135720270769448, 
      "latmin": 50.96721347631054
    }, 
    {
      "latmax": 50.94856454999817, 
      "name": "Juffrouw Lamotestraat", 
      "lonmin": 3.1145510536994414, 
      "sanName": "juffrouwlamotestraat", 
      "numOfAddr": 41, 
      "lonmax": 3.1165393277905666, 
      "latmin": 50.94730036065001
    }, 
    {
      "latmax": 50.92959730854308, 
      "name": "Jules Dessauvagestraat", 
      "lonmin": 3.1686617859357393, 
      "sanName": "julesdessauvagestraat", 
      "numOfAddr": 35, 
      "lonmax": 3.172375461197891, 
      "latmin": 50.92845127341374
    }, 
    {
      "latmax": 50.94854885792815, 
      "name": "Jules Lagaelaan", 
      "lonmin": 3.1312209789519017, 
      "sanName": "juleslagaelaan", 
      "numOfAddr": 18, 
      "lonmax": 3.1324372812533543, 
      "latmin": 50.94593143116083
    }, 
    {
      "latmax": 50.950029520026625, 
      "name": "Jutestraat", 
      "lonmin": 3.137999194639593, 
      "sanName": "jutestraat", 
      "numOfAddr": 3, 
      "lonmax": 3.1385190851586975, 
      "latmin": 50.949829617380146
    }, 
    {
      "latmax": 50.94593621690227, 
      "name": "Kaaistraat", 
      "lonmin": 3.1324867027998584, 
      "sanName": "kaaistraat", 
      "numOfAddr": 27, 
      "lonmax": 3.1441964075790447, 
      "latmin": 50.94286689571896
    }, 
    {
      "latmax": 50.967157140763895, 
      "name": "Kaaskerkestraat", 
      "lonmin": 3.148120994121661, 
      "sanName": "kaaskerkestraat", 
      "numOfAddr": 22, 
      "lonmax": 3.1493813658941843, 
      "latmin": 50.96650976129323
    }, 
    {
      "latmax": 50.929181715384175, 
      "name": "Kaasterstraat", 
      "lonmin": 3.1399834985124198, 
      "sanName": "kaasterstraat", 
      "numOfAddr": 33, 
      "lonmax": 3.1472294209990177, 
      "latmin": 50.92217278180848
    }, 
    {
      "latmax": 50.94783249606128, 
      "name": "Kachtemsestraat", 
      "lonmin": 3.1456874057669064, 
      "sanName": "kachtemsestraat", 
      "numOfAddr": 104, 
      "lonmax": 3.172620362396233, 
      "latmin": 50.942435623185446
    }, 
    {
      "latmax": 50.95080451015319, 
      "name": "Kalkenstraat", 
      "lonmin": 3.143375224330591, 
      "sanName": "kalkenstraat", 
      "numOfAddr": 52, 
      "lonmax": 3.1467232119461377, 
      "latmin": 50.94879568787533
    }, 
    {
      "latmax": 50.951841574460815, 
      "name": "Kampioenstraat", 
      "lonmin": 3.1462928255810465, 
      "sanName": "kampioenstraat", 
      "numOfAddr": 23, 
      "lonmax": 3.147431877403031, 
      "latmin": 50.95083782717975
    }, 
    {
      "latmax": 50.9133424248105, 
      "name": "Kantinestraat", 
      "lonmin": 3.143967352983326, 
      "sanName": "kantinestraat", 
      "numOfAddr": 10, 
      "lonmax": 3.147696810623997, 
      "latmin": 50.89468259323391
    }, 
    {
      "latmax": 50.894382014336486, 
      "name": "Kantwerksterstraat", 
      "lonmin": 3.1186806638594153, 
      "sanName": "kantwerksterstraat", 
      "numOfAddr": 30, 
      "lonmax": 3.120935290720685, 
      "latmin": 50.893178606293475
    }, 
    {
      "latmax": 50.94747898068781, 
      "name": "Kanunnik Duboisstraat", 
      "lonmin": 3.1066210568512074, 
      "sanName": "kanunnikduboisstraat", 
      "numOfAddr": 63, 
      "lonmax": 3.1097797302957852, 
      "latmin": 50.94313124225576
    }, 
    {
      "latmax": 50.99206648754025, 
      "name": "Kapelhoekstraat", 
      "lonmin": 3.1606516785303356, 
      "sanName": "kapelhoekstraat", 
      "numOfAddr": 69, 
      "lonmax": 3.1666663495603578, 
      "latmin": 50.98956126577525
    }, 
    {
      "latmax": 50.960554768627404, 
      "name": "Kapelleweg", 
      "lonmin": 3.1106281293079032, 
      "sanName": "kapelleweg", 
      "numOfAddr": 19, 
      "lonmax": 3.1120526142476117, 
      "latmin": 50.95969334074471
    }, 
    {
      "latmax": 50.92228544963309, 
      "name": "Karabiniersstraat", 
      "lonmin": 3.1069201307892826, 
      "sanName": "karabiniersstraat", 
      "numOfAddr": 53, 
      "lonmax": 3.1165333635398103, 
      "latmin": 50.91962163946429
    }, 
    {
      "latmax": 50.960472539740714, 
      "name": "Kardinaal Cardijnlaan", 
      "lonmin": 3.1350764644867466, 
      "sanName": "kardinaalcardijnlaan", 
      "numOfAddr": 100, 
      "lonmax": 3.138890238632882, 
      "latmin": 50.95484557754153
    }, 
    {
      "latmax": 50.9661432868604, 
      "name": "Karel De Brouckerestraat", 
      "lonmin": 3.108345785822793, 
      "sanName": "kareldebrouckerestraat", 
      "numOfAddr": 28, 
      "lonmax": 3.1106104670061856, 
      "latmin": 50.964960570751536
    }, 
    {
      "latmax": 50.93625947694387, 
      "name": "Karel De Ghelderestraat", 
      "lonmin": 3.1480024870144168, 
      "sanName": "kareldeghelderestraat", 
      "numOfAddr": 10, 
      "lonmax": 3.1495105308342892, 
      "latmin": 50.935333431489944
    }, 
    {
      "latmax": 50.94570766481303, 
      "name": "Karnemelkstraat", 
      "lonmin": 3.1208743832604267, 
      "sanName": "karnemelkstraat", 
      "numOfAddr": 36, 
      "lonmax": 3.122202645285584, 
      "latmin": 50.94478450718512
    }, 
    {
      "latmax": 50.93516884488533, 
      "name": "Kastanjestraat", 
      "lonmin": 3.1151457712932658, 
      "sanName": "kastanjestraat", 
      "numOfAddr": 32, 
      "lonmax": 3.116540177688503, 
      "latmin": 50.93409496093003
    }, 
    {
      "latmax": 50.93686290449292, 
      "name": "Kasteeldreef", 
      "lonmin": 3.128661702332127, 
      "sanName": "kasteeldreef", 
      "numOfAddr": 14, 
      "lonmax": 3.1299008621438067, 
      "latmin": 50.93489053245157
    }, 
    {
      "latmax": 50.91314599924832, 
      "name": "Kasteelhoekstraat", 
      "lonmin": 3.099928499983353, 
      "sanName": "kasteelhoekstraat", 
      "numOfAddr": 4, 
      "lonmax": 3.1007943266788716, 
      "latmin": 50.90900151114976
    }, 
    {
      "latmax": 50.933809332966554, 
      "name": "Kasteelstraat", 
      "lonmin": 3.1290986478812752, 
      "sanName": "kasteelstraat", 
      "numOfAddr": 71, 
      "lonmax": 3.1315042524286603, 
      "latmin": 50.930425608673964
    }, 
    {
      "latmax": 50.961697923454665, 
      "name": "Kasteelwegel", 
      "lonmin": 3.0919742790731797, 
      "sanName": "kasteelwegel", 
      "numOfAddr": 1, 
      "lonmax": 3.0919742790731797, 
      "latmin": 50.961697923454665
    }, 
    {
      "latmax": 50.953093308205645, 
      "name": "Kattenstraat", 
      "lonmin": 3.11623820396224, 
      "sanName": "kattenstraat", 
      "numOfAddr": 177, 
      "lonmax": 3.120794611085869, 
      "latmin": 50.946188466142715
    }, 
    {
      "latmax": 50.97015248392542, 
      "name": "Katteweg", 
      "lonmin": 3.1402704845543514, 
      "sanName": "katteweg", 
      "numOfAddr": 4, 
      "lonmax": 3.14073983479032, 
      "latmin": 50.969684034068976
    }, 
    {
      "latmax": 50.94223358028582, 
      "name": "Kazandstraat", 
      "lonmin": 3.149367889098659, 
      "sanName": "kazandstraat", 
      "numOfAddr": 33, 
      "lonmax": 3.1555785026779057, 
      "latmin": 50.940572986881996
    }, 
    {
      "latmax": 50.92765534245744, 
      "name": "Keizer Karelstraat", 
      "lonmin": 3.1429415454071696, 
      "sanName": "keizerkarelstraat", 
      "numOfAddr": 15, 
      "lonmax": 3.1461322870790918, 
      "latmin": 50.92482320782837
    }, 
    {
      "latmax": 50.94060943177254, 
      "name": "Kempenaarstraat", 
      "lonmin": 3.1536025713822, 
      "sanName": "kempenaarstraat", 
      "numOfAddr": 19, 
      "lonmax": 3.15564964954989, 
      "latmin": 50.94004637528196
    }, 
    {
      "latmax": 50.94069795000179, 
      "name": "Kerelsstraat", 
      "lonmin": 3.1101720306570346, 
      "sanName": "kerelsstraat", 
      "numOfAddr": 10, 
      "lonmax": 3.1115926212086538, 
      "latmin": 50.93982445086404
    }, 
    {
      "latmax": 50.893416142442305, 
      "name": "Kerkhofstraat", 
      "lonmin": 3.1146277731003607, 
      "sanName": "kerkhofstraat", 
      "numOfAddr": 51, 
      "lonmax": 3.121755946451728, 
      "latmin": 50.89112449291996
    }, 
    {
      "latmax": 50.92078391088328, 
      "name": "Kerklaan", 
      "lonmin": 3.1151257680971858, 
      "sanName": "kerklaan", 
      "numOfAddr": 6, 
      "lonmax": 3.1167170071693397, 
      "latmin": 50.92065942353524
    }, 
    {
      "latmax": 50.934190796386495, 
      "name": "Kerkplein", 
      "lonmin": 3.153415032386927, 
      "sanName": "kerkplein", 
      "numOfAddr": 43, 
      "lonmax": 3.156052257192273, 
      "latmin": 50.93282546560098
    }, 
    {
      "latmax": 50.93649645245687, 
      "name": "Kerkstraat", 
      "lonmin": 3.1238331744429804, 
      "sanName": "kerkstraat", 
      "numOfAddr": 16, 
      "lonmax": 3.1249604726224702, 
      "latmin": 50.935401173310446
    }, 
    {
      "latmax": 50.96937935469831, 
      "name": "Kerkstukweg", 
      "lonmin": 3.149079118841406, 
      "sanName": "kerkstukweg", 
      "numOfAddr": 6, 
      "lonmax": 3.1536555568065303, 
      "latmin": 50.96531163150778
    }, 
    {
      "latmax": 50.91956955795057, 
      "name": "Kerkweg", 
      "lonmin": 3.1614081521908513, 
      "sanName": "kerkweg", 
      "numOfAddr": 23, 
      "lonmax": 3.1628296932454134, 
      "latmin": 50.91772487438161
    }, 
    {
      "latmax": 50.94336732507126, 
      "name": "Kermisstraat", 
      "lonmin": 3.117948468890118, 
      "sanName": "kermisstraat", 
      "numOfAddr": 43, 
      "lonmax": 3.1209707624405, 
      "latmin": 50.94236946926208
    }, 
    {
      "latmax": 50.89517533628224, 
      "name": "Kerselaardreef", 
      "lonmin": 3.167021484379679, 
      "sanName": "kerselaardreef", 
      "numOfAddr": 13, 
      "lonmax": 3.1734859729690377, 
      "latmin": 50.89112221318924
    }, 
    {
      "latmax": 50.91870092652723, 
      "name": "Ketsersstraat", 
      "lonmin": 3.1575277052855713, 
      "sanName": "ketsersstraat", 
      "numOfAddr": 20, 
      "lonmax": 3.160186528441828, 
      "latmin": 50.91780587150739
    }, 
    {
      "latmax": 50.94759120436075, 
      "name": "Klaproosstraat", 
      "lonmin": 3.1485448544781196, 
      "sanName": "klaproosstraat", 
      "numOfAddr": 26, 
      "lonmax": 3.150350289032562, 
      "latmin": 50.94682696894921
    }, 
    {
      "latmax": 50.95246474854186, 
      "name": "Klauwaardstraat", 
      "lonmin": 3.1153788832529945, 
      "sanName": "klauwaardstraat", 
      "numOfAddr": 15, 
      "lonmax": 3.116161621732456, 
      "latmin": 50.95203721759219
    }, 
    {
      "latmax": 50.957931561490966, 
      "name": "Kleine Ardooisestraat", 
      "lonmin": 3.1554622202928226, 
      "sanName": "kleineardooisestraat", 
      "numOfAddr": 52, 
      "lonmax": 3.1671562460740144, 
      "latmin": 50.95223345742185
    }, 
    {
      "latmax": 50.95014702002557, 
      "name": "Kleine-Bassinstraat", 
      "lonmin": 3.126544703540583, 
      "sanName": "kleinebassinstraat", 
      "numOfAddr": 16, 
      "lonmax": 3.1279712260754544, 
      "latmin": 50.94882477679362
    }, 
    {
      "latmax": 50.942311603669175, 
      "name": "Kleine Bruanestraat", 
      "lonmin": 3.143648420623655, 
      "sanName": "kleinebruanestraat", 
      "numOfAddr": 38, 
      "lonmax": 3.147244863081286, 
      "latmin": 50.94104390814939
    }, 
    {
      "latmax": 50.95136352281692, 
      "name": "Kleine Kachtemsestraat", 
      "lonmin": 3.168041529986394, 
      "sanName": "kleinekachtemsestraat", 
      "numOfAddr": 18, 
      "lonmax": 3.1738994256679143, 
      "latmin": 50.94537938394372
    }, 
    {
      "latmax": 50.950639394795004, 
      "name": "Kleine Kalkenstraat", 
      "lonmin": 3.1462511441018335, 
      "sanName": "kleinekalkenstraat", 
      "numOfAddr": 27, 
      "lonmax": 3.1481911481097447, 
      "latmin": 50.94970495933541
    }, 
    {
      "latmax": 50.946888751615944, 
      "name": "Kleine Korenbloemstraat", 
      "lonmin": 3.1453450916027057, 
      "sanName": "kleinekorenbloemstraat", 
      "numOfAddr": 11, 
      "lonmax": 3.1463743428481257, 
      "latmin": 50.94652146249266
    }, 
    {
      "latmax": 50.92985182946093, 
      "name": "Kleine Moorsleedsestraat", 
      "lonmin": 3.073197758999148, 
      "sanName": "kleinemoorsleedsestraat", 
      "numOfAddr": 6, 
      "lonmax": 3.0755091757435693, 
      "latmin": 50.92518780124102
    }, 
    {
      "latmax": 50.9383150720794, 
      "name": "Kleine Moststraat", 
      "lonmin": 3.088724793039328, 
      "sanName": "kleinemoststraat", 
      "numOfAddr": 4, 
      "lonmax": 3.090181158331702, 
      "latmin": 50.937240534119105
    }, 
    {
      "latmax": 50.93398308453921, 
      "name": "Kleine Weg", 
      "lonmin": 3.1087301213023295, 
      "sanName": "kleineweg", 
      "numOfAddr": 74, 
      "lonmax": 3.116828062683537, 
      "latmin": 50.92693502923827
    }, 
    {
      "latmax": 50.92209079001811, 
      "name": "Kleine Zilverbergstraat", 
      "lonmin": 3.0991536311268586, 
      "sanName": "kleinezilverbergstraat", 
      "numOfAddr": 6, 
      "lonmax": 3.102970594341921, 
      "latmin": 50.91802764045955
    }, 
    {
      "latmax": 50.91556838920319, 
      "name": "Kleine Zilverstraat", 
      "lonmin": 3.1168987610693675, 
      "sanName": "kleinezilverstraat", 
      "numOfAddr": 6, 
      "lonmax": 3.1176901804435517, 
      "latmin": 50.91482999120293
    }, 
    {
      "latmax": 50.94058075526976, 
      "name": "Klipperstraat", 
      "lonmin": 3.149758922320407, 
      "sanName": "klipperstraat", 
      "numOfAddr": 1, 
      "lonmax": 3.149758922320407, 
      "latmin": 50.94058075526976
    }, 
    {
      "latmax": 50.9670164244511, 
      "name": "Klokkeputstraat", 
      "lonmin": 3.1019688010701936, 
      "sanName": "klokkeputstraat", 
      "numOfAddr": 125, 
      "lonmax": 3.1057065734643126, 
      "latmin": 50.96063549601464
    }, 
    {
      "latmax": 50.939839481912585, 
      "name": "Klokke-Roelandstraat", 
      "lonmin": 3.105125399854129, 
      "sanName": "klokkeroelandstraat", 
      "numOfAddr": 46, 
      "lonmax": 3.108652954809222, 
      "latmin": 50.93868766525543
    }, 
    {
      "latmax": 50.933818043858544, 
      "name": "Kloosterstraat", 
      "lonmin": 3.1501409331641153, 
      "sanName": "kloosterstraat", 
      "numOfAddr": 7, 
      "lonmax": 3.152004230579995, 
      "latmin": 50.93296227270186
    }, 
    {
      "latmax": 50.939601782832305, 
      "name": "Knapenstraat", 
      "lonmin": 3.1100415912359063, 
      "sanName": "knapenstraat", 
      "numOfAddr": 17, 
      "lonmax": 3.1122385239711967, 
      "latmin": 50.938697885783405
    }, 
    {
      "latmax": 50.91958480953455, 
      "name": "Knokuilstraat", 
      "lonmin": 3.1045304398766564, 
      "sanName": "knokuilstraat", 
      "numOfAddr": 28, 
      "lonmax": 3.1123010657898984, 
      "latmin": 50.91414959820896
    }, 
    {
      "latmax": 50.91225416777131, 
      "name": "Koekuitstraat", 
      "lonmin": 3.1048601755467757, 
      "sanName": "koekuitstraat", 
      "numOfAddr": 15, 
      "lonmax": 3.115101460315593, 
      "latmin": 50.90483084917106
    }, 
    {
      "latmax": 50.932148367529734, 
      "name": "Koestraat", 
      "lonmin": 3.140397040760888, 
      "sanName": "koestraat", 
      "numOfAddr": 175, 
      "lonmax": 3.15365236931938, 
      "latmin": 50.91407008899582
    }, 
    {
      "latmax": 50.949669583440375, 
      "name": "Kokelaarstraat", 
      "lonmin": 3.121660142401749, 
      "sanName": "kokelaarstraat", 
      "numOfAddr": 22, 
      "lonmax": 3.1244362543868314, 
      "latmin": 50.94850440542889
    }, 
    {
      "latmax": 50.94332670858673, 
      "name": "Kolenkaai", 
      "lonmin": 3.1482425138573706, 
      "sanName": "kolenkaai", 
      "numOfAddr": 5, 
      "lonmax": 3.154071371209013, 
      "latmin": 50.943058986814016
    }, 
    {
      "latmax": 50.94544700234545, 
      "name": "Koning Albert I-laan", 
      "lonmin": 3.1255571370032484, 
      "sanName": "koningalbertilaan", 
      "numOfAddr": 70, 
      "lonmax": 3.132455139051966, 
      "latmin": 50.93829926484761
    }, 
    {
      "latmax": 50.95859415214667, 
      "name": "Koningin Astridplein", 
      "lonmin": 3.1230664528852485, 
      "sanName": "koninginastridplein", 
      "numOfAddr": 5, 
      "lonmax": 3.123932932002559, 
      "latmin": 50.95831769846221
    }, 
    {
      "latmax": 50.9608842382663, 
      "name": "Koning Leopold III-laan", 
      "lonmin": 3.1217715153960492, 
      "sanName": "koningleopoldiiilaan", 
      "numOfAddr": 25, 
      "lonmax": 3.1312312415908425, 
      "latmin": 50.95923939998035
    }, 
    {
      "latmax": 50.9346042012319, 
      "name": "Koning Leopold I-laan", 
      "lonmin": 3.134465719848578, 
      "sanName": "koningleopoldilaan", 
      "numOfAddr": 81, 
      "lonmax": 3.138086130303706, 
      "latmin": 50.93250817419488
    }, 
    {
      "latmax": 50.93609677392422, 
      "name": "Koningsstraat", 
      "lonmin": 3.1489313418682556, 
      "sanName": "koningsstraat", 
      "numOfAddr": 50, 
      "lonmax": 3.153136442367876, 
      "latmin": 50.93458880684965
    }, 
    {
      "latmax": 50.8955449370813, 
      "name": "Koolbrandersstraat", 
      "lonmin": 3.1147958777398754, 
      "sanName": "koolbrandersstraat", 
      "numOfAddr": 24, 
      "lonmax": 3.116387903557194, 
      "latmin": 50.89341249302146
    }, 
    {
      "latmax": 50.90996167091685, 
      "name": "Koolzaadstraat", 
      "lonmin": 3.134933952947107, 
      "sanName": "koolzaadstraat", 
      "numOfAddr": 15, 
      "lonmax": 3.1407192838505056, 
      "latmin": 50.890104841687986
    }, 
    {
      "latmax": 50.95035975334597, 
      "name": "Koornstraat", 
      "lonmin": 3.1365518707930096, 
      "sanName": "koornstraat", 
      "numOfAddr": 107, 
      "lonmax": 3.139951989292058, 
      "latmin": 50.946292803910715
    }, 
    {
      "latmax": 50.94799710404676, 
      "name": "Korenbloemstraat", 
      "lonmin": 3.1463170452296887, 
      "sanName": "korenbloemstraat", 
      "numOfAddr": 30, 
      "lonmax": 3.148292029276295, 
      "latmin": 50.94635588152986
    }, 
    {
      "latmax": 50.99003068394238, 
      "name": "Kortekeerstraat", 
      "lonmin": 3.1689643561955676, 
      "sanName": "kortekeerstraat", 
      "numOfAddr": 9, 
      "lonmax": 3.1724379120087565, 
      "latmin": 50.98488232857369
    }, 
    {
      "latmax": 50.9003898033377, 
      "name": "Kortewagenstraat", 
      "lonmin": 3.121085261715555, 
      "sanName": "kortewagenstraat", 
      "numOfAddr": 106, 
      "lonmax": 3.123223584166434, 
      "latmin": 50.89051352799046
    }, 
    {
      "latmax": 50.92071037434951, 
      "name": "Kortrijksestraat", 
      "lonmin": 3.1475284613522048, 
      "sanName": "kortrijksestraat", 
      "numOfAddr": 34, 
      "lonmax": 3.159049108828834, 
      "latmin": 50.915152579199756
    }, 
    {
      "latmax": 50.97409786872099, 
      "name": "Kouterweg", 
      "lonmin": 3.136743618892922, 
      "sanName": "kouterweg", 
      "numOfAddr": 67, 
      "lonmax": 3.140456381076807, 
      "latmin": 50.96963976583766
    }, 
    {
      "latmax": 50.9550551190695, 
      "name": "Kraaiaard", 
      "lonmin": 3.138410801786042, 
      "sanName": "kraaiaard", 
      "numOfAddr": 32, 
      "lonmax": 3.1403774778973657, 
      "latmin": 50.953406974054815
    }, 
    {
      "latmax": 50.93897219915594, 
      "name": "Krekelstraat", 
      "lonmin": 3.1255835203154025, 
      "sanName": "krekelstraat", 
      "numOfAddr": 60, 
      "lonmax": 3.128018676832122, 
      "latmin": 50.937927921987246
    }, 
    {
      "latmax": 50.97299132400329, 
      "name": "Kristus-Koningstraat", 
      "lonmin": 3.138599148550233, 
      "sanName": "kristuskoningstraat", 
      "numOfAddr": 11, 
      "lonmax": 3.139705458733117, 
      "latmin": 50.972692467979805
    }, 
    {
      "latmax": 50.97441958025531, 
      "name": "Krommebeekstraat", 
      "lonmin": 3.1515192288069196, 
      "sanName": "krommebeekstraat", 
      "numOfAddr": 8, 
      "lonmax": 3.1529059150621457, 
      "latmin": 50.973443002766246
    }, 
    {
      "latmax": 50.975665959874, 
      "name": "Kroontjesmolenstraat", 
      "lonmin": 3.1419271276327, 
      "sanName": "kroontjesmolenstraat", 
      "numOfAddr": 14, 
      "lonmax": 3.143505233272215, 
      "latmin": 50.97480359542668
    }, 
    {
      "latmax": 50.975152771563586, 
      "name": "Kruisboommolenstraat", 
      "lonmin": 3.1568397361295815, 
      "sanName": "kruisboommolenstraat", 
      "numOfAddr": 25, 
      "lonmax": 3.167865793294986, 
      "latmin": 50.96906492487638
    }, 
    {
      "latmax": 50.95409150175629, 
      "name": "Kuipersstraat", 
      "lonmin": 3.106233043057509, 
      "sanName": "kuipersstraat", 
      "numOfAddr": 51, 
      "lonmax": 3.10904056588104, 
      "latmin": 50.952179722704464
    }, 
    {
      "latmax": 50.932170300053684, 
      "name": "Kwadestraat", 
      "lonmin": 3.1569733532842412, 
      "sanName": "kwadestraat", 
      "numOfAddr": 144, 
      "lonmax": 3.176970474985652, 
      "latmin": 50.903242077707695
    }, 
    {
      "latmax": 50.96150351994164, 
      "name": "Kwarteldreef", 
      "lonmin": 3.108857080004826, 
      "sanName": "kwarteldreef", 
      "numOfAddr": 59, 
      "lonmax": 3.113448047017459, 
      "latmin": 50.95914451175945
    }, 
    {
      "latmax": 50.97001836303963, 
      "name": "Laagstraat", 
      "lonmin": 3.1429616380990417, 
      "sanName": "laagstraat", 
      "numOfAddr": 24, 
      "lonmax": 3.1441655940296656, 
      "latmin": 50.96921772466079
    }, 
    {
      "latmax": 50.965402078688655, 
      "name": "Lakenstraat", 
      "lonmin": 3.112607819786584, 
      "sanName": "lakenstraat", 
      "numOfAddr": 80, 
      "lonmax": 3.116421264070589, 
      "latmin": 50.962932782920504
    }, 
    {
      "latmax": 50.95061654728187, 
      "name": "Landbouwstraat", 
      "lonmin": 3.1270896117413725, 
      "sanName": "landbouwstraat", 
      "numOfAddr": 31, 
      "lonmax": 3.128475677289267, 
      "latmin": 50.94977814944276
    }, 
    {
      "latmax": 50.89504233933476, 
      "name": "Landmansstraat", 
      "lonmin": 3.1163193135893286, 
      "sanName": "landmansstraat", 
      "numOfAddr": 40, 
      "lonmax": 3.1189170356233014, 
      "latmin": 50.8915134611889
    }, 
    {
      "latmax": 50.9459047252677, 
      "name": "Langebrugstraat", 
      "lonmin": 3.136586761994458, 
      "sanName": "langebrugstraat", 
      "numOfAddr": 25, 
      "lonmax": 3.1402032116052436, 
      "latmin": 50.94301155758074
    }, 
    {
      "latmax": 50.943179356852355, 
      "name": "Langemarkstraat", 
      "lonmin": 3.121035065025403, 
      "sanName": "langemarkstraat", 
      "numOfAddr": 37, 
      "lonmax": 3.1219261434058776, 
      "latmin": 50.94237135116474
    }, 
    {
      "latmax": 50.945820616202155, 
      "name": "Leenstraat", 
      "lonmin": 3.1275558803605565, 
      "sanName": "leenstraat", 
      "numOfAddr": 18, 
      "lonmax": 3.130675710441942, 
      "latmin": 50.94425041531931
    }, 
    {
      "latmax": 50.958507881243406, 
      "name": "Leeuwerikstraat", 
      "lonmin": 3.113151609977321, 
      "sanName": "leeuwerikstraat", 
      "numOfAddr": 39, 
      "lonmax": 3.1150159565229583, 
      "latmin": 50.95600897784631
    }, 
    {
      "latmax": 50.966786346746446, 
      "name": "Leiestraat", 
      "lonmin": 3.146925534782088, 
      "sanName": "leiestraat", 
      "numOfAddr": 19, 
      "lonmax": 3.148673845402509, 
      "latmin": 50.96591697877548
    }, 
    {
      "latmax": 50.934573397646886, 
      "name": "Lekkensgoed", 
      "lonmin": 3.160528836089858, 
      "sanName": "lekkensgoed", 
      "numOfAddr": 46, 
      "lonmax": 3.1625372652467636, 
      "latmin": 50.932790810868525
    }, 
    {
      "latmax": 50.934827498362075, 
      "name": "Lekkensstraat", 
      "lonmin": 3.1557503320531506, 
      "sanName": "lekkensstraat", 
      "numOfAddr": 47, 
      "lonmax": 3.160391561171082, 
      "latmin": 50.93361670774875
    }, 
    {
      "latmax": 50.939974584547706, 
      "name": "Leliestraat", 
      "lonmin": 3.132748034499418, 
      "sanName": "leliestraat", 
      "numOfAddr": 35, 
      "lonmax": 3.13644340147843, 
      "latmin": 50.9390450062186
    }, 
    {
      "latmax": 50.99169888524562, 
      "name": "Lichterveldsestraat", 
      "lonmin": 3.1488260510612465, 
      "sanName": "lichterveldsestraat", 
      "numOfAddr": 15, 
      "lonmax": 3.1533266207424155, 
      "latmin": 50.9798192679931
    }, 
    {
      "latmax": 50.97907265352641, 
      "name": "Liebeekstraat", 
      "lonmin": 3.119905981973232, 
      "sanName": "liebeekstraat", 
      "numOfAddr": 18, 
      "lonmax": 3.1229358040159014, 
      "latmin": 50.97596703357462
    }, 
    {
      "latmax": 50.95170847815446, 
      "name": "Lierstraat", 
      "lonmin": 3.14000895502398, 
      "sanName": "lierstraat", 
      "numOfAddr": 45, 
      "lonmax": 3.142279586034152, 
      "latmin": 50.94987512834114
    }, 
    {
      "latmax": 50.967636470803804, 
      "name": "Lijnwaadstraat", 
      "lonmin": 3.1111540236530053, 
      "sanName": "lijnwaadstraat", 
      "numOfAddr": 67, 
      "lonmax": 3.1142168038659617, 
      "latmin": 50.96502807594729
    }, 
    {
      "latmax": 50.9583099581081, 
      "name": "Lijsterstraat", 
      "lonmin": 3.1138227686838893, 
      "sanName": "lijsterstraat", 
      "numOfAddr": 15, 
      "lonmax": 3.115479788771231, 
      "latmin": 50.95791855615752
    }, 
    {
      "latmax": 50.952300744354545, 
      "name": "Lindenkouter", 
      "lonmin": 3.1080076536369172, 
      "sanName": "lindenkouter", 
      "numOfAddr": 18, 
      "lonmax": 3.10852000345432, 
      "latmin": 50.95150673856376
    }, 
    {
      "latmax": 50.938747688882756, 
      "name": "Lindenstraat", 
      "lonmin": 3.113609797169566, 
      "sanName": "lindenstraat", 
      "numOfAddr": 66, 
      "lonmax": 3.1186299295426774, 
      "latmin": 50.93488321691866
    }, 
    {
      "latmax": 50.96598653852615, 
      "name": "Lodewijk van Velthemstraat", 
      "lonmin": 3.1308731168703345, 
      "sanName": "lodewijkvanvelthemstraat", 
      "numOfAddr": 21, 
      "lonmax": 3.133839282765705, 
      "latmin": 50.96473185803725
    }, 
    {
      "latmax": 50.93448567888559, 
      "name": "Lorkenstraat", 
      "lonmin": 3.1055407430619257, 
      "sanName": "lorkenstraat", 
      "numOfAddr": 17, 
      "lonmax": 3.106372177701637, 
      "latmin": 50.933326625530434
    }, 
    {
      "latmax": 50.93435804998991, 
      "name": "Louis Leynstraat", 
      "lonmin": 3.1485426967097765, 
      "sanName": "louisleynstraat", 
      "numOfAddr": 47, 
      "lonmax": 3.1509132941965303, 
      "latmin": 50.9320971931388
    }, 
    {
      "latmax": 50.95104954924054, 
      "name": "Louis Tantstraat", 
      "lonmin": 3.125466133798661, 
      "sanName": "louistantstraat", 
      "numOfAddr": 1, 
      "lonmax": 3.125466133798661, 
      "latmin": 50.95104954924054
    }, 
    {
      "latmax": 50.89123761633246, 
      "name": "Lucien Bockstaelestraat", 
      "lonmin": 3.119105336914911, 
      "sanName": "lucienbockstaelestraat", 
      "numOfAddr": 26, 
      "lonmax": 3.1211042305962793, 
      "latmin": 50.89033182260795
    }, 
    {
      "latmax": 50.92733378941877, 
      "name": "Lucien Victorstraat", 
      "lonmin": 3.1511773717588767, 
      "sanName": "lucienvictorstraat", 
      "numOfAddr": 32, 
      "lonmax": 3.1530919368834063, 
      "latmin": 50.92537228056013
    }, 
    {
      "latmax": 50.9231759858185, 
      "name": "Magermerriestraat", 
      "lonmin": 3.0633870204686815, 
      "sanName": "magermerriestraat", 
      "numOfAddr": 15, 
      "lonmax": 3.070418929199348, 
      "latmin": 50.919579209461304
    }, 
    {
      "latmax": 50.95410751622196, 
      "name": "Mandeldreef", 
      "lonmin": 3.132220679498524, 
      "sanName": "mandeldreef", 
      "numOfAddr": 75, 
      "lonmax": 3.1355551878803336, 
      "latmin": 50.95263354603511
    }, 
    {
      "latmax": 50.95821561129746, 
      "name": "Mandellaan", 
      "lonmin": 3.13242707295914, 
      "sanName": "mandellaan", 
      "numOfAddr": 384, 
      "lonmax": 3.1549333888353064, 
      "latmin": 50.936988022313365
    }, 
    {
      "latmax": 50.937959721738224, 
      "name": "Mandelstraat", 
      "lonmin": 3.155854005029115, 
      "sanName": "mandelstraat", 
      "numOfAddr": 25, 
      "lonmax": 3.160506427360272, 
      "latmin": 50.93608704417711
    }, 
    {
      "latmax": 50.94519093027812, 
      "name": "Manestraat", 
      "lonmin": 3.1222846193498843, 
      "sanName": "manestraat", 
      "numOfAddr": 22, 
      "lonmax": 3.1234853556266207, 
      "latmin": 50.944686907008055
    }, 
    {
      "latmax": 50.957246762764505, 
      "name": "Marelput", 
      "lonmin": 3.1624996226440456, 
      "sanName": "marelput", 
      "numOfAddr": 10, 
      "lonmax": 3.1646896304449994, 
      "latmin": 50.95614643875442
    }, 
    {
      "latmax": 50.92629251651006, 
      "name": "Maria's-Lindestraat", 
      "lonmin": 3.1428393579393434, 
      "sanName": "mariaslindestraat", 
      "numOfAddr": 46, 
      "lonmax": 3.155424137754131, 
      "latmin": 50.9225953001609
    }, 
    {
      "latmax": 50.95083536645336, 
      "name": "Mariastraat", 
      "lonmin": 3.1314521927217323, 
      "sanName": "mariastraat", 
      "numOfAddr": 18, 
      "lonmax": 3.132620790147009, 
      "latmin": 50.94975104801717
    }, 
    {
      "latmax": 50.930105525815634, 
      "name": "Maria Yssersstraat", 
      "lonmin": 3.168049640346999, 
      "sanName": "mariayssersstraat", 
      "numOfAddr": 37, 
      "lonmax": 3.169706362630309, 
      "latmin": 50.9279757603416
    }, 
    {
      "latmax": 50.9446752101435, 
      "name": "Marie-Louise De Meesterplein", 
      "lonmin": 3.122935660929317, 
      "sanName": "marielouisedemeesterplein", 
      "numOfAddr": 8, 
      "lonmax": 3.123898428004967, 
      "latmin": 50.94450932453121
    }, 
    {
      "latmax": 50.958133807770665, 
      "name": "Markette", 
      "lonmin": 3.1181262414646853, 
      "sanName": "markette", 
      "numOfAddr": 45, 
      "lonmax": 3.1196329542473586, 
      "latmin": 50.95683300039077
    }, 
    {
      "latmax": 50.945713400084486, 
      "name": "Ma\u008bslaan", 
      "lonmin": 3.1600771760013866, 
      "sanName": "maslaan", 
      "numOfAddr": 4, 
      "lonmax": 3.1612772617203184, 
      "latmin": 50.943966094960544
    }, 
    {
      "latmax": 50.91964189703273, 
      "name": "Maximiliaan Demeulenaerestraat", 
      "lonmin": 3.1114109651240174, 
      "sanName": "maximiliaandemeulenaerestraat", 
      "numOfAddr": 26, 
      "lonmax": 3.114091616646554, 
      "latmin": 50.91702630175754
    }, 
    {
      "latmax": 50.93392846092158, 
      "name": "Meelbessenstraat", 
      "lonmin": 3.104710850118925, 
      "sanName": "meelbessenstraat", 
      "numOfAddr": 8, 
      "lonmax": 3.105466856589728, 
      "latmin": 50.93324529011068
    }, 
    {
      "latmax": 50.94167296999569, 
      "name": "Meelstraat", 
      "lonmin": 3.1157671207119937, 
      "sanName": "meelstraat", 
      "numOfAddr": 5, 
      "lonmax": 3.117008379216851, 
      "latmin": 50.94091605620327
    }, 
    {
      "latmax": 50.93813874682907, 
      "name": "Meenseheirweg", 
      "lonmin": 3.1207839605989105, 
      "sanName": "meenseheirweg", 
      "numOfAddr": 165, 
      "lonmax": 3.1265603994134428, 
      "latmin": 50.928774213649156
    }, 
    {
      "latmax": 50.942186608721414, 
      "name": "Meensesteenweg", 
      "lonmin": 3.1133453990447326, 
      "sanName": "meensesteenweg", 
      "numOfAddr": 481, 
      "lonmax": 3.12316030779964, 
      "latmin": 50.89070939215414
    },