{
  "streets": [
    {
      "latmax": 50.861020450210724, 
      "name": "Albrecht Rodenbachlaan", 
      "lonmin": 3.129426439514952, 
      "sanName": "albrechtrodenbachlaan", 
      "numOfAddr": 31, 
      "lonmax": 3.1314744696111347, 
      "latmin": 50.85998364930944
    }, 
    {
      "latmax": 50.8875522121415, 
      "name": "Begijnestraat", 
      "lonmin": 3.128605303518327, 
      "sanName": "begijnestraat", 
      "numOfAddr": 52, 
      "lonmax": 3.1363680490834076, 
      "latmin": 50.86208329217751
    }, 
    {
      "latmax": 50.870852498802094, 
      "name": "Begoniastraat", 
      "lonmin": 3.1459293671640514, 
      "sanName": "begoniastraat", 
      "numOfAddr": 12, 
      "lonmax": 3.1466587683078164, 
      "latmin": 50.87006767527017
    }, 
    {
      "latmax": 50.86149819552465, 
      "name": "Beurtemolenstraat", 
      "lonmin": 3.1742226804095663, 
      "sanName": "beurtemolenstraat", 
      "numOfAddr": 8, 
      "lonmax": 3.1823786670744827, 
      "latmin": 50.858209145138254
    }, 
    {
      "latmax": 50.87595238653242, 
      "name": "Boerderijstraat", 
      "lonmin": 3.1832623417696446, 
      "sanName": "boerderijstraat", 
      "numOfAddr": 30, 
      "lonmax": 3.184549027113533, 
      "latmin": 50.874472652054315
    }, 
    {
      "latmax": 50.869724365418904, 
      "name": "Bogaardwegel", 
      "lonmin": 3.14490080413353, 
      "sanName": "bogaardwegel", 
      "numOfAddr": 19, 
      "lonmax": 3.1478791521384, 
      "latmin": 50.86906869869082
    }, 
    {
      "latmax": 50.862770990863545, 
      "name": "Boomlandstraat", 
      "lonmin": 3.125265332650982, 
      "sanName": "boomlandstraat", 
      "numOfAddr": 64, 
      "lonmax": 3.134301668489819, 
      "latmin": 50.86099946591301
    }, 
    {
      "latmax": 50.86430268639887, 
      "name": "Boonhoek", 
      "lonmin": 3.1334563939800053, 
      "sanName": "boonhoek", 
      "numOfAddr": 22, 
      "lonmax": 3.1363426418118334, 
      "latmin": 50.8616063297726
    }, 
    {
      "latmax": 50.86942624686112, 
      "name": "Bunderhof", 
      "lonmin": 3.1790053024167086, 
      "sanName": "bunderhof", 
      "numOfAddr": 31, 
      "lonmax": 3.18072680706885, 
      "latmin": 50.86759555030282
    }, 
    {
      "latmax": 50.877439548428136, 
      "name": "Burgemeester Vandenbusschelaan", 
      "lonmin": 3.1829074980675047, 
      "sanName": "burgemeestervandenbusschelaan", 
      "numOfAddr": 20, 
      "lonmax": 3.1843841722771735, 
      "latmin": 50.87642880085661
    }, 
    {
      "latmax": 50.8683296243232, 
      "name": "Burgemeester Wylinstraat", 
      "lonmin": 3.1418916693942838, 
      "sanName": "burgemeesterwylinstraat", 
      "numOfAddr": 35, 
      "lonmax": 3.1431252230005757, 
      "latmin": 50.86683136665095
    }, 
    {
      "latmax": 50.854696218783545, 
      "name": "Cardijnlaan", 
      "lonmin": 3.1291367718668903, 
      "sanName": "cardijnlaan", 
      "numOfAddr": 95, 
      "lonmax": 3.1320957684696125, 
      "latmin": 50.853144525006044
    }, 
    {
      "latmax": 50.860710791377755, 
      "name": "Dadizelestraat", 
      "lonmin": 3.1019506365442187, 
      "sanName": "dadizelestraat", 
      "numOfAddr": 13, 
      "lonmax": 3.107930498891074, 
      "latmin": 50.855536668305845
    }, 
    {
      "latmax": 50.871738769526516, 
      "name": "Dahliastraat", 
      "lonmin": 3.1451366085685835, 
      "sanName": "dahliastraat", 
      "numOfAddr": 9, 
      "lonmax": 3.14582317233833, 
      "latmin": 50.87105324095048
    }, 
    {
      "latmax": 50.86909094722073, 
      "name": "De Hoogte", 
      "lonmin": 3.1809471222678996, 
      "sanName": "dehoogte", 
      "numOfAddr": 13, 
      "lonmax": 3.1825933378471984, 
      "latmin": 50.86759533686856
    }, 
    {
      "latmax": 50.858089288549294, 
      "name": "De Kempkens", 
      "lonmin": 3.1266691530823616, 
      "sanName": "dekempkens", 
      "numOfAddr": 41, 
      "lonmax": 3.1291824351296027, 
      "latmin": 50.856683300176485
    }, 
    {
      "latmax": 50.87636769999467, 
      "name": "Demandreef", 
      "lonmin": 3.1697625831264507, 
      "sanName": "demandreef", 
      "numOfAddr": 4, 
      "lonmax": 3.170612537961028, 
      "latmin": 50.87342680053073
    }, 
    {
      "latmax": 50.8783541725664, 
      "name": "Denderbellestraat", 
      "lonmin": 3.1318274182221604, 
      "sanName": "denderbellestraat", 
      "numOfAddr": 5, 
      "lonmax": 3.134817906062475, 
      "latmin": 50.8773611126642
    }, 
    {
      "latmax": 50.87740886936306, 
      "name": "Dorpsplein", 
      "lonmin": 3.1772961763825895, 
      "sanName": "dorpsplein", 
      "numOfAddr": 36, 
      "lonmax": 3.1792640377658454, 
      "latmin": 50.87553475261186
    }, 
    {
      "latmax": 50.86563457619609, 
      "name": "Driemastenstraat", 
      "lonmin": 3.1738812016898366, 
      "sanName": "driemastenstraat", 
      "numOfAddr": 9, 
      "lonmax": 3.1769192506738877, 
      "latmin": 50.86241366677031
    }, 
    {
      "latmax": 50.884619219120395, 
      "name": "Driepikkelstraat", 
      "lonmin": 3.1364950007242336, 
      "sanName": "driepikkelstraat", 
      "numOfAddr": 22, 
      "lonmax": 3.1497563525022656, 
      "latmin": 50.877692754890006
    }, 
    {
      "latmax": 50.87096620108894, 
      "name": "Fabiolalaan", 
      "lonmin": 3.1415560802257567, 
      "sanName": "fabiolalaan", 
      "numOfAddr": 37, 
      "lonmax": 3.1466564301987456, 
      "latmin": 50.87006826258735
    }, 
    {
      "latmax": 50.863223977778325, 
      "name": "Fabriekslaan", 
      "lonmin": 3.110381180325192, 
      "sanName": "fabriekslaan", 
      "numOfAddr": 66, 
      "lonmax": 3.1191275795556344, 
      "latmin": 50.86022571012835
    }, 
    {
      "latmax": 50.876235075887465, 
      "name": "Familie Devosstraat", 
      "lonmin": 3.1843030443426645, 
      "sanName": "familiedevosstraat", 
      "numOfAddr": 28, 
      "lonmax": 3.185377593710707, 
      "latmin": 50.87465072832202
    }, 
    {
      "latmax": 50.87843261457676, 
      "name": "Foncierestraat", 
      "lonmin": 3.139743387488018, 
      "sanName": "foncierestraat", 
      "numOfAddr": 20, 
      "lonmax": 3.1414738853405235, 
      "latmin": 50.86870413418301
    }, 
    {
      "latmax": 50.88077884076563, 
      "name": "Geuzesmissestraat", 
      "lonmin": 3.1507022548662924, 
      "sanName": "geuzesmissestraat", 
      "numOfAddr": 28, 
      "lonmax": 3.1589817839655647, 
      "latmin": 50.87806777767594
    }, 
    {
      "latmax": 50.87095432688744, 
      "name": "Gladioolstraat", 
      "lonmin": 3.1417036386578623, 
      "sanName": "gladioolstraat", 
      "numOfAddr": 4, 
      "lonmax": 3.142509545245352, 
      "latmin": 50.870742116113206
    }, 
    {
      "latmax": 50.879678957836276, 
      "name": "Gootstraat", 
      "lonmin": 3.19786204099754, 
      "sanName": "gootstraat", 
      "numOfAddr": 14, 
      "lonmax": 3.2064306733190984, 
      "latmin": 50.86547482047942
    }, 
    {
      "latmax": 50.885576131967376, 
      "name": "Groenedreef", 
      "lonmin": 3.176932006992928, 
      "sanName": "groenedreef", 
      "numOfAddr": 1, 
      "lonmax": 3.176932006992928, 
      "latmin": 50.885576131967376
    }, 
    {
      "latmax": 50.88214043676305, 
      "name": "Groene Jagerstraat", 
      "lonmin": 3.1138649763551314, 
      "sanName": "groenejagerstraat", 
      "numOfAddr": 14, 
      "lonmax": 3.129761781802309, 
      "latmin": 50.875817737064324
    }, 
    {
      "latmax": 50.87663259286354, 
      "name": "Groenestraat", 
      "lonmin": 3.182995571906045, 
      "sanName": "groenestraat", 
      "numOfAddr": 21, 
      "lonmax": 3.185702664106673, 
      "latmin": 50.8759950082726
    }, 
    {
      "latmax": 50.86098556723916, 
      "name": "Guido Gezellelaan", 
      "lonmin": 3.1298879114773137, 
      "sanName": "guidogezellelaan", 
      "numOfAddr": 70, 
      "lonmax": 3.1325153033529216, 
      "latmin": 50.85864188550987
    }, 
    {
      "latmax": 50.875540029929475, 
      "name": "Gullegemsestraat", 
      "lonmin": 3.179006703978086, 
      "sanName": "gullegemsestraat", 
      "numOfAddr": 218, 
      "lonmax": 3.1877934352456685, 
      "latmin": 50.859700672296
    }, 
    {
      "latmax": 50.87209591743941, 
      "name": "Heerweg", 
      "lonmin": 3.1045659181318643, 
      "sanName": "heerweg", 
      "numOfAddr": 6, 
      "lonmax": 3.105009195863576, 
      "latmin": 50.8697591233316
    }, 
    {
      "latmax": 50.85569206840394, 
      "name": "Hemelhoek", 
      "lonmin": 3.1278960456018194, 
      "sanName": "hemelhoek", 
      "numOfAddr": 83, 
      "lonmax": 3.1384621552953837, 
      "latmin": 50.85303796741039
    }, 
    {
      "latmax": 50.85867700164377, 
      "name": "Hugo Verriestlaan", 
      "lonmin": 3.1249881977120726, 
      "sanName": "hugoverriestlaan", 
      "numOfAddr": 61, 
      "lonmax": 3.126418794418904, 
      "latmin": 50.85563221660484
    }, 
    {
      "latmax": 50.86562618851472, 
      "name": "Industrieweg", 
      "lonmin": 3.114458219943281, 
      "sanName": "industrieweg", 
      "numOfAddr": 4, 
      "lonmax": 3.1187293187315794, 
      "latmin": 50.863024249926795
    }, 
    {
      "latmax": 50.890656849117725, 
      "name": "Izegemsestraat", 
      "lonmin": 3.179698413332658, 
      "sanName": "izegemsestraat", 
      "numOfAddr": 120, 
      "lonmax": 3.1845464533283265, 
      "latmin": 50.87771041257761
    }, 
    {
      "latmax": 50.87347963846551, 
      "name": "Kapelstraat", 
      "lonmin": 3.1759195811226224, 
      "sanName": "kapelstraat", 
      "numOfAddr": 61, 
      "lonmax": 3.177610741706667, 
      "latmin": 50.86785004813778
    }, 
    {
      "latmax": 50.87597099207914, 
      "name": "Karnemelkhofstraat", 
      "lonmin": 3.16617883046935, 
      "sanName": "karnemelkhofstraat", 
      "numOfAddr": 5, 
      "lonmax": 3.172736070423786, 
      "latmin": 50.87433827874749
    }, 
    {
      "latmax": 50.877944390139874, 
      "name": "Kasteelstraat", 
      "lonmin": 3.1785328382480817, 
      "sanName": "kasteelstraat", 
      "numOfAddr": 32, 
      "lonmax": 3.181735606179218, 
      "latmin": 50.87730455244156
    }, 
    {
      "latmax": 50.87670506200004, 
      "name": "Kerkplein", 
      "lonmin": 3.1792576524409304, 
      "sanName": "kerkplein", 
      "numOfAddr": 6, 
      "lonmax": 3.180405556801923, 
      "latmin": 50.87582690790704
    }, 
    {
      "latmax": 50.87731155677202, 
      "name": "Kerkstraat", 
      "lonmin": 3.179142226592159, 
      "sanName": "kerkstraat", 
      "numOfAddr": 11, 
      "lonmax": 3.180403489863001, 
      "latmin": 50.876725866800115
    }, 
    {
      "latmax": 50.87033328961642, 
      "name": "Kerkwegel", 
      "lonmin": 3.1466645585301785, 
      "sanName": "kerkwegel", 
      "numOfAddr": 3, 
      "lonmax": 3.1467167416329063, 
      "latmin": 50.86999291414729
    }, 
    {
      "latmax": 50.8876644662965, 
      "name": "Kleine Izegemsestraat", 
      "lonmin": 3.1855789846117624, 
      "sanName": "kleineizegemsestraat", 
      "numOfAddr": 42, 
      "lonmax": 3.198781530723612, 
      "latmin": 50.863983575220644
    }, 
    {
      "latmax": 50.87409707624449, 
      "name": "Kleine Moorsledestraat", 
      "lonmin": 3.0955930524769437, 
      "sanName": "kleinemoorsledestraat", 
      "numOfAddr": 18, 
      "lonmax": 3.102846782622524, 
      "latmin": 50.868564308721034
    }, 
    {
      "latmax": 50.874516616033894, 
      "name": "Klein-Harelbekestraat", 
      "lonmin": 3.1848564344966865, 
      "sanName": "kleinharelbekestraat", 
      "numOfAddr": 38, 
      "lonmax": 3.1865890388980525, 
      "latmin": 50.87134699360801
    }, 
    {
      "latmax": 50.88107309581236, 
      "name": "Klein Schardauw", 
      "lonmin": 3.1780658453160173, 
      "sanName": "kleinschardauw", 
      "numOfAddr": 41, 
      "lonmax": 3.1803560998653477, 
      "latmin": 50.87812707719354
    }, 
    {
      "latmax": 50.8773309403054, 
      "name": "Kloosterstraat", 
      "lonmin": 3.1755791377935183, 
      "sanName": "kloosterstraat", 
      "numOfAddr": 34, 
      "lonmax": 3.177348969921607, 
      "latmin": 50.875251073278584
    }, 
    {
      "latmax": 50.882124934358224, 
      "name": "Knokstraat", 
      "lonmin": 3.1593513458703275, 
      "sanName": "knokstraat", 
      "numOfAddr": 19, 
      "lonmax": 3.17112690549439, 
      "latmin": 50.87791330336011
    }, 
    {
      "latmax": 50.876594693729366, 
      "name": "Koning Boudewijnlaan", 
      "lonmin": 3.1724049620946055, 
      "sanName": "koningboudewijnlaan", 
      "numOfAddr": 57, 
      "lonmax": 3.1758948782551757, 
      "latmin": 50.87482996472183
    }, 
    {
      "latmax": 50.8548040364331, 
      "name": "Korteweg", 
      "lonmin": 3.127938093345277, 
      "sanName": "korteweg", 
      "numOfAddr": 5, 
      "lonmax": 3.12870198220398, 
      "latmin": 50.85441611439025
    }, 
    {
      "latmax": 50.87144451473362, 
      "name": "Kortrijksestraat", 
      "lonmin": 3.18431021523011, 
      "sanName": "kortrijksestraat", 
      "numOfAddr": 36, 
      "lonmax": 3.1992561883766317, 
      "latmin": 50.86361708386747
    }, 
    {
      "latmax": 50.88928582666634, 
      "name": "Kortwagenstraat", 
      "lonmin": 3.118503481340045, 
      "sanName": "kortwagenstraat", 
      "numOfAddr": 76, 
      "lonmax": 3.1281810584745786, 
      "latmin": 50.85910804190895
    }, 
    {
      "latmax": 50.871486200523904, 
      "name": "Krokusstraat", 
      "lonmin": 3.1438557165502576, 
      "sanName": "krokusstraat", 
      "numOfAddr": 6, 
      "lonmax": 3.1447848037116137, 
      "latmin": 50.871013192534434
    }, 
    {
      "latmax": 50.86725228406655, 
      "name": "Kuipebosstraat", 
      "lonmin": 3.198926618652655, 
      "sanName": "kuipebosstraat", 
      "numOfAddr": 14, 
      "lonmax": 3.202414011602112, 
      "latmin": 50.864280300751645
    }, 
    {
      "latmax": 50.87171680547648, 
      "name": "Leliestraat", 
      "lonmin": 3.1462174873558824, 
      "sanName": "leliestraat", 
      "numOfAddr": 14, 
      "lonmax": 3.1468345401236943, 
      "latmin": 50.87112182744566
    }, 
    {
      "latmax": 50.88049217121593, 
      "name": "Lendeleedsestraat", 
      "lonmin": 3.182290837129076, 
      "sanName": "lendeleedsestraat", 
      "numOfAddr": 48, 
      "lonmax": 3.1978351045501654, 
      "latmin": 50.87731636642633
    }, 
    {
      "latmax": 50.88217100256842, 
      "name": "Leugenstraat", 
      "lonmin": 3.1813414304021426, 
      "sanName": "leugenstraat", 
      "numOfAddr": 5, 
      "lonmax": 3.1836797534321173, 
      "latmin": 50.881722757183674
    }, 
    {
      "latmax": 50.85392749852426, 
      "name": "Meersstraat", 
      "lonmin": 3.1234584789588533, 
      "sanName": "meersstraat", 
      "numOfAddr": 7, 
      "lonmax": 3.125474715329631, 
      "latmin": 50.8527986741997
    }, 
    {
      "latmax": 50.85439789125892, 
      "name": "Menenstraat", 
      "lonmin": 3.1258426193028055, 
      "sanName": "menenstraat", 
      "numOfAddr": 17, 
      "lonmax": 3.1272962241019773, 
      "latmin": 50.85108154053653
    }, 
    {
      "latmax": 50.868238515118, 
      "name": "Molenstraat", 
      "lonmin": 3.1448814055771304, 
      "sanName": "molenstraat", 
      "numOfAddr": 26, 
      "lonmax": 3.1488699004914382, 
      "latmin": 50.86741365624467
    }, 
    {
      "latmax": 50.87082133326751, 
      "name": "Moorseelsestraat", 
      "lonmin": 3.167912118544472, 
      "sanName": "moorseelsestraat", 
      "numOfAddr": 18, 
      "lonmax": 3.1699469855607227, 
      "latmin": 50.86025539548663
    }, 
    {
      "latmax": 50.878377789844954, 
      "name": "Moorsledestraat", 
      "lonmin": 3.1040610906689037, 
      "sanName": "moorsledestraat", 
      "numOfAddr": 16, 
      "lonmax": 3.1103622106480513, 
      "latmin": 50.875633087230575
    }, 
    {
      "latmax": 50.86647142672138, 
      "name": "Nachtegalenlaan", 
      "lonmin": 3.198648104973413, 
      "sanName": "nachtegalenlaan", 
      "numOfAddr": 6, 
      "lonmax": 3.200350019912775, 
      "latmin": 50.86505212472089
    }, 
    {
      "latmax": 50.871117885214545, 
      "name": "Narcisstraat", 
      "lonmin": 3.142634724694204, 
      "sanName": "narcisstraat", 
      "numOfAddr": 5, 
      "lonmax": 3.143570086341364, 
      "latmin": 50.8708590227223
    }, 
    {
      "latmax": 50.874214730776345, 
      "name": "Nieuwestraat", 
      "lonmin": 3.1771528008781607, 
      "sanName": "nieuwestraat", 
      "numOfAddr": 10, 
      "lonmax": 3.179591309402394, 
      "latmin": 50.87377490217822
    }, 
    {
      "latmax": 50.865268155653524, 
      "name": "Nijverheidslaan", 
      "lonmin": 3.113755028911485, 
      "sanName": "nijverheidslaan", 
      "numOfAddr": 17, 
      "lonmax": 3.1162755589433395, 
      "latmin": 50.86304308013952
    }, 
    {
      "latmax": 50.88915968361362, 
      "name": "Oekensestraat", 
      "lonmin": 3.1671395095638166, 
      "sanName": "oekensestraat", 
      "numOfAddr": 32, 
      "lonmax": 3.178480746682813, 
      "latmin": 50.87763221033622
    }, 
    {
      "latmax": 50.87169363409808, 
      "name": "Olympialaan", 
      "lonmin": 3.178224435325255, 
      "sanName": "olympialaan", 
      "numOfAddr": 54, 
      "lonmax": 3.1833558599584633, 
      "latmin": 50.86947952292328
    }, 
    {
      "latmax": 50.857431091644116, 
      "name": "Oosthovelaan", 
      "lonmin": 3.1312952012554716, 
      "sanName": "oosthovelaan", 
      "numOfAddr": 26, 
      "lonmax": 3.1327405706543074, 
      "latmin": 50.856082310548054
    }, 
    {
      "latmax": 50.85478107517735, 
      "name": "Oostlaan", 
      "lonmin": 3.1322583767086125, 
      "sanName": "oostlaan", 
      "numOfAddr": 33, 
      "lonmax": 3.1334644185614504, 
      "latmin": 50.85311032638951
    }, 
    {
      "latmax": 50.87901268145048, 
      "name": "Oude Lendeleedsestraat", 
      "lonmin": 3.1923594763314362, 
      "sanName": "oudelendeleedsestraat", 
      "numOfAddr": 11, 
      "lonmax": 3.1973144485098333, 
      "latmin": 50.876415386470846
    }, 
    {
      "latmax": 50.87434482980885, 
      "name": "Oudstrijderslaan", 
      "lonmin": 3.183273664611899, 
      "sanName": "oudstrijderslaan", 
      "numOfAddr": 17, 
      "lonmax": 3.185046796002262, 
      "latmin": 50.87325378550877
    }, 
    {
      "latmax": 50.860214729495844, 
      "name": "Papestraat", 
      "lonmin": 3.1101893362863167, 
      "sanName": "papestraat", 
      "numOfAddr": 63, 
      "lonmax": 3.122522875496302, 
      "latmin": 50.85696929219016
    }, 
    {
      "latmax": 50.854283429310144, 
      "name": "Plaats", 
      "lonmin": 3.124853568884146, 
      "sanName": "plaats", 
      "numOfAddr": 38, 
      "lonmax": 3.1266788963191123, 
      "latmin": 50.85287473254466
    }, 
    {
      "latmax": 50.88604947854038, 
      "name": "Provinciebaan", 
      "lonmin": 3.1086088697328695, 
      "sanName": "provinciebaan", 
      "numOfAddr": 141, 
      "lonmax": 3.1185922842054494, 
      "latmin": 50.853527447748824
    }, 
    {
      "latmax": 50.88689083640772, 
      "name": "Rennevoortstraat", 
      "lonmin": 3.1546300901404987, 
      "sanName": "rennevoortstraat", 
      "numOfAddr": 46, 
      "lonmax": 3.162657965594027, 
      "latmin": 50.87259461270643
    }, 
    {
      "latmax": 50.88690300342384, 
      "name": "Roeselarestraat", 
      "lonmin": 3.1446030384903003, 
      "sanName": "roeselarestraat", 
      "numOfAddr": 132, 
      "lonmax": 3.1548895372926413, 
      "latmin": 50.861538192950306
    }, 
    {
      "latmax": 50.87962603119443, 
      "name": "Rollegembosstraat", 
      "lonmin": 3.1340730516707516, 
      "sanName": "rollegembosstraat", 
      "numOfAddr": 16, 
      "lonmax": 3.1391656070356118, 
      "latmin": 50.865319559477946
    }, 
    {
      "latmax": 50.87572746405321, 
      "name": "Rollegemkapelsestraat", 
      "lonmin": 3.149397910535976, 
      "sanName": "rollegemkapelsestraat", 
      "numOfAddr": 89, 
      "lonmax": 3.1787062929557193, 
      "latmin": 50.8686941225774
    }, 
    {
      "latmax": 50.86786712923143, 
      "name": "Rollegemstraat", 
      "lonmin": 3.126164950150978, 
      "sanName": "rollegemstraat", 
      "numOfAddr": 227, 
      "lonmax": 3.145452194171289, 
      "latmin": 50.85459795489724
    }, 
    {
      "latmax": 50.8682855892683, 
      "name": "Rotputwegel", 
      "lonmin": 3.1432724540948502, 
      "sanName": "rotputwegel", 
      "numOfAddr": 9, 
      "lonmax": 3.1440810686188216, 
      "latmin": 50.86784316555705
    }, 
    {
      "latmax": 50.875958771221974, 
      "name": "Rozenplein", 
      "lonmin": 3.185249196872663, 
      "sanName": "rozenplein", 
      "numOfAddr": 16, 
      "lonmax": 3.1865910275768576, 
      "latmin": 50.8750728825255
    }, 
    {
      "latmax": 50.892068047477785, 
      "name": "Schardauwstraat", 
      "lonmin": 3.1780769950647847, 
      "sanName": "schardauwstraat", 
      "numOfAddr": 13, 
      "lonmax": 3.1802747050848956, 
      "latmin": 50.88729051039052
    }, 
    {
      "latmax": 50.870297579182434, 
      "name": "Schoolstraat", 
      "lonmin": 3.142990734022945, 
      "sanName": "schoolstraat", 
      "numOfAddr": 38, 
      "lonmax": 3.1453234859801182, 
      "latmin": 50.868946129705336
    }, 
    {
      "latmax": 50.88031078467011, 
      "name": "Schouthoek", 
      "lonmin": 3.1056909314208045, 
      "sanName": "schouthoek", 
      "numOfAddr": 6, 
      "lonmax": 3.1062086571287253, 
      "latmin": 50.879508846769646
    }, 
    {
      "latmax": 50.86239918012481, 
      "name": "Sint-Eloois-Winkelstraat", 
      "lonmin": 3.1237020109426448, 
      "sanName": "sintelooiswinkelstraat", 
      "numOfAddr": 98, 
      "lonmax": 3.1518716924285677, 
      "latmin": 50.856956783137974
    }, 
    {
      "latmax": 50.86877156139611, 
      "name": "Sint-Jansplein", 
      "lonmin": 3.1444432733849315, 
      "sanName": "sintjansplein", 
      "numOfAddr": 16, 
      "lonmax": 3.1461866941571737, 
      "latmin": 50.86772955583863
    }, 
    {
      "latmax": 50.874845588664314, 
      "name": "Sint Pieterstraat", 
      "lonmin": 3.1120900843228188, 
      "sanName": "sintpieterstraat", 
      "numOfAddr": 109, 
      "lonmax": 3.123952470968039, 
      "latmin": 50.8591790785162
    }, 
    {
      "latmax": 50.86894977289646, 
      "name": "Slypsstraat", 
      "lonmin": 3.0974456252902605, 
      "sanName": "slypsstraat", 
      "numOfAddr": 35, 
      "lonmax": 3.109148730274124, 
      "latmin": 50.86214547799346
    }, 
    {
      "latmax": 50.87286421124079, 
      "name": "Smisseknokstraat", 
      "lonmin": 3.1836269438136826, 
      "sanName": "smisseknokstraat", 
      "numOfAddr": 8, 
      "lonmax": 3.1852744039134095, 
      "latmin": 50.87242342243615
    }, 
    {
      "latmax": 50.877313792917995, 
      "name": "Smissestraat", 
      "lonmin": 3.181627463508127, 
      "sanName": "smissestraat", 
      "numOfAddr": 60, 
      "lonmax": 3.183543535749158, 
      "latmin": 50.87290748439719
    }, 
    {
      "latmax": 50.87301335825927, 
      "name": "Soldatenstraat", 
      "lonmin": 3.117565893116709, 
      "sanName": "soldatenstraat", 
      "numOfAddr": 6, 
      "lonmax": 3.1293391321850668, 
      "latmin": 50.86987898632826
    }, 
    {
      "latmax": 50.85941443495898, 
      "name": "Stationsstraat", 
      "lonmin": 3.1226338912512652, 
      "sanName": "stationsstraat", 
      "numOfAddr": 143, 
      "lonmax": 3.125889423014404, 
      "latmin": 50.854245465675255
    }, 
    {
      "latmax": 50.863673056001005, 
      "name": "Steenbeekpad", 
      "lonmin": 3.1892324062530184, 
      "sanName": "steenbeekpad", 
      "numOfAddr": 6, 
      "lonmax": 3.1948016745649306, 
      "latmin": 50.859863366602745
    }, 
    {
      "latmax": 50.86991129396789, 
      "name": "Stenen Stampkot", 
      "lonmin": 3.1768632978911033, 
      "sanName": "stenenstampkot", 
      "numOfAddr": 45, 
      "lonmax": 3.1787185955685886, 
      "latmin": 50.867940955758726
    }, 
    {
      "latmax": 50.876084622167056, 
      "name": "St.-Hubrechtsplein", 
      "lonmin": 3.180305920962051, 
      "sanName": "sthubrechtsplein", 
      "numOfAddr": 23, 
      "lonmax": 3.1821722013551974, 
      "latmin": 50.875261123893665
    }, 
    {
      "latmax": 50.86162351208539, 
      "name": "Stijn Streuvelslaan", 
      "lonmin": 3.128550943663324, 
      "sanName": "stijnstreuvelslaan", 
      "numOfAddr": 21, 
      "lonmax": 3.129356431001505, 
      "latmin": 50.86009503331162
    }, 
    {
      "latmax": 50.869054593779616, 
      "name": "St Janstraat", 
      "lonmin": 3.1461343844659817, 
      "sanName": "stjanstraat", 
      "numOfAddr": 30, 
      "lonmax": 3.1484411115821342, 
      "latmin": 50.868259741959065
    }, 
    {
      "latmax": 50.87361942174518, 
      "name": "St.-Katherinepad", 
      "lonmin": 3.1912750066627957, 
      "sanName": "stkatherinepad", 
      "numOfAddr": 11, 
      "lonmax": 3.1952216323162506, 
      "latmin": 50.87234462231496
    }, 
    {
      "latmax": 50.8768171905342, 
      "name": "St.-Katherinestraat", 
      "lonmin": 3.195666642598519, 
      "sanName": "stkatherinestraat", 
      "numOfAddr": 4, 
      "lonmax": 3.2048086045754305, 
      "latmin": 50.87500495994547
    }, 
    {
      "latmax": 50.876085215705935, 
      "name": "St.-Michielsplein", 
      "lonmin": 3.1744789342023734, 
      "sanName": "stmichielsplein", 
      "numOfAddr": 12, 
      "lonmax": 3.175459997214493, 
      "latmin": 50.87549524844668
    }, 
    {
      "latmax": 50.86146907292777, 
      "name": "Ter Hulst", 
      "lonmin": 3.1269872996174377, 
      "sanName": "terhulst", 
      "numOfAddr": 37, 
      "lonmax": 3.1290097220792394, 
      "latmin": 50.85938509903073
    }, 
    {
      "latmax": 50.87381758911698, 
      "name": "Terschuerenlaan", 
      "lonmin": 3.177810203336137, 
      "sanName": "terschuerenlaan", 
      "numOfAddr": 37, 
      "lonmax": 3.1810684564365928, 
      "latmin": 50.872548301955625
    }, 
    {
      "latmax": 50.866740263451966, 
      "name": "'t Lindeke", 
      "lonmin": 3.1750937810935356, 
      "sanName": "tlindeke", 
      "numOfAddr": 38, 
      "lonmax": 3.1816268111752124, 
      "latmin": 50.86469588669903
    }, 
    {
      "latmax": 50.86842619609459, 
      "name": "Tuileboomstraat", 
      "lonmin": 3.172946814044844, 
      "sanName": "tuileboomstraat", 
      "numOfAddr": 65, 
      "lonmax": 3.1918590811004495, 
      "latmin": 50.8666708498656
    }, 
    {
      "latmax": 50.87080286918703, 
      "name": "Tulpenstraat", 
      "lonmin": 3.1450152570206114, 
      "sanName": "tulpenstraat", 
      "numOfAddr": 17, 
      "lonmax": 3.1456233293993145, 
      "latmin": 50.87016254832867
    }, 
    {
      "latmax": 50.890197310563444, 
      "name": "Veldstraat", 
      "lonmin": 3.1174436283883455, 
      "sanName": "veldstraat", 
      "numOfAddr": 12, 
      "lonmax": 3.127033168194962, 
      "latmin": 50.887808733361275
    }, 
    {
      "latmax": 50.86815421881711, 
      "name": "Vlasbloemstraat", 
      "lonmin": 3.132738494685405, 
      "sanName": "vlasbloemstraat", 
      "numOfAddr": 3, 
      "lonmax": 3.133580123830132, 
      "latmin": 50.86742862147594
    }, 
    {
      "latmax": 50.872446228020564, 
      "name": "Vlaschaardlaan", 
      "lonmin": 3.1776031442458117, 
      "sanName": "vlaschaardlaan", 
      "numOfAddr": 77, 
      "lonmax": 3.1807028894067373, 
      "latmin": 50.86987104850968
    }, 
    {
      "latmax": 50.88948178124813, 
      "name": "Vlinderbeekstraat", 
      "lonmin": 3.175223775401712, 
      "sanName": "vlinderbeekstraat", 
      "numOfAddr": 7, 
      "lonmax": 3.1792257438875855, 
      "latmin": 50.88815646526535
    }, 
    {
      "latmax": 50.86690153214127, 
      "name": "Waterpachtgoedstraat", 
      "lonmin": 3.153160208461711, 
      "sanName": "waterpachtgoedstraat", 
      "numOfAddr": 8, 
      "lonmax": 3.164285868241247, 
      "latmin": 50.8635187439165
    }, 
    {
      "latmax": 50.85708676339458, 
      "name": "Wulfsdam", 
      "lonmin": 3.1328444448597437, 
      "sanName": "wulfsdam", 
      "numOfAddr": 26, 
      "lonmax": 3.134278406714482, 
      "latmin": 50.855507963195194
    }, 
    {
      "latmax": 50.864375475876386, 
      "name": "Zuidhoekstraat", 
      "lonmin": 3.1857494213000455, 
      "sanName": "zuidhoekstraat", 
      "numOfAddr": 17, 
      "lonmax": 3.1938841147550976, 
      "latmin": 50.860490093531226
    }, 
    {
      "latmax": 50.86723783024839, 
      "name": "Zuidhoekweg", 
      "lonmin": 3.187302538103927, 
      "sanName": "zuidhoekweg", 
      "numOfAddr": 11, 
      "lonmax": 3.1897570981830348, 
      "latmin": 50.86492715849486
    }
  ]
}