{
  "streets": [
    {
      "latmax": 50.74590369143847, 
      "name": "Bassevillestraat", 
      "lonmin": 2.827580976108346, 
      "sanName": "bassevillestraat", 
      "numOfAddr": 25, 
      "lonmax": 2.82953073836393, 
      "latmin": 50.745156408925396
    }, 
    {
      "latmax": 50.74678354344905, 
      "name": "Bloementuil", 
      "lonmin": 2.8284241439036, 
      "sanName": "bloementuil", 
      "numOfAddr": 20, 
      "lonmax": 2.8296773346867385, 
      "latmin": 50.74564319529648
    }, 
    {
      "latmax": 50.72785760654823, 
      "name": "Broekenstraat", 
      "lonmin": 2.7977765734964364, 
      "sanName": "broekenstraat", 
      "numOfAddr": 16, 
      "lonmax": 2.8085836080652307, 
      "latmin": 50.723891656815994
    }, 
    {
      "latmax": 50.7512936796502, 
      "name": "Dranouterstraat", 
      "lonmin": 2.8084575806466274, 
      "sanName": "dranouterstraat", 
      "numOfAddr": 44, 
      "lonmax": 2.8232812547921404, 
      "latmin": 50.74552352574988
    }, 
    {
      "latmax": 50.73751337685288, 
      "name": "Eikelstraat", 
      "lonmin": 2.803452159087321, 
      "sanName": "eikelstraat", 
      "numOfAddr": 7, 
      "lonmax": 2.8156258277736432, 
      "latmin": 50.733305038251736
    }, 
    {
      "latmax": 50.72445385330739, 
      "name": "Groenestraat", 
      "lonmin": 2.8120839231578785, 
      "sanName": "groenestraat", 
      "numOfAddr": 7, 
      "lonmax": 2.827549967105453, 
      "latmin": 50.718490612513676
    }, 
    {
      "latmax": 50.746033632595804, 
      "name": "Heirweg", 
      "lonmin": 2.799532662990523, 
      "sanName": "heirweg", 
      "numOfAddr": 47, 
      "lonmax": 2.8227614779955044, 
      "latmin": 50.74086327137493
    }, 
    {
      "latmax": 50.74605991679607, 
      "name": "Kauwakkerstraat", 
      "lonmin": 2.7989512957922282, 
      "sanName": "kauwakkerstraat", 
      "numOfAddr": 1, 
      "lonmax": 2.7989512957922282, 
      "latmin": 50.74605991679607
    }, 
    {
      "latmax": 50.76074693303993, 
      "name": "Kemmelstraat", 
      "lonmin": 2.826220459809054, 
      "sanName": "kemmelstraat", 
      "numOfAddr": 30, 
      "lonmax": 2.8308813264587718, 
      "latmin": 50.7477265938145
    }, 
    {
      "latmax": 50.74756776157788, 
      "name": "Kleurenwaaier", 
      "lonmin": 2.830664663821902, 
      "sanName": "kleurenwaaier", 
      "numOfAddr": 18, 
      "lonmax": 2.8317229450401604, 
      "latmin": 50.74611284422169
    }, 
    {
      "latmax": 50.74625616288772, 
      "name": "Korte Mooiaardstraat", 
      "lonmin": 2.815286849225563, 
      "sanName": "kortemooiaardstraat", 
      "numOfAddr": 3, 
      "lonmax": 2.816648057813819, 
      "latmin": 50.744286508648564
    }, 
    {
      "latmax": 50.73745558651751, 
      "name": "Kortepijpstraat", 
      "lonmin": 2.819226761614715, 
      "sanName": "kortepijpstraat", 
      "numOfAddr": 2, 
      "lonmax": 2.824411031535871, 
      "latmin": 50.73422116935916
    }, 
    {
      "latmax": 50.75168777921313, 
      "name": "Leeuwerkstraat", 
      "lonmin": 2.841241328960567, 
      "sanName": "leeuwerkstraat", 
      "numOfAddr": 5, 
      "lonmax": 2.848449181918805, 
      "latmin": 50.74539807927246
    }, 
    {
      "latmax": 50.75834946382108, 
      "name": "Makkestraat", 
      "lonmin": 2.8394888344648805, 
      "sanName": "makkestraat", 
      "numOfAddr": 1, 
      "lonmax": 2.8394888344648805, 
      "latmin": 50.75834946382108
    }, 
    {
      "latmax": 50.746736563710755, 
      "name": "Markt", 
      "lonmin": 2.8244977768470445, 
      "sanName": "markt", 
      "numOfAddr": 49, 
      "lonmax": 2.8275347859769484, 
      "latmin": 50.74506323795845
    }, 
    {
      "latmax": 50.72294792686339, 
      "name": "Mitoyenstraat", 
      "lonmin": 2.8483695113470118, 
      "sanName": "mitoyenstraat", 
      "numOfAddr": 8, 
      "lonmax": 2.8692944459849863, 
      "latmin": 50.711706271766474
    }, 
    {
      "latmax": 50.74718826219193, 
      "name": "Naaikorfstraat", 
      "lonmin": 2.8354162385825243, 
      "sanName": "naaikorfstraat", 
      "numOfAddr": 3, 
      "lonmax": 2.8375514356525446, 
      "latmin": 50.746739325709505
    }, 
    {
      "latmax": 50.74518032376092, 
      "name": "Niepkerkestraat", 
      "lonmin": 2.8260408283492944, 
      "sanName": "niepkerkestraat", 
      "numOfAddr": 88, 
      "lonmax": 2.8408068729967306, 
      "latmin": 50.72095714554218
    }, 
    {
      "latmax": 50.757974777157976, 
      "name": "Nieuwkerkestraat", 
      "lonmin": 2.8266676399881723, 
      "sanName": "nieuwkerkestraat", 
      "numOfAddr": 78, 
      "lonmax": 2.8508771742990806, 
      "latmin": 50.746545829299436
    }, 
    {
      "latmax": 50.75975681147012, 
      "name": "Noordhoekstraat", 
      "lonmin": 2.8120566288010007, 
      "sanName": "noordhoekstraat", 
      "numOfAddr": 3, 
      "lonmax": 2.8188674343052598, 
      "latmin": 50.75273755204936
    }, 
    {
      "latmax": 50.7320462464172, 
      "name": "Oostkerkweg", 
      "lonmin": 2.841870720397773, 
      "sanName": "oostkerkweg", 
      "numOfAddr": 1, 
      "lonmax": 2.841870720397773, 
      "latmin": 50.7320462464172
    }, 
    {
      "latmax": 50.72409075192995, 
      "name": "Ploegsteertstraat", 
      "lonmin": 2.8422866258992374, 
      "sanName": "ploegsteertstraat", 
      "numOfAddr": 8, 
      "lonmax": 2.8524957010518017, 
      "latmin": 50.721810225931044
    }, 
    {
      "latmax": 50.72746208381128, 
      "name": "Potteriestraat", 
      "lonmin": 2.814900909828325, 
      "sanName": "potteriestraat", 
      "numOfAddr": 2, 
      "lonmax": 2.815456976659062, 
      "latmin": 50.726764602451524
    }, 
    {
      "latmax": 50.75698724486183, 
      "name": "Rozestraat", 
      "lonmin": 2.8168697559820184, 
      "sanName": "rozestraat", 
      "numOfAddr": 3, 
      "lonmax": 2.81917698753907, 
      "latmin": 50.752804462727674
    }, 
    {
      "latmax": 50.74595889589967, 
      "name": "Seulestraat", 
      "lonmin": 2.8043014791056344, 
      "sanName": "seulestraat", 
      "numOfAddr": 122, 
      "lonmax": 2.824448922239075, 
      "latmin": 50.72109808620136
    }, 
    {
      "latmax": 50.75524713897192, 
      "name": "Smijterstraat", 
      "lonmin": 2.8056951683280533, 
      "sanName": "smijterstraat", 
      "numOfAddr": 2, 
      "lonmax": 2.8064197050935342, 
      "latmin": 50.75339452553487
    }, 
    {
      "latmax": 50.72967491114704, 
      "name": "Spiervelden", 
      "lonmin": 2.818857022823409, 
      "sanName": "spiervelden", 
      "numOfAddr": 4, 
      "lonmax": 2.8301370361130918, 
      "latmin": 50.72828154508621
    }, 
    {
      "latmax": 50.74494390363567, 
      "name": "Steenwerkstraat", 
      "lonmin": 2.821880490956511, 
      "sanName": "steenwerkstraat", 
      "numOfAddr": 35, 
      "lonmax": 2.825790316855844, 
      "latmin": 50.74247713127367
    }, 
    {
      "latmax": 50.7268706514674, 
      "name": "Temmersdreef", 
      "lonmin": 2.8274142373461464, 
      "sanName": "temmersdreef", 
      "numOfAddr": 1, 
      "lonmax": 2.8274142373461464, 
      "latmin": 50.7268706514674
    }, 
    {
      "latmax": 50.747288480652756, 
      "name": "Vogelweelde", 
      "lonmin": 2.8297396903071235, 
      "sanName": "vogelweelde", 
      "numOfAddr": 25, 
      "lonmax": 2.8308402097958174, 
      "latmin": 50.74589275489211
    }, 
    {
      "latmax": 50.743691131106516, 
      "name": "Waterstraat", 
      "lonmin": 2.8396206732939544, 
      "sanName": "waterstraat", 
      "numOfAddr": 3, 
      "lonmax": 2.8443310692260986, 
      "latmin": 50.74278936885426
    }, 
    {
      "latmax": 50.74106357425309, 
      "name": "Westhovestraat", 
      "lonmin": 2.7897973247650034, 
      "sanName": "westhovestraat", 
      "numOfAddr": 10, 
      "lonmax": 2.8034312652470312, 
      "latmin": 50.7261114263876
    }, 
    {
      "latmax": 50.72069459863632, 
      "name": "Zakstraat", 
      "lonmin": 2.8196460130684193, 
      "sanName": "zakstraat", 
      "numOfAddr": 20, 
      "lonmax": 2.8396265551339215, 
      "latmin": 50.716075160616825
    }, 
    {
      "latmax": 50.74693238151065, 
      "name": "Zuidlindestraat", 
      "lonmin": 2.8314734988407526, 
      "sanName": "zuidlindestraat", 
      "numOfAddr": 13, 
      "lonmax": 2.8489439223168542, 
      "latmin": 50.72619913757256
    }
  ]
}