{
  "streets": [
    {
      "latmax": 50.7979530284745, 
      "name": "Basseieweg", 
      "lonmin": 2.8437707158421373, 
      "sanName": "basseieweg", 
      "numOfAddr": 3, 
      "lonmax": 2.844344218210719, 
      "latmin": 50.79644038203966
    }, 
    {
      "latmax": 50.78280672560542, 
      "name": "Bergstraat", 
      "lonmin": 2.8200567514066295, 
      "sanName": "bergstraat", 
      "numOfAddr": 25, 
      "lonmax": 2.8250249840590516, 
      "latmin": 50.77841048741512
    }, 
    {
      "latmax": 50.796425441958135, 
      "name": "Briekeriestraat", 
      "lonmin": 2.843678112732669, 
      "sanName": "briekeriestraat", 
      "numOfAddr": 6, 
      "lonmax": 2.8560007076636302, 
      "latmin": 50.789947559915184
    }, 
    {
      "latmax": 50.786298376974045, 
      "name": "Burgkouter", 
      "lonmin": 2.8360906915277955, 
      "sanName": "burgkouter", 
      "numOfAddr": 3, 
      "lonmax": 2.8408101048250427, 
      "latmin": 50.78568096696643
    }, 
    {
      "latmax": 50.783500398271144, 
      "name": "Dries", 
      "lonmin": 2.8249819723423233, 
      "sanName": "dries", 
      "numOfAddr": 28, 
      "lonmax": 2.826873498416614, 
      "latmin": 50.78231760647439
    }, 
    {
      "latmax": 50.77798210730512, 
      "name": "Gremmerslinde", 
      "lonmin": 2.822989758753329, 
      "sanName": "gremmerslinde", 
      "numOfAddr": 7, 
      "lonmax": 2.851424691959137, 
      "latmin": 50.77578989987732
    }, 
    {
      "latmax": 50.79003244921235, 
      "name": "Hogenakkerstraat", 
      "lonmin": 2.824091279364435, 
      "sanName": "hogenakkerstraat", 
      "numOfAddr": 15, 
      "lonmax": 2.8260442879098915, 
      "latmin": 50.78606728797375
    }, 
    {
      "latmax": 50.78197132772071, 
      "name": "Jonkershofweg", 
      "lonmin": 2.8324116543106705, 
      "sanName": "jonkershofweg", 
      "numOfAddr": 3, 
      "lonmax": 2.8338047776629036, 
      "latmin": 50.780135146600635
    }, 
    {
      "latmax": 50.78292982042829, 
      "name": "Kasteeldreef", 
      "lonmin": 2.8268185006949498, 
      "sanName": "kasteeldreef", 
      "numOfAddr": 11, 
      "lonmax": 2.8284102941571634, 
      "latmin": 50.78220783200629
    }, 
    {
      "latmax": 50.78189509474463, 
      "name": "Kattekerkhofstraat", 
      "lonmin": 2.818889886550446, 
      "sanName": "kattekerkhofstraat", 
      "numOfAddr": 6, 
      "lonmax": 2.8210843843997417, 
      "latmin": 50.776994078564044
    }, 
    {
      "latmax": 50.78265526550269, 
      "name": "Kemmelbergweg", 
      "lonmin": 2.7949739115902457, 
      "sanName": "kemmelbergweg", 
      "numOfAddr": 6, 
      "lonmax": 2.8157318653719714, 
      "latmin": 50.77855534858882
    }, 
    {
      "latmax": 50.80172942449454, 
      "name": "Kemmelstraat", 
      "lonmin": 2.8265261026016164, 
      "sanName": "kemmelstraat", 
      "numOfAddr": 75, 
      "lonmax": 2.852522214513497, 
      "latmin": 50.77598024559464
    }, 
    {
      "latmax": 50.78595341769845, 
      "name": "Klareputstraat", 
      "lonmin": 2.8029469495637436, 
      "sanName": "klareputstraat", 
      "numOfAddr": 2, 
      "lonmax": 2.803943868676347, 
      "latmin": 50.785593223071984
    }, 
    {
      "latmax": 50.80582398893091, 
      "name": "Kriekstraat", 
      "lonmin": 2.8212046573306617, 
      "sanName": "kriekstraat", 
      "numOfAddr": 15, 
      "lonmax": 2.8478789583247455, 
      "latmin": 50.78745391837195
    }, 
    {
      "latmax": 50.78360408228845, 
      "name": "Lokerstraat", 
      "lonmin": 2.8011511026662537, 
      "sanName": "lokerstraat", 
      "numOfAddr": 35, 
      "lonmax": 2.825425226212238, 
      "latmin": 50.780519219558066
    }, 
    {
      "latmax": 50.78431417683202, 
      "name": "Madelstedestraat", 
      "lonmin": 2.857293005401521, 
      "sanName": "madelstedestraat", 
      "numOfAddr": 2, 
      "lonmax": 2.8612144509350412, 
      "latmin": 50.78331136162171
    }, 
    {
      "latmax": 50.796222295407055, 
      "name": "Mandestraat", 
      "lonmin": 2.858312341409625, 
      "sanName": "mandestraat", 
      "numOfAddr": 6, 
      "lonmax": 2.8638553604120927, 
      "latmin": 50.790297608215816
    }, 
    {
      "latmax": 50.79662844404412, 
      "name": "Millekruisestraat", 
      "lonmin": 2.8177592740512365, 
      "sanName": "millekruisestraat", 
      "numOfAddr": 6, 
      "lonmax": 2.821642170405778, 
      "latmin": 50.79125505133347
    }, 
    {
      "latmax": 50.80361639863584, 
      "name": "Molenstraat", 
      "lonmin": 2.8294667254825394, 
      "sanName": "molenstraat", 
      "numOfAddr": 4, 
      "lonmax": 2.835855305706659, 
      "latmin": 50.79926348399704
    }, 
    {
      "latmax": 50.79712232661763, 
      "name": "Moteweg", 
      "lonmin": 2.8459246336462884, 
      "sanName": "moteweg", 
      "numOfAddr": 3, 
      "lonmax": 2.8473904220778317, 
      "latmin": 50.79685931855912
    }, 
    {
      "latmax": 50.79582764481165, 
      "name": "Nieuwstraat", 
      "lonmin": 2.8266925438040142, 
      "sanName": "nieuwstraat", 
      "numOfAddr": 43, 
      "lonmax": 2.8367140101743513, 
      "latmin": 50.784205635557136
    }, 
    {
      "latmax": 50.79106823002329, 
      "name": "Noordstraat", 
      "lonmin": 2.8028582517753957, 
      "sanName": "noordstraat", 
      "numOfAddr": 3, 
      "lonmax": 2.806874938971115, 
      "latmin": 50.788978643230685
    }, 
    {
      "latmax": 50.787979808238354, 
      "name": "Oosthoekstraat", 
      "lonmin": 2.8417141020113497, 
      "sanName": "oosthoekstraat", 
      "numOfAddr": 7, 
      "lonmax": 2.8656877815486212, 
      "latmin": 50.78276309405376
    }, 
    {
      "latmax": 50.78550150869692, 
      "name": "Pingelarestraat", 
      "lonmin": 2.820179216853396, 
      "sanName": "pingelarestraat", 
      "numOfAddr": 1, 
      "lonmax": 2.820179216853396, 
      "latmin": 50.78550150869692
    }, 
    {
      "latmax": 50.78369468419869, 
      "name": "Polenlaan", 
      "lonmin": 2.8266087453735564, 
      "sanName": "polenlaan", 
      "numOfAddr": 13, 
      "lonmax": 2.82779099879326, 
      "latmin": 50.7831302984156
    }, 
    {
      "latmax": 50.79343349512207, 
      "name": "Reningelststraat", 
      "lonmin": 2.8112586498865246, 
      "sanName": "reningelststraat", 
      "numOfAddr": 87, 
      "lonmax": 2.83064860751883, 
      "latmin": 50.78207936945674
    }, 
    {
      "latmax": 50.784065303880865, 
      "name": "Savaardlindestraat", 
      "lonmin": 2.8528042992809275, 
      "sanName": "savaardlindestraat", 
      "numOfAddr": 1, 
      "lonmax": 2.8528042992809275, 
      "latmin": 50.784065303880865
    }, 
    {
      "latmax": 50.78372481153325, 
      "name": "St.-Laurentiusplein", 
      "lonmin": 2.8256481949821035, 
      "sanName": "stlaurentiusplein", 
      "numOfAddr": 2, 
      "lonmax": 2.8257413635044437, 
      "latmin": 50.78350457537598
    }, 
    {
      "latmax": 50.78698714730982, 
      "name": "Terrierstraat", 
      "lonmin": 2.809036751712406, 
      "sanName": "terrierstraat", 
      "numOfAddr": 4, 
      "lonmax": 2.8165063779729027, 
      "latmin": 50.78321369551749
    }, 
    {
      "latmax": 50.805223755337195, 
      "name": "Vierstraat", 
      "lonmin": 2.8404780780626244, 
      "sanName": "vierstraat", 
      "numOfAddr": 14, 
      "lonmax": 2.8515935988233228, 
      "latmin": 50.80093296352467
    }, 
    {
      "latmax": 50.81185795015533, 
      "name": "Vijverstraat", 
      "lonmin": 2.8437158955387467, 
      "sanName": "vijverstraat", 
      "numOfAddr": 2, 
      "lonmax": 2.846198917366879, 
      "latmin": 50.81004131331167
    }, 
    {
      "latmax": 50.77915519709701, 
      "name": "Vrooilandstraat", 
      "lonmin": 2.839899802214934, 
      "sanName": "vrooilandstraat", 
      "numOfAddr": 1, 
      "lonmax": 2.839899802214934, 
      "latmin": 50.77915519709701
    }, 
    {
      "latmax": 50.78347510869155, 
      "name": "Wijtschatestraat", 
      "lonmin": 2.831546452177704, 
      "sanName": "wijtschatestraat", 
      "numOfAddr": 53, 
      "lonmax": 2.866309981793486, 
      "latmin": 50.77886298244517
    }, 
    {
      "latmax": 50.78681440721439, 
      "name": "Willebeek", 
      "lonmin": 2.8250668025234655, 
      "sanName": "willebeek", 
      "numOfAddr": 33, 
      "lonmax": 2.828252574596733, 
      "latmin": 50.78494754852134
    }
  ]
}