{
  "streets": [
    {
      "latmax": 50.76235267788488, 
      "name": "Armentierssteenweg", 
      "lonmin": 2.893453516042097, 
      "sanName": "armentierssteenweg", 
      "numOfAddr": 20, 
      "lonmax": 2.89599852876852, 
      "latmin": 50.7558047528822
    }, 
    {
      "latmax": 50.763810707835695, 
      "name": "Armentiersstraat", 
      "lonmin": 2.8952484757946206, 
      "sanName": "armentiersstraat", 
      "numOfAddr": 39, 
      "lonmax": 2.897674177938553, 
      "latmin": 50.76246237850746
    }, 
    {
      "latmax": 50.763595358157076, 
      "name": "Daalstraat", 
      "lonmin": 2.897455665891196, 
      "sanName": "daalstraat", 
      "numOfAddr": 19, 
      "lonmax": 2.898860566987625, 
      "latmin": 50.76237525607225
    }, 
    {
      "latmax": 50.76497236611711, 
      "name": "Fran\u0087ois Deleustraat", 
      "lonmin": 2.898791943554959, 
      "sanName": "franoisdeleustraat", 
      "numOfAddr": 6, 
      "lonmax": 2.899230536234021, 
      "latmin": 50.764792129291685
    }, 
    {
      "latmax": 50.76482350192853, 
      "name": "Gentstraat", 
      "lonmin": 2.8968203389445923, 
      "sanName": "gentstraat", 
      "numOfAddr": 24, 
      "lonmax": 2.8978125415650515, 
      "latmin": 50.76379938339707
    }, 
    {
      "latmax": 50.76633540715749, 
      "name": "Ieperstraat", 
      "lonmin": 2.8962644154847945, 
      "sanName": "ieperstraat", 
      "numOfAddr": 29, 
      "lonmax": 2.8970508401198956, 
      "latmin": 50.765321531461346
    }, 
    {
      "latmax": 50.764188541605776, 
      "name": "Kerkstraat", 
      "lonmin": 2.897815698961685, 
      "sanName": "kerkstraat", 
      "numOfAddr": 7, 
      "lonmax": 2.8991266717852624, 
      "latmin": 50.763439096294306
    }, 
    {
      "latmax": 50.76662264356979, 
      "name": "Ketelstraat", 
      "lonmin": 2.8974973345720483, 
      "sanName": "ketelstraat", 
      "numOfAddr": 19, 
      "lonmax": 2.8981266555903242, 
      "latmin": 50.76574412193963
    }, 
    {
      "latmax": 50.76597701354427, 
      "name": "Klaprozenwijk", 
      "lonmin": 2.8940947396111887, 
      "sanName": "klaprozenwijk", 
      "numOfAddr": 33, 
      "lonmax": 2.8956713288065425, 
      "latmin": 50.764901624047205
    }, 
    {
      "latmax": 50.765018229539784, 
      "name": "Korte Mooiestraat", 
      "lonmin": 2.898109340984567, 
      "sanName": "kortemooiestraat", 
      "numOfAddr": 16, 
      "lonmax": 2.8987329315541692, 
      "latmin": 50.76420160941087
    }, 
    {
      "latmax": 50.764981768152346, 
      "name": "Maarschalk Plumerplein", 
      "lonmin": 2.8949590983089304, 
      "sanName": "maarschalkplumerplein", 
      "numOfAddr": 24, 
      "lonmax": 2.8960453434258615, 
      "latmin": 50.76431289461926
    }, 
    {
      "latmax": 50.765879880769646, 
      "name": "Markt", 
      "lonmin": 2.8966647727378247, 
      "sanName": "markt", 
      "numOfAddr": 39, 
      "lonmax": 2.8995976779959896, 
      "latmin": 50.764880025812445
    }, 
    {
      "latmax": 50.76627528866371, 
      "name": "Nieuwkerkestraat", 
      "lonmin": 2.8718050937484754, 
      "sanName": "nieuwkerkestraat", 
      "numOfAddr": 10, 
      "lonmax": 2.896199919761774, 
      "latmin": 50.7579061921058
    }, 
    {
      "latmax": 50.76255945219605, 
      "name": "Nieuw Zeelandersstraat", 
      "lonmin": 2.8737619851638074, 
      "sanName": "nieuwzeelandersstraat", 
      "numOfAddr": 36, 
      "lonmax": 2.8949715962423768, 
      "latmin": 50.755619394849106
    }, 
    {
      "latmax": 50.7644991147182, 
      "name": "Omtrek Kerk", 
      "lonmin": 2.8996724621611807, 
      "sanName": "omtrekkerk", 
      "numOfAddr": 5, 
      "lonmax": 2.899780770978074, 
      "latmin": 50.764249251674
    }, 
    {
      "latmax": 50.76494910490592, 
      "name": "Oud Kerkhofstraat", 
      "lonmin": 2.899469159656144, 
      "sanName": "oudkerkhofstraat", 
      "numOfAddr": 6, 
      "lonmax": 2.899597790769101, 
      "latmin": 50.76465229178174
    }, 
    {
      "latmax": 50.765507910300244, 
      "name": "Rijselstraat", 
      "lonmin": 2.899634533838429, 
      "sanName": "rijselstraat", 
      "numOfAddr": 39, 
      "lonmax": 2.914493254618008, 
      "latmin": 50.75596464023276
    }, 
    {
      "latmax": 50.766813718912374, 
      "name": "Slijpstraat", 
      "lonmin": 2.899000408637927, 
      "sanName": "slijpstraat", 
      "numOfAddr": 37, 
      "lonmax": 2.9000430483913533, 
      "latmin": 50.76584931019811
    }, 
    {
      "latmax": 50.76686592382722, 
      "name": "Steenstraat", 
      "lonmin": 2.8969572470465517, 
      "sanName": "steenstraat", 
      "numOfAddr": 19, 
      "lonmax": 2.8996498303741993, 
      "latmin": 50.76634963657941
    }, 
    {
      "latmax": 50.76690698265863, 
      "name": "Vier Koningenstraat", 
      "lonmin": 2.9001528701578136, 
      "sanName": "vierkoningenstraat", 
      "numOfAddr": 22, 
      "lonmax": 2.917204455807183, 
      "latmin": 50.76386225608299
    }, 
    {
      "latmax": 50.76651630268401, 
      "name": "Vredestraat", 
      "lonmin": 2.9014403476494612, 
      "sanName": "vredestraat", 
      "numOfAddr": 4, 
      "lonmax": 2.9018925631644623, 
      "latmin": 50.76503045629811
    }, 
    {
      "latmax": 50.76308378986684, 
      "name": "Waastenstraat", 
      "lonmin": 2.9097689877178183, 
      "sanName": "waastenstraat", 
      "numOfAddr": 5, 
      "lonmax": 2.9141851189622714, 
      "latmin": 50.7620221203687
    }, 
    {
      "latmax": 50.76369840986621, 
      "name": "Wulvergemstraat", 
      "lonmin": 2.8930634165760796, 
      "sanName": "wulvergemstraat", 
      "numOfAddr": 17, 
      "lonmax": 2.8962351915265767, 
      "latmin": 50.76327727407895
    }, 
    {
      "latmax": 50.76437585397943, 
      "name": "Zwijnemarkt", 
      "lonmin": 2.897935035055878, 
      "sanName": "zwijnemarkt", 
      "numOfAddr": 2, 
      "lonmax": 2.898018555698305, 
      "latmin": 50.76431734959505
    }
  ]
}