{
  "streets": [
    {
      "latmax": 50.892019217286105, 
      "name": "Alexisplein", 
      "lonmin": 2.655725802937006, 
      "sanName": "alexisplein", 
      "numOfAddr": 19, 
      "lonmax": 2.6579569436293555, 
      "latmin": 50.890605776678704
    }, 
    {
      "latmax": 50.915691542732986, 
      "name": "Andreas Verbrigghestraat", 
      "lonmin": 2.688878274395841, 
      "sanName": "andreasverbrigghestraat", 
      "numOfAddr": 6, 
      "lonmax": 2.689627994531555, 
      "latmin": 50.915174201148425
    }, 
    {
      "latmax": 50.914562495646415, 
      "name": "Bankelindeweg", 
      "lonmin": 2.6884349588654195, 
      "sanName": "bankelindeweg", 
      "numOfAddr": 60, 
      "lonmax": 2.7014039971842196, 
      "latmin": 50.88264928580113
    }, 
    {
      "latmax": 50.8990224020053, 
      "name": "Barlebuizestraat", 
      "lonmin": 2.6787038331407698, 
      "sanName": "barlebuizestraat", 
      "numOfAddr": 11, 
      "lonmax": 2.695094597723405, 
      "latmin": 50.890449540657386
    }, 
    {
      "latmax": 50.890494170355275, 
      "name": "Baron Mazemanlaan", 
      "lonmin": 2.652045878407494, 
      "sanName": "baronmazemanlaan", 
      "numOfAddr": 25, 
      "lonmax": 2.653464371250867, 
      "latmin": 50.889737761212615
    }, 
    {
      "latmax": 50.921304027379044, 
      "name": "Bergenstraat", 
      "lonmin": 2.620911946581075, 
      "sanName": "bergenstraat", 
      "numOfAddr": 36, 
      "lonmax": 2.6227952476946657, 
      "latmin": 50.920177070278726
    }, 
    {
      "latmax": 50.91462474985701, 
      "name": "Blasiusstraat", 
      "lonmin": 2.6523915796873383, 
      "sanName": "blasiusstraat", 
      "numOfAddr": 92, 
      "lonmax": 2.68773465014355, 
      "latmin": 50.89280135362895
    }, 
    {
      "latmax": 50.88817526852212, 
      "name": "Blekerijweg", 
      "lonmin": 2.6225736827266837, 
      "sanName": "blekerijweg", 
      "numOfAddr": 73, 
      "lonmax": 2.659332546474353, 
      "latmin": 50.87350880254442
    }, 
    {
      "latmax": 50.901412196245175, 
      "name": "Blokstraat", 
      "lonmin": 2.6323210348849235, 
      "sanName": "blokstraat", 
      "numOfAddr": 22, 
      "lonmax": 2.6474293109858853, 
      "latmin": 50.87447159360639
    }, 
    {
      "latmax": 50.89046380045424, 
      "name": "Blokweg", 
      "lonmin": 2.6514876601685056, 
      "sanName": "blokweg", 
      "numOfAddr": 19, 
      "lonmax": 2.655297842962714, 
      "latmin": 50.88740487469533
    }, 
    {
      "latmax": 50.90674867038844, 
      "name": "Bromstraat", 
      "lonmin": 2.6549767608281765, 
      "sanName": "bromstraat", 
      "numOfAddr": 9, 
      "lonmax": 2.674406311135829, 
      "latmin": 50.89777222507845
    }, 
    {
      "latmax": 50.887697769229035, 
      "name": "Canadaweg", 
      "lonmin": 2.6790173104903814, 
      "sanName": "canadaweg", 
      "numOfAddr": 25, 
      "lonmax": 2.690548530848952, 
      "latmin": 50.87798329989414
    }, 
    {
      "latmax": 50.878228714791895, 
      "name": "Canonstraat", 
      "lonmin": 2.684505310974888, 
      "sanName": "canonstraat", 
      "numOfAddr": 6, 
      "lonmax": 2.6969708140197906, 
      "latmin": 50.875548072639894
    }, 
    {
      "latmax": 50.90236887635218, 
      "name": "Coeyaardstraat", 
      "lonmin": 2.693710169588884, 
      "sanName": "coeyaardstraat", 
      "numOfAddr": 2, 
      "lonmax": 2.694386473045514, 
      "latmin": 50.902257537648225
    }, 
    {
      "latmax": 50.88874155050211, 
      "name": "Couthoflaan", 
      "lonmin": 2.6560229259681627, 
      "sanName": "couthoflaan", 
      "numOfAddr": 46, 
      "lonmax": 2.6791776968055103, 
      "latmin": 50.87423399552764
    }, 
    {
      "latmax": 50.90873163815463, 
      "name": "Doornhoek", 
      "lonmin": 2.6868120521146763, 
      "sanName": "doornhoek", 
      "numOfAddr": 2, 
      "lonmax": 2.687047305795871, 
      "latmin": 50.90745388199789
    }, 
    {
      "latmax": 50.858506104473996, 
      "name": "Douvieweg", 
      "lonmin": 2.622882524640403, 
      "sanName": "douvieweg", 
      "numOfAddr": 1, 
      "lonmax": 2.622882524640403, 
      "latmin": 50.858506104473996
    }, 
    {
      "latmax": 50.91619567435025, 
      "name": "Dr. J. Gheysenstraat", 
      "lonmin": 2.627017749416325, 
      "sanName": "drjgheysenstraat", 
      "numOfAddr": 12, 
      "lonmax": 2.627961112996794, 
      "latmin": 50.91572995004613
    }, 
    {
      "latmax": 50.855387510112955, 
      "name": "Duinkerkestraat", 
      "lonmin": 2.7164528184068204, 
      "sanName": "duinkerkestraat", 
      "numOfAddr": 1, 
      "lonmax": 2.7164528184068204, 
      "latmin": 50.855387510112955
    }, 
    {
      "latmax": 50.88908107974285, 
      "name": "Eekhoute", 
      "lonmin": 2.653065706336624, 
      "sanName": "eekhoute", 
      "numOfAddr": 84, 
      "lonmax": 2.658010870800242, 
      "latmin": 50.886536847430065
    }, 
    {
      "latmax": 50.89832051731618, 
      "name": "Eikenkappersdreef", 
      "lonmin": 2.6897431005366825, 
      "sanName": "eikenkappersdreef", 
      "numOfAddr": 2, 
      "lonmax": 2.693633035611807, 
      "latmin": 50.897700561910234
    }, 
    {
      "latmax": 50.915517622517044, 
      "name": "Graaf van Hoornweg", 
      "lonmin": 2.6896633731268946, 
      "sanName": "graafvanhoornweg", 
      "numOfAddr": 13, 
      "lonmax": 2.6934269441955183, 
      "latmin": 50.913971855458996
    }, 
    {
      "latmax": 50.874663588604236, 
      "name": "Gravendreef", 
      "lonmin": 2.6565432685844583, 
      "sanName": "gravendreef", 
      "numOfAddr": 7, 
      "lonmax": 2.673879986846245, 
      "latmin": 50.86863868631639
    }, 
    {
      "latmax": 50.911121142193245, 
      "name": "Haandekotstraat", 
      "lonmin": 2.623190815028163, 
      "sanName": "haandekotstraat", 
      "numOfAddr": 11, 
      "lonmax": 2.626554530195358, 
      "latmin": 50.90014338487251
    }, 
    {
      "latmax": 50.91330932805769, 
      "name": "Handstraat", 
      "lonmin": 2.6706477411647183, 
      "sanName": "handstraat", 
      "numOfAddr": 6, 
      "lonmax": 2.675618492764119, 
      "latmin": 50.90766829550161
    }, 
    {
      "latmax": 50.90299663752686, 
      "name": "Hapjesstraat", 
      "lonmin": 2.6703362551109553, 
      "sanName": "hapjesstraat", 
      "numOfAddr": 10, 
      "lonmax": 2.6772770401393435, 
      "latmin": 50.90146438245653
    }, 
    {
      "latmax": 50.90677900331447, 
      "name": "Haringeplein", 
      "lonmin": 2.616574753866141, 
      "sanName": "haringeplein", 
      "numOfAddr": 16, 
      "lonmax": 2.618480305972542, 
      "latmin": 50.90560026603584
    }, 
    {
      "latmax": 50.918877222558166, 
      "name": "Haringestraat", 
      "lonmin": 2.617808156671884, 
      "sanName": "haringestraat", 
      "numOfAddr": 81, 
      "lonmax": 2.6266743418560528, 
      "latmin": 50.90647055238641
    }, 
    {
      "latmax": 50.912139784268724, 
      "name": "Heybrugstraat", 
      "lonmin": 2.6062297524906373, 
      "sanName": "heybrugstraat", 
      "numOfAddr": 17, 
      "lonmax": 2.6297995136437353, 
      "latmin": 50.90299920607438
    }, 
    {
      "latmax": 50.88837789790969, 
      "name": "Hoepelsnijdersstraat", 
      "lonmin": 2.6524892536504145, 
      "sanName": "hoepelsnijdersstraat", 
      "numOfAddr": 9, 
      "lonmax": 2.653454744266352, 
      "latmin": 50.88773697686514
    }, 
    {
      "latmax": 50.90741562384366, 
      "name": "Hoogstraat", 
      "lonmin": 2.6146846758899467, 
      "sanName": "hoogstraat", 
      "numOfAddr": 5, 
      "lonmax": 2.616610229359443, 
      "latmin": 50.90626169713032
    }, 
    {
      "latmax": 50.92462364675164, 
      "name": "Korte Lindestraat", 
      "lonmin": 2.649455546646864, 
      "sanName": "kortelindestraat", 
      "numOfAddr": 4, 
      "lonmax": 2.6524469681704446, 
      "latmin": 50.91757379162529
    }, 
    {
      "latmax": 50.917592644500935, 
      "name": "Krekelstraat", 
      "lonmin": 2.6255148429365405, 
      "sanName": "krekelstraat", 
      "numOfAddr": 2, 
      "lonmax": 2.625608507569155, 
      "latmin": 50.91752930124065
    }, 
    {
      "latmax": 50.881217809214704, 
      "name": "Krombeekseweg", 
      "lonmin": 2.6974959487424863, 
      "sanName": "krombeekseweg", 
      "numOfAddr": 2, 
      "lonmax": 2.701557146795035, 
      "latmin": 50.88069666746841
    }, 
    {
      "latmax": 50.91567031661227, 
      "name": "Krombekeplein", 
      "lonmin": 2.687627284505398, 
      "sanName": "krombekeplein", 
      "numOfAddr": 18, 
      "lonmax": 2.6893730558490705, 
      "latmin": 50.91452752752907
    }, 
    {
      "latmax": 50.857930729707896, 
      "name": "Krombekestraat", 
      "lonmin": 2.7216720128101914, 
      "sanName": "krombekestraat", 
      "numOfAddr": 1, 
      "lonmax": 2.7216720128101914, 
      "latmin": 50.857930729707896
    }, 
    {
      "latmax": 50.89229670675256, 
      "name": "Kruisdreef", 
      "lonmin": 2.607960143395385, 
      "sanName": "kruisdreef", 
      "numOfAddr": 2, 
      "lonmax": 2.619229450087124, 
      "latmin": 50.886349506687196
    }, 
    {
      "latmax": 50.90225281112745, 
      "name": "Legerstraat", 
      "lonmin": 2.6803405135880127, 
      "sanName": "legerstraat", 
      "numOfAddr": 6, 
      "lonmax": 2.6906304600229496, 
      "latmin": 50.89804330932894
    }, 
    {
      "latmax": 50.93286318902509, 
      "name": "Lindestraat", 
      "lonmin": 2.631698533321642, 
      "sanName": "lindestraat", 
      "numOfAddr": 16, 
      "lonmax": 2.6490241170635946, 
      "latmin": 50.919595305567036
    }, 
    {
      "latmax": 50.90549084956104, 
      "name": "Moenaardestraat", 
      "lonmin": 2.6160815255489913, 
      "sanName": "moenaardestraat", 
      "numOfAddr": 49, 
      "lonmax": 2.6236350406349036, 
      "latmin": 50.878052599448196
    }, 
    {
      "latmax": 50.893213524393424, 
      "name": "Molendreef", 
      "lonmin": 2.643920751530815, 
      "sanName": "molendreef", 
      "numOfAddr": 16, 
      "lonmax": 2.6509059352415347, 
      "latmin": 50.8893025533375
    }, 
    {
      "latmax": 50.914809301409974, 
      "name": "Molenstraat", 
      "lonmin": 2.681499176186547, 
      "sanName": "molenstraat", 
      "numOfAddr": 2, 
      "lonmax": 2.6815036648657955, 
      "latmin": 50.91221859881682
    }, 
    {
      "latmax": 50.916501013553045, 
      "name": "Molenwalstraat", 
      "lonmin": 2.631506764727367, 
      "sanName": "molenwalstraat", 
      "numOfAddr": 13, 
      "lonmax": 2.648764145735985, 
      "latmin": 50.91211903095734
    }, 
    {
      "latmax": 50.8958947460095, 
      "name": "Montefoulstraat", 
      "lonmin": 2.6231768879859287, 
      "sanName": "montefoulstraat", 
      "numOfAddr": 11, 
      "lonmax": 2.640014825205311, 
      "latmin": 50.881496551334756
    }, 
    {
      "latmax": 50.90459993170708, 
      "name": "Nachtegaalstraat", 
      "lonmin": 2.610381943669173, 
      "sanName": "nachtegaalstraat", 
      "numOfAddr": 16, 
      "lonmax": 2.616866951728879, 
      "latmin": 50.884889004634736
    }, 
    {
      "latmax": 50.8936088083382, 
      "name": "Obterrestraat", 
      "lonmin": 2.6512070906569183, 
      "sanName": "obterrestraat", 
      "numOfAddr": 77, 
      "lonmax": 2.656348601485529, 
      "latmin": 50.890713046345745
    }, 
    {
      "latmax": 50.87478478929958, 
      "name": "Pereboomstraat", 
      "lonmin": 2.6977744811003763, 
      "sanName": "pereboomstraat", 
      "numOfAddr": 1, 
      "lonmax": 2.6977744811003763, 
      "latmin": 50.87478478929958
    }, 
    {
      "latmax": 50.92074829629452, 
      "name": "Potterystraat", 
      "lonmin": 2.6236505279089672, 
      "sanName": "potterystraat", 
      "numOfAddr": 4, 
      "lonmax": 2.624025161249675, 
      "latmin": 50.92012046684573
    }, 
    {
      "latmax": 50.920089943028216, 
      "name": "Prof.Rubbrechtstraat", 
      "lonmin": 2.622937072411582, 
      "sanName": "profrubbrechtstraat", 
      "numOfAddr": 108, 
      "lonmax": 2.6296321787424706, 
      "latmin": 50.91461088794846
    }, 
    {
      "latmax": 50.8908831588672, 
      "name": "Provenplein", 
      "lonmin": 2.6556426806474693, 
      "sanName": "provenplein", 
      "numOfAddr": 75, 
      "lonmax": 2.6591263396254514, 
      "latmin": 50.88790038749194
    }, 
    {
      "latmax": 50.89278770652638, 
      "name": "Reningestraat", 
      "lonmin": 2.665489710667696, 
      "sanName": "reningestraat", 
      "numOfAddr": 22, 
      "lonmax": 2.692312406225431, 
      "latmin": 50.88461022261516
    }, 
    {
      "latmax": 50.920077013760675, 
      "name": "Roesbruggeplein", 
      "lonmin": 2.6234687794895994, 
      "sanName": "roesbruggeplein", 
      "numOfAddr": 7, 
      "lonmax": 2.624223021622967, 
      "latmin": 50.91985878652514
    }, 
    {
      "latmax": 50.9059551951892, 
      "name": "Roesbruggestraat", 
      "lonmin": 2.6345699289270215, 
      "sanName": "roesbruggestraat", 
      "numOfAddr": 36, 
      "lonmax": 2.6516539781981736, 
      "latmin": 50.89377706433779
    }, 
    {
      "latmax": 50.92397973933123, 
      "name": "Roggestraat", 
      "lonmin": 2.6864623818181155, 
      "sanName": "roggestraat", 
      "numOfAddr": 7, 
      "lonmax": 2.6947167480018503, 
      "latmin": 50.91620727513929
    }, 
    {
      "latmax": 50.92084412960228, 
      "name": "Stavelestraat", 
      "lonmin": 2.678800542385491, 
      "sanName": "stavelestraat", 
      "numOfAddr": 8, 
      "lonmax": 2.6816471420072463, 
      "latmin": 50.91640801149968
    }, 
    {
      "latmax": 50.910414954904326, 
      "name": "Switspapendreef", 
      "lonmin": 2.6309050847378943, 
      "sanName": "switspapendreef", 
      "numOfAddr": 4, 
      "lonmax": 2.648575460753878, 
      "latmin": 50.905076644239344
    }, 
    {
      "latmax": 50.91990844660697, 
      "name": "Tempeliersstraat", 
      "lonmin": 2.624298247285772, 
      "sanName": "tempeliersstraat", 
      "numOfAddr": 2, 
      "lonmax": 2.62435190765971, 
      "latmin": 50.91988247286528
    }, 
    {
      "latmax": 50.8913069658703, 
      "name": "Terenburgseweg", 
      "lonmin": 2.616818827844804, 
      "sanName": "terenburgseweg", 
      "numOfAddr": 14, 
      "lonmax": 2.6533140040769334, 
      "latmin": 50.87942074560439
    }, 
    {
      "latmax": 50.90689166957764, 
      "name": "Uilegatstraat", 
      "lonmin": 2.6430837141332972, 
      "sanName": "uilegatstraat", 
      "numOfAddr": 11, 
      "lonmax": 2.6536029347470493, 
      "latmin": 50.9016497809345
    }, 
    {
      "latmax": 50.91624322712308, 
      "name": "V.Vandenbusschestraat", 
      "lonmin": 2.6262918727724336, 
      "sanName": "vvandenbusschestraat", 
      "numOfAddr": 20, 
      "lonmax": 2.627284503871423, 
      "latmin": 50.9152552701803
    }, 
    {
      "latmax": 50.91882220258478, 
      "name": "Waaienburgseweg", 
      "lonmin": 2.625747935091168, 
      "sanName": "waaienburgseweg", 
      "numOfAddr": 90, 
      "lonmax": 2.6872928212933416, 
      "latmin": 50.91459865987922
    }, 
    {
      "latmax": 50.85934568964894, 
      "name": "Watouseweg", 
      "lonmin": 2.6851729414246117, 
      "sanName": "watouseweg", 
      "numOfAddr": 2, 
      "lonmax": 2.686129723950694, 
      "latmin": 50.85450492301126
    }, 
    {
      "latmax": 50.914940856895086, 
      "name": "Weggevoerdenstraat", 
      "lonmin": 2.6289438947799337, 
      "sanName": "weggevoerdenstraat", 
      "numOfAddr": 44, 
      "lonmax": 2.632254836242931, 
      "latmin": 50.908726309705685
    }, 
    {
      "latmax": 50.91589837850176, 
      "name": "Wijngaardstraat", 
      "lonmin": 2.621438589572204, 
      "sanName": "wijngaardstraat", 
      "numOfAddr": 2, 
      "lonmax": 2.6249703040837025, 
      "latmin": 50.91525981800793
    }, 
    {
      "latmax": 50.903809343368415, 
      "name": "Witsonestraat", 
      "lonmin": 2.6596205257104066, 
      "sanName": "witsonestraat", 
      "numOfAddr": 3, 
      "lonmax": 2.6659729721670473, 
      "latmin": 50.89820309534484
    }
  ]
}