{
  "streets": [
    {
      "latmax": 51.05013335813771, 
      "name": "Aannemersstraat", 
      "lonmin": 3.745422622122979, 
      "sanName": "aannemersstraat", 
      "numOfAddr": 171, 
      "lonmax": 3.7526061496926864, 
      "latmin": 51.04929472169438
    }, 
    {
      "latmax": 51.06429852459943, 
      "name": "Achterstraat", 
      "lonmin": 3.748368421876327, 
      "sanName": "achterstraat", 
      "numOfAddr": 145, 
      "lonmax": 3.7533108860599036, 
      "latmin": 51.06035423778135
    }, 
    {
      "latmax": 51.06337939046905, 
      "name": "Admiraaldreef", 
      "lonmin": 3.7746260802231926, 
      "sanName": "admiraaldreef", 
      "numOfAddr": 20, 
      "lonmax": 3.775804245832555, 
      "latmin": 51.062498629216265
    }, 
    {
      "latmax": 51.05723446231984, 
      "name": "Adolf Baeyensstraat", 
      "lonmin": 3.750811096432162, 
      "sanName": "adolfbaeyensstraat", 
      "numOfAddr": 178, 
      "lonmax": 3.755621702972353, 
      "latmin": 51.052187287017375
    }, 
    {
      "latmax": 51.07049485490748, 
      "name": "Adolf Daensstraat", 
      "lonmin": 3.755785448992401, 
      "sanName": "adolfdaensstraat", 
      "numOfAddr": 12, 
      "lonmax": 3.7564963842504806, 
      "latmin": 51.06995119446955
    }, 
    {
      "latmax": 51.07292535196766, 
      "name": "Albrecht Rodenbachstraat", 
      "lonmin": 3.7564063828652876, 
      "sanName": "albrechtrodenbachstraat", 
      "numOfAddr": 112, 
      "lonmax": 3.7635082031770266, 
      "latmin": 51.071538469123574
    }, 
    {
      "latmax": 51.06972623816139, 
      "name": "Alfons Braeckmanlaan", 
      "lonmin": 3.7651864405785993, 
      "sanName": "alfonsbraeckmanlaan", 
      "numOfAddr": 140, 
      "lonmax": 3.7994848091038134, 
      "latmin": 51.06264712358719
    }, 
    {
      "latmax": 51.077377801629794, 
      "name": "Antwerpsesteenweg", 
      "lonmin": 3.744054704598827, 
      "sanName": "antwerpsesteenweg", 
      "numOfAddr": 635, 
      "lonmax": 3.782437786829588, 
      "latmin": 51.058538486706844
    }, 
    {
      "latmax": 51.05132950468611, 
      "name": "Asterdreef", 
      "lonmin": 3.7575048435291625, 
      "sanName": "asterdreef", 
      "numOfAddr": 37, 
      "lonmax": 3.7590186270722907, 
      "latmin": 51.049959906056564
    }, 
    {
      "latmax": 51.073732093077545, 
      "name": "August Sniedersstraat", 
      "lonmin": 3.7620838254301043, 
      "sanName": "augustsniedersstraat", 
      "numOfAddr": 17, 
      "lonmax": 3.7627538990736604, 
      "latmin": 51.072827538462725
    }, 
    {
      "latmax": 51.06769311619679, 
      "name": "August Van Geertstraat", 
      "lonmin": 3.7541057809527936, 
      "sanName": "augustvangeertstraat", 
      "numOfAddr": 42, 
      "lonmax": 3.7548717168693733, 
      "latmin": 51.06621289015568
    }, 
    {
      "latmax": 51.062178716222405, 
      "name": "Azaleastraat", 
      "lonmin": 3.7504479243404423, 
      "sanName": "azaleastraat", 
      "numOfAddr": 95, 
      "lonmax": 3.7519346471556694, 
      "latmin": 51.05796911369913
    }, 
    {
      "latmax": 51.054445055427024, 
      "name": "Banierstraat", 
      "lonmin": 3.7452791599655844, 
      "sanName": "banierstraat", 
      "numOfAddr": 15, 
      "lonmax": 3.745426586326443, 
      "latmin": 51.053826103632524
    }, 
    {
      "latmax": 51.07128436249258, 
      "name": "Beelbroekhof", 
      "lonmin": 3.7897532369955047, 
      "sanName": "beelbroekhof", 
      "numOfAddr": 109, 
      "lonmax": 3.7972926898971737, 
      "latmin": 51.068673627253105
    }, 
    {
      "latmax": 51.07475136592385, 
      "name": "Beelbroekstraat", 
      "lonmin": 3.779836259796461, 
      "sanName": "beelbroekstraat", 
      "numOfAddr": 143, 
      "lonmax": 3.8012707744033034, 
      "latmin": 51.06934960572528
    }, 
    {
      "latmax": 51.05204970615633, 
      "name": "Beeldhouwersstraat", 
      "lonmin": 3.7455226715753493, 
      "sanName": "beeldhouwersstraat", 
      "numOfAddr": 62, 
      "lonmax": 3.748034869654216, 
      "latmin": 51.05056621791555
    }, 
    {
      "latmax": 51.07021754795949, 
      "name": "Biest", 
      "lonmin": 3.7545343568355865, 
      "sanName": "biest", 
      "numOfAddr": 28, 
      "lonmax": 3.755752695928739, 
      "latmin": 51.06854398539948
    }, 
    {
      "latmax": 51.062898923771215, 
      "name": "Bloemistenstraat", 
      "lonmin": 3.7512420230949677, 
      "sanName": "bloemistenstraat", 
      "numOfAddr": 14, 
      "lonmax": 3.7517317234339487, 
      "latmin": 51.06242944980101
    }, 
    {
      "latmax": 51.065838079301365, 
      "name": "Boomkruiperstraat", 
      "lonmin": 3.7723320940871594, 
      "sanName": "boomkruiperstraat", 
      "numOfAddr": 7, 
      "lonmax": 3.772535466350704, 
      "latmin": 51.0653517692752
    }, 
    {
      "latmax": 51.066287594813375, 
      "name": "Bosduifstraat", 
      "lonmin": 3.7765311458346598, 
      "sanName": "bosduifstraat", 
      "numOfAddr": 14, 
      "lonmax": 3.777206368201137, 
      "latmin": 51.06564670351731
    }, 
    {
      "latmax": 51.05143464161827, 
      "name": "Bouwmeestersstraat", 
      "lonmin": 3.746600703640374, 
      "sanName": "bouwmeestersstraat", 
      "numOfAddr": 131, 
      "lonmax": 3.7521464916751794, 
      "latmin": 51.04994009269327
    }, 
    {
      "latmax": 51.06318269654501, 
      "name": "Bromeliastraat", 
      "lonmin": 3.757362723524986, 
      "sanName": "bromeliastraat", 
      "numOfAddr": 65, 
      "lonmax": 3.7597962377791716, 
      "latmin": 51.06146812166584
    }, 
    {
      "latmax": 51.055347956698604, 
      "name": "Brunaustraat", 
      "lonmin": 3.745875965648933, 
      "sanName": "brunaustraat", 
      "numOfAddr": 41, 
      "lonmax": 3.746761019307995, 
      "latmin": 51.05457742872141
    }, 
    {
      "latmax": 51.07154614928226, 
      "name": "Camille D'Hav\u0082straat", 
      "lonmin": 3.7795052732327226, 
      "sanName": "camilledhavstraat", 
      "numOfAddr": 43, 
      "lonmax": 3.7824845394570974, 
      "latmin": 51.06993005749191
    }, 
    {
      "latmax": 51.06439080616285, 
      "name": "Campo-Santoplein", 
      "lonmin": 3.747474503590195, 
      "sanName": "camposantoplein", 
      "numOfAddr": 17, 
      "lonmax": 3.7481335206314528, 
      "latmin": 51.06352927466341
    }, 
    {
      "latmax": 51.05182412679479, 
      "name": "C\u0082cile Cautermanstraat", 
      "lonmin": 3.752924606201006, 
      "sanName": "ccilecautermanstraat", 
      "numOfAddr": 68, 
      "lonmax": 3.754624114267633, 
      "latmin": 51.05014738254993
    }, 
    {
      "latmax": 51.07291210397808, 
      "name": "Charles Doudeletstraat", 
      "lonmin": 3.7788966678146623, 
      "sanName": "charlesdoudeletstraat", 
      "numOfAddr": 14, 
      "lonmax": 3.781103373285798, 
      "latmin": 51.071904417037636
    }, 
    {
      "latmax": 51.05413056290476, 
      "name": "Christine D'haenhof", 
      "lonmin": 3.751913436074618, 
      "sanName": "christinedhaenhof", 
      "numOfAddr": 11, 
      "lonmax": 3.7525322785697233, 
      "latmin": 51.05374788904369
    }, 
    {
      "latmax": 51.070069922040226, 
      "name": "Dani\u0089l Mareskastraat", 
      "lonmin": 3.755713537399305, 
      "sanName": "danilmareskastraat", 
      "numOfAddr": 8, 
      "lonmax": 3.7561902105015523, 
      "latmin": 51.06977255455499
    }, 
    {
      "latmax": 51.053257184069516, 
      "name": "Dendermondsesteenweg", 
      "lonmin": 3.7454103048195777, 
      "sanName": "dendermondsesteenweg", 
      "numOfAddr": 250, 
      "lonmax": 3.7574563755169867, 
      "latmin": 51.05154951987954
    }, 
    {
      "latmax": 51.05152342032593, 
      "name": "Destelbergenstraat", 
      "lonmin": 3.7532059168110856, 
      "sanName": "destelbergenstraat", 
      "numOfAddr": 102, 
      "lonmax": 3.7575201070564384, 
      "latmin": 51.04961392458329
    }, 
    {
      "latmax": 51.06620158187184, 
      "name": "Distelvinkstraat", 
      "lonmin": 3.77183715063628, 
      "sanName": "distelvinkstraat", 
      "numOfAddr": 6, 
      "lonmax": 3.7719880965687036, 
      "latmin": 51.0659210737816
    }, 
    {
      "latmax": 51.05483000938334, 
      "name": "Doornakkerstraat", 
      "lonmin": 3.747555077499499, 
      "sanName": "doornakkerstraat", 
      "numOfAddr": 87, 
      "lonmax": 3.750630652474114, 
      "latmin": 51.053931950907256
    }, 
    {
      "latmax": 51.07566079720387, 
      "name": "Doornbilkstraat", 
      "lonmin": 3.7806982324614324, 
      "sanName": "doornbilkstraat", 
      "numOfAddr": 35, 
      "lonmax": 3.782362634480971, 
      "latmin": 51.07506030522709
    }, 
    {
      "latmax": 51.06882939810697, 
      "name": "Draversstraat", 
      "lonmin": 3.7695749618484493, 
      "sanName": "draversstraat", 
      "numOfAddr": 47, 
      "lonmax": 3.7710069319669843, 
      "latmin": 51.06719105147827
    }, 
    {
      "latmax": 51.07329318704144, 
      "name": "Edgard Tinelstraat", 
      "lonmin": 3.764502939959644, 
      "sanName": "edgardtinelstraat", 
      "numOfAddr": 61, 
      "lonmax": 3.769749958017453, 
      "latmin": 51.071552993562186
    }, 
    {
      "latmax": 51.05143632097997, 
      "name": "Emiel Lossystraat", 
      "lonmin": 3.7587254480978847, 
      "sanName": "emiellossystraat", 
      "numOfAddr": 89, 
      "lonmax": 3.760519423215733, 
      "latmin": 51.04839444851927
    }, 
    {
      "latmax": 51.070185427672, 
      "name": "Emiel Maeyensstraat", 
      "lonmin": 3.7623170017038325, 
      "sanName": "emielmaeyensstraat", 
      "numOfAddr": 51, 
      "lonmax": 3.7641443437813398, 
      "latmin": 51.06908957738639
    }, 
    {
      "latmax": 51.05854145068169, 
      "name": "Engelbert van Arenbergstraat", 
      "lonmin": 3.7444049040922134, 
      "sanName": "engelbertvanarenbergstraat", 
      "numOfAddr": 36, 
      "lonmax": 3.746293106094338, 
      "latmin": 51.054478376063734
    }, 
    {
      "latmax": 51.05642997314995, 
      "name": "Engelstraat", 
      "lonmin": 3.749537455451971, 
      "sanName": "engelstraat", 
      "numOfAddr": 148, 
      "lonmax": 3.7521135415592064, 
      "latmin": 51.052445479691976
    }, 
    {
      "latmax": 51.072645969192756, 
      "name": "Esperantostraat", 
      "lonmin": 3.7664126523746972, 
      "sanName": "esperantostraat", 
      "numOfAddr": 32, 
      "lonmax": 3.770151249125932, 
      "latmin": 51.070857800567005
    }, 
    {
      "latmax": 51.054557841158626, 
      "name": "Evarist De Buckstraat", 
      "lonmin": 3.7457581186211986, 
      "sanName": "evaristdebuckstraat", 
      "numOfAddr": 30, 
      "lonmax": 3.746768839776326, 
      "latmin": 51.053255467944254
    }, 
    {
      "latmax": 51.068624228685664, 
      "name": "Everstraat", 
      "lonmin": 3.7641923817916263, 
      "sanName": "everstraat", 
      "numOfAddr": 28, 
      "lonmax": 3.765759648123994, 
      "latmin": 51.06648095593901
    }, 
    {
      "latmax": 51.07157635239937, 
      "name": "Ferdinand Snellaertplein", 
      "lonmin": 3.755696475891078, 
      "sanName": "ferdinandsnellaertplein", 
      "numOfAddr": 26, 
      "lonmax": 3.7567473881464144, 
      "latmin": 51.070295157274046
    }, 
    {
      "latmax": 51.07353914274005, 
      "name": "Filip De Pillecijnstraat", 
      "lonmin": 3.762559488246252, 
      "sanName": "filipdepillecijnstraat", 
      "numOfAddr": 22, 
      "lonmax": 3.7635539878558073, 
      "latmin": 51.07316617777885
    }, 
    {
      "latmax": 51.058879840264964, 
      "name": "Filips Benthuysstraat", 
      "lonmin": 3.7447763115849373, 
      "sanName": "filipsbenthuysstraat", 
      "numOfAddr": 13, 
      "lonmax": 3.7456375239717064, 
      "latmin": 51.058601237386
    }, 
    {
      "latmax": 51.07414346876888, 
      "name": "Frans Gevaertstraat", 
      "lonmin": 3.759650790213431, 
      "sanName": "fransgevaertstraat", 
      "numOfAddr": 38, 
      "lonmax": 3.7607725410043154, 
      "latmin": 51.072556129586104
    }, 
    {
      "latmax": 51.07153773594949, 
      "name": "Frans Masereelstraat", 
      "lonmin": 3.7569173329642376, 
      "sanName": "fransmasereelstraat", 
      "numOfAddr": 29, 
      "lonmax": 3.758931444215779, 
      "latmin": 51.07104239183053
    }, 
    {
      "latmax": 51.07203445722826, 
      "name": "Frans Uyttenhovestraat", 
      "lonmin": 3.7580637950450058, 
      "sanName": "fransuyttenhovestraat", 
      "numOfAddr": 77, 
      "lonmax": 3.7640681503219384, 
      "latmin": 51.07005907630814
    }, 
    {
      "latmax": 51.07187529693362, 
      "name": "Frederik Vanmellestraat", 
      "lonmin": 3.779560002024634, 
      "sanName": "frederikvanmellestraat", 
      "numOfAddr": 20, 
      "lonmax": 3.7817665127438014, 
      "latmin": 51.07122507726612
    }, 
    {
      "latmax": 51.07001723889366, 
      "name": "Gabri\u0089l Celisstraat", 
      "lonmin": 3.7805766754737817, 
      "sanName": "gabrilcelisstraat", 
      "numOfAddr": 9, 
      "lonmax": 3.7813068338852633, 
      "latmin": 51.069408494226224
    }, 
    {
      "latmax": 51.05204568955322, 
      "name": "Gentbruggestraat", 
      "lonmin": 3.7518726573082364, 
      "sanName": "gentbruggestraat", 
      "numOfAddr": 187, 
      "lonmax": 3.755634289624511, 
      "latmin": 51.04722014761645
    }, 
    {
      "latmax": 51.070031897316206, 
      "name": "Geo Langiestraat", 
      "lonmin": 3.7795600522559436, 
      "sanName": "geolangiestraat", 
      "numOfAddr": 7, 
      "lonmax": 3.7801184252027533, 
      "latmin": 51.069522274821665
    }, 
    {
      "latmax": 51.06215494677949, 
      "name": "Georges Maenhoutdreef", 
      "lonmin": 3.770547789778958, 
      "sanName": "georgesmaenhoutdreef", 
      "numOfAddr": 4, 
      "lonmax": 3.7711448672278305, 
      "latmin": 51.06177970741506
    }, 
    {
      "latmax": 51.06914392303589, 
      "name": "Georges Wibierdreef", 
      "lonmin": 3.7608531676712835, 
      "sanName": "georgeswibierdreef", 
      "numOfAddr": 21, 
      "lonmax": 3.762037918325277, 
      "latmin": 51.06845030252631
    }, 
    {
      "latmax": 51.07386885570348, 
      "name": "Goedlevenstraat", 
      "lonmin": 3.7697421968240974, 
      "sanName": "goedlevenstraat", 
      "numOfAddr": 20, 
      "lonmax": 3.7738931474250683, 
      "latmin": 51.0735150734525
    }, 
    {
      "latmax": 51.06630731530854, 
      "name": "Grasmusstraat", 
      "lonmin": 3.772109599533166, 
      "sanName": "grasmusstraat", 
      "numOfAddr": 16, 
      "lonmax": 3.772929378077137, 
      "latmin": 51.06574550021085
    }, 
    {
      "latmax": 51.0683061930989, 
      "name": "Grondwetlaan", 
      "lonmin": 3.7497299698664435, 
      "sanName": "grondwetlaan", 
      "numOfAddr": 98, 
      "lonmax": 3.7533279733854368, 
      "latmin": 51.06591549714999
    }, 
    {
      "latmax": 51.05815948892958, 
      "name": "Groot Begijnhof", 
      "lonmin": 3.745936952140738, 
      "sanName": "grootbegijnhof", 
      "numOfAddr": 110, 
      "lonmax": 3.749910287606785, 
      "latmin": 51.05569080642228
    }, 
    {
      "latmax": 51.04765750787429, 
      "name": "Grote Wede", 
      "lonmin": 3.7534135882084922, 
      "sanName": "grotewede", 
      "numOfAddr": 1, 
      "lonmax": 3.7534135882084922, 
      "latmin": 51.04765750787429
    }, 
    {
      "latmax": 51.07041807867832, 
      "name": "Gustaaf Carelshof", 
      "lonmin": 3.7712078616570905, 
      "sanName": "gustaafcarelshof", 
      "numOfAddr": 61, 
      "lonmax": 3.775805477685278, 
      "latmin": 51.06726830563428
    }, 
    {
      "latmax": 51.06390498093136, 
      "name": "Halvemaanstraat", 
      "lonmin": 3.74441155397559, 
      "sanName": "halvemaanstraat", 
      "numOfAddr": 166, 
      "lonmax": 3.7476438957744156, 
      "latmin": 51.05927475490385
    }, 
    {
      "latmax": 51.07200248526914, 
      "name": "Hans Memlingstraat", 
      "lonmin": 3.754334825469003, 
      "sanName": "hansmemlingstraat", 
      "numOfAddr": 48, 
      "lonmax": 3.755506297900477, 
      "latmin": 51.070681225119046
    }, 
    {
      "latmax": 51.06508041826519, 
      "name": "Havikstraat", 
      "lonmin": 3.772319493705507, 
      "sanName": "havikstraat", 
      "numOfAddr": 16, 
      "lonmax": 3.7733918290220463, 
      "latmin": 51.06468323371662
    }, 
    {
      "latmax": 51.05242542931252, 
      "name": "Heernisplein", 
      "lonmin": 3.748163840096041, 
      "sanName": "heernisplein", 
      "numOfAddr": 15, 
      "lonmax": 3.7488694876419437, 
      "latmin": 51.05207630077411
    }, 
    {
      "latmax": 51.05435423770768, 
      "name": "Heilig-Hartplein", 
      "lonmin": 3.748605715899434, 
      "sanName": "heilighartplein", 
      "numOfAddr": 15, 
      "lonmax": 3.7504899934678275, 
      "latmin": 51.053904666813615
    }, 
    {
      "latmax": 51.053905843581674, 
      "name": "Heilig-Hartstraat", 
      "lonmin": 3.746125045090547, 
      "sanName": "heilighartstraat", 
      "numOfAddr": 61, 
      "lonmax": 3.74876739926938, 
      "latmin": 51.05305094333809
    }, 
    {
      "latmax": 51.0660793225992, 
      "name": "Heilig-Kruisplein", 
      "lonmin": 3.7688100227863197, 
      "sanName": "heiligkruisplein", 
      "numOfAddr": 27, 
      "lonmax": 3.7712275935847948, 
      "latmin": 51.064786620015056
    }, 
    {
      "latmax": 51.0677782910814, 
      "name": "Heiveldstraat", 
      "lonmin": 3.7520398997194255, 
      "sanName": "heiveldstraat", 
      "numOfAddr": 278, 
      "lonmax": 3.7753178815330704, 
      "latmin": 51.06239598645207
    }, 
    {
      "latmax": 51.05795640203791, 
      "name": "Henri Van Cleemputteplein", 
      "lonmin": 3.750205678276382, 
      "sanName": "henrivancleemputteplein", 
      "numOfAddr": 20, 
      "lonmax": 3.751106389735802, 
      "latmin": 51.05708005397081
    }, 
    {
      "latmax": 51.05468778740788, 
      "name": "Herlegemstraat", 
      "lonmin": 3.756250262007223, 
      "sanName": "herlegemstraat", 
      "numOfAddr": 46, 
      "lonmax": 3.7612270450723635, 
      "latmin": 51.052158452880306
    }, 
    {
      "latmax": 51.069526547632336, 
      "name": "Hippodroomlaan", 
      "lonmin": 3.7687338519257993, 
      "sanName": "hippodroomlaan", 
      "numOfAddr": 23, 
      "lonmax": 3.7711267491129603, 
      "latmin": 51.06677024771194
    }, 
    {
      "latmax": 51.0692859109259, 
      "name": "Hogeweg", 
      "lonmin": 3.7489727806541517, 
      "sanName": "hogeweg", 
      "numOfAddr": 27, 
      "lonmax": 3.7496034491867802, 
      "latmin": 51.06808615465846
    }, 
    {
      "latmax": 51.07831511314266, 
      "name": "Hollenaarstraat", 
      "lonmin": 3.77620621514993, 
      "sanName": "hollenaarstraat", 
      "numOfAddr": 1, 
      "lonmax": 3.77620621514993, 
      "latmin": 51.07831511314266
    }, 
    {
      "latmax": 51.06554717330242, 
      "name": "Houtduifstraat", 
      "lonmin": 3.7741450943407644, 
      "sanName": "houtduifstraat", 
      "numOfAddr": 11, 
      "lonmax": 3.7749176916423406, 
      "latmin": 51.0649151977901
    }, 
    {
      "latmax": 51.07425731108469, 
      "name": "Hugo Verrieststraat", 
      "lonmin": 3.76035145750388, 
      "sanName": "hugoverrieststraat", 
      "numOfAddr": 53, 
      "lonmax": 3.7632176920444653, 
      "latmin": 51.07334981395256
    }, 
    {
      "latmax": 51.06858097052643, 
      "name": "Isidoor De Vosstraat", 
      "lonmin": 3.756289712389404, 
      "sanName": "isidoordevosstraat", 
      "numOfAddr": 52, 
      "lonmax": 3.7591103125882377, 
      "latmin": 51.06676132746592
    }, 
    {
      "latmax": 51.07168566909369, 
      "name": "Jan Blockxstraat", 
      "lonmin": 3.7589980219618218, 
      "sanName": "janblockxstraat", 
      "numOfAddr": 1, 
      "lonmax": 3.7589980219618218, 
      "latmin": 51.07168566909369
    }, 
    {
      "latmax": 51.05848541090713, 
      "name": "Jan Roomsstraat", 
      "lonmin": 3.749231535337246, 
      "sanName": "janroomsstraat", 
      "numOfAddr": 15, 
      "lonmax": 3.7498617857223886, 
      "latmin": 51.057995004736654
    }, 
    {
      "latmax": 51.05451006448732, 
      "name": "Jean B\u0082thunestraat", 
      "lonmin": 3.746821123828337, 
      "sanName": "jeanbthunestraat", 
      "numOfAddr": 73, 
      "lonmax": 3.7486544212634407, 
      "latmin": 51.0528986667148
    }, 
    {
      "latmax": 51.07371935556442, 
      "name": "Jeanne Vignerystraat", 
      "lonmin": 3.764336854093947, 
      "sanName": "jeannevignerystraat", 
      "numOfAddr": 9, 
      "lonmax": 3.765545696639061, 
      "latmin": 51.073227254474
    }, 
    {
      "latmax": 51.06425529033964, 
      "name": "Jef Crickstraat", 
      "lonmin": 3.7604720016887523, 
      "sanName": "jefcrickstraat", 
      "numOfAddr": 45, 
      "lonmax": 3.763439857710408, 
      "latmin": 51.06233417169364
    }, 
    {
      "latmax": 51.05968894122147, 
      "name": "Johannes Hartmannlaan", 
      "lonmin": 3.751149760968353, 
      "sanName": "johanneshartmannlaan", 
      "numOfAddr": 52, 
      "lonmax": 3.755417620880054, 
      "latmin": 51.05724688873022
    }, 
    {
      "latmax": 51.06197773342095, 
      "name": "Joseph G\u0082rardstraat", 
      "lonmin": 3.7459553721975207, 
      "sanName": "josephgrardstraat", 
      "numOfAddr": 40, 
      "lonmax": 3.7479660469949327, 
      "latmin": 51.06103599792295
    }, 
    {
      "latmax": 51.05703686978904, 
      "name": "Jos Verdegemstraat", 
      "lonmin": 3.7507786416681808, 
      "sanName": "josverdegemstraat", 
      "numOfAddr": 146, 
      "lonmax": 3.7566865632564523, 
      "latmin": 51.05464179713103
    }, 
    {
      "latmax": 51.06515642966336, 
      "name": "Jozef Goossenaertsstraat", 
      "lonmin": 3.769767266480998, 
      "sanName": "jozefgoossenaertsstraat", 
      "numOfAddr": 13, 
      "lonmax": 3.771988963911095, 
      "latmin": 51.06424313983278
    }, 
    {
      "latmax": 51.070529573492614, 
      "name": "Julius Vuylstekestraat", 
      "lonmin": 3.7642884037614324, 
      "sanName": "juliusvuylstekestraat", 
      "numOfAddr": 15, 
      "lonmax": 3.765889484328847, 
      "latmin": 51.06956131157289
    }, 
    {
      "latmax": 51.06989665618762, 
      "name": "Karel Van Renterghemstraat", 
      "lonmin": 3.751492688151242, 
      "sanName": "karelvanrenterghemstraat", 
      "numOfAddr": 20, 
      "lonmax": 3.752591310465158, 
      "latmin": 51.06893288223202
    }, 
    {
      "latmax": 51.07106143172185, 
      "name": "Karnemelkwegel", 
      "lonmin": 3.7689358987176353, 
      "sanName": "karnemelkwegel", 
      "numOfAddr": 1, 
      "lonmax": 3.7689358987176353, 
      "latmin": 51.07106143172185
    }, 
    {
      "latmax": 51.06809082749453, 
      "name": "Kasteelwegel", 
      "lonmin": 3.7784871398766584, 
      "sanName": "kasteelwegel", 
      "numOfAddr": 45, 
      "lonmax": 3.7852063670795837, 
      "latmin": 51.06629653892137
    }, 
    {
      "latmax": 51.069370542285384, 
      "name": "Ketshage", 
      "lonmin": 3.785319730124561, 
      "sanName": "ketshage", 
      "numOfAddr": 20, 
      "lonmax": 3.7889575955089825, 
      "latmin": 51.067725787894034
    }, 
    {
      "latmax": 51.06609883624388, 
      "name": "Klauwierstraat", 
      "lonmin": 3.7758205503083353, 
      "sanName": "klauwierstraat", 
      "numOfAddr": 12, 
      "lonmax": 3.776467186104876, 
      "latmin": 51.065647541795656
    }, 
    {
      "latmax": 51.07262461114612, 
      "name": "Kleine Schuurstraat", 
      "lonmin": 3.776007970947639, 
      "sanName": "kleineschuurstraat", 
      "numOfAddr": 16, 
      "lonmax": 3.7767623812305766, 
      "latmin": 51.072182500858524
    }, 
    {
      "latmax": 51.04769893074602, 
      "name": "Kleine Wedepad", 
      "lonmin": 3.75242904890367, 
      "sanName": "kleinewedepad", 
      "numOfAddr": 1, 
      "lonmax": 3.75242904890367, 
      "latmin": 51.04769893074602
    }, 
    {
      "latmax": 51.05211881176149, 
      "name": "Klinkkouterstraat", 
      "lonmin": 3.748356213789431, 
      "sanName": "klinkkouterstraat", 
      "numOfAddr": 92, 
      "lonmax": 3.7496013877970626, 
      "latmin": 51.04968031481808
    }, 
    {
      "latmax": 51.06581989530326, 
      "name": "Koerspleinstraat", 
      "lonmin": 3.7671943831230403, 
      "sanName": "koerspleinstraat", 
      "numOfAddr": 38, 
      "lonmax": 3.7705441482876174, 
      "latmin": 51.06141242009422
    }, 
    {
      "latmax": 51.07149909365744, 
      "name": "Kortedreef", 
      "lonmin": 3.7646862542683794, 
      "sanName": "kortedreef", 
      "numOfAddr": 29, 
      "lonmax": 3.7670459536973486, 
      "latmin": 51.07027778047487
    }, 
    {
      "latmax": 51.05346402418316, 
      "name": "Krekelberg", 
      "lonmin": 3.74893620345559, 
      "sanName": "krekelberg", 
      "numOfAddr": 27, 
      "lonmax": 3.7511772595868886, 
      "latmin": 51.05281564898301
    }, 
    {
      "latmax": 51.05758493684437, 
      "name": "Kriekerijstraat", 
      "lonmin": 3.7542734842891874, 
      "sanName": "kriekerijstraat", 
      "numOfAddr": 47, 
      "lonmax": 3.7564234061306867, 
      "latmin": 51.056997466545376
    }, 
    {
      "latmax": 51.05253178663454, 
      "name": "Kunstenaarstraat", 
      "lonmin": 3.7446094513092527, 
      "sanName": "kunstenaarstraat", 
      "numOfAddr": 130, 
      "lonmax": 3.7479809159303246, 
      "latmin": 51.05004614141027
    }, 
    {
      "latmax": 51.05916022079047, 
      "name": "Land van Waaslaan", 
      "lonmin": 3.744857463007997, 
      "sanName": "landvanwaaslaan", 
      "numOfAddr": 112, 
      "lonmax": 3.7493707338021927, 
      "latmin": 51.057782739293195
    }, 
    {
      "latmax": 51.064709432821495, 
      "name": "Ledestraat", 
      "lonmin": 3.7771741338154365, 
      "sanName": "ledestraat", 
      "numOfAddr": 10, 
      "lonmax": 3.7773457045749206, 
      "latmin": 51.063226304632614
    }, 
    {
      "latmax": 51.069461356622696, 
      "name": "Leon Sarteelstraat", 
      "lonmin": 3.7919092362277684, 
      "sanName": "leonsarteelstraat", 
      "numOfAddr": 16, 
      "lonmax": 3.793708491269559, 
      "latmin": 51.0690341227185
    }, 
    {
      "latmax": 51.06568378198349, 
      "name": "Lepelaarstraat", 
      "lonmin": 3.77510864372653, 
      "sanName": "lepelaarstraat", 
      "numOfAddr": 17, 
      "lonmax": 3.7759212607719967, 
      "latmin": 51.065013470519524
    }, 
    {
      "latmax": 51.07157476555553, 
      "name": "Lijnmolenstraat", 
      "lonmin": 3.759634143532777, 
      "sanName": "lijnmolenstraat", 
      "numOfAddr": 113, 
      "lonmax": 3.764229804844232, 
      "latmin": 51.06738160448987
    }, 
    {
      "latmax": 51.06327677556577, 
      "name": "Lijsterbesdreef", 
      "lonmin": 3.7709579177830665, 
      "sanName": "lijsterbesdreef", 
      "numOfAddr": 21, 
      "lonmax": 3.7716331512333667, 
      "latmin": 51.061622369538966
    }, 
    {
      "latmax": 51.0537307531073, 
      "name": "Louis Schuermanstraat", 
      "lonmin": 3.748616752289944, 
      "sanName": "louisschuermanstraat", 
      "numOfAddr": 21, 
      "lonmax": 3.749782889457836, 
      "latmin": 51.05272188167962
    }, 
    {
      "latmax": 51.069764666699264, 
      "name": "Luc Van Parysstraat", 
      "lonmin": 3.7910604039077542, 
      "sanName": "lucvanparysstraat", 
      "numOfAddr": 2, 
      "lonmax": 3.7911968273707495, 
      "latmin": 51.069588967257225
    }, 
    {
      "latmax": 51.073602872007434, 
      "name": "Maalderijstraat", 
      "lonmin": 3.7713298645873943, 
      "sanName": "maalderijstraat", 
      "numOfAddr": 48, 
      "lonmax": 3.7738486268092593, 
      "latmin": 51.07202728344876
    }, 
    {
      "latmax": 51.07020482523736, 
      "name": "Maurice Sysstraat", 
      "lonmin": 3.7821007167567684, 
      "sanName": "mauricesysstraat", 
      "numOfAddr": 12, 
      "lonmax": 3.783359754371484, 
      "latmin": 51.06911922391154
    }, 
    {
      "latmax": 51.06649399084097, 
      "name": "Mezenstraat", 
      "lonmin": 3.7735129326061094, 
      "sanName": "mezenstraat", 
      "numOfAddr": 10, 
      "lonmax": 3.7742483276260996, 
      "latmin": 51.06611223593189
    }, 
    {
      "latmax": 51.06844073385698, 
      "name": "Moerlandstraat", 
      "lonmin": 3.748221665200155, 
      "sanName": "moerlandstraat", 
      "numOfAddr": 8, 
      "lonmax": 3.7486981734919564, 
      "latmin": 51.06824585949233
    }, 
    {
      "latmax": 51.064000698801216, 
      "name": "Nachtegaaldreef", 
      "lonmin": 3.7701213678638723, 
      "sanName": "nachtegaaldreef", 
      "numOfAddr": 60, 
      "lonmax": 3.777028970730176, 
      "latmin": 51.062563517387
    }, 
    {
      "latmax": 51.064445479793434, 
      "name": "Nachtegaalstraat", 
      "lonmin": 3.7749602501580357, 
      "sanName": "nachtegaalstraat", 
      "numOfAddr": 18, 
      "lonmax": 3.7772443385834378, 
      "latmin": 51.063924797643445
    }, 
    {
      "latmax": 51.049639092478586, 
      "name": "Nekkersvijverstraat", 
      "lonmin": 3.7537761577583013, 
      "sanName": "nekkersvijverstraat", 
      "numOfAddr": 127, 
      "lonmax": 3.7595379889509752, 
      "latmin": 51.048751181499846
    }, 
    {
      "latmax": 51.05028049133858, 
      "name": "Nijverheidskaai", 
      "lonmin": 3.7564162562068026, 
      "sanName": "nijverheidskaai", 
      "numOfAddr": 49, 
      "lonmax": 3.7659997802394405, 
      "latmin": 51.04739105474302
    }, 
    {
      "latmax": 51.052829434535866, 
      "name": "Nijverheidstraat", 
      "lonmin": 3.7438235092943084, 
      "sanName": "nijverheidstraat", 
      "numOfAddr": 121, 
      "lonmax": 3.7461369851068786, 
      "latmin": 51.04980801763645
    }, 
    {
      "latmax": 51.07676720557037, 
      "name": "Ombeekhof", 
      "lonmin": 3.756109485383133, 
      "sanName": "ombeekhof", 
      "numOfAddr": 105, 
      "lonmax": 3.760024157892449, 
      "latmin": 51.07498726454543
    }, 
    {
      "latmax": 51.07510258220541, 
      "name": "Ombeekstraat", 
      "lonmin": 3.759116885963004, 
      "sanName": "ombeekstraat", 
      "numOfAddr": 7, 
      "lonmax": 3.759846753727039, 
      "latmin": 51.074428874851286
    }, 
    {
      "latmax": 51.056477426317436, 
      "name": "Oscar Colbrandtstraat", 
      "lonmin": 3.751303979623069, 
      "sanName": "oscarcolbrandtstraat", 
      "numOfAddr": 136, 
      "lonmax": 3.7572646523673248, 
      "latmin": 51.05409549247496
    }, 
    {
      "latmax": 51.062570849303064, 
      "name": "Oscar De Reusestraat", 
      "lonmin": 3.755573719221239, 
      "sanName": "oscardereusestraat", 
      "numOfAddr": 59, 
      "lonmax": 3.758036271517121, 
      "latmin": 51.06102479466879
    }, 
    {
      "latmax": 51.074235411143725, 
      "name": "Oudebareelstraat", 
      "lonmin": 3.774124430059087, 
      "sanName": "oudebareelstraat", 
      "numOfAddr": 24, 
      "lonmax": 3.7752989433807356, 
      "latmin": 51.073105615682074
    }, 
    {
      "latmax": 51.06671980533568, 
      "name": "Palmendreef", 
      "lonmin": 3.758096499124759, 
      "sanName": "palmendreef", 
      "numOfAddr": 47, 
      "lonmax": 3.760276162297388, 
      "latmin": 51.06497101664575
    }, 
    {
      "latmax": 51.06655590475578, 
      "name": "Paradijsvogelplein", 
      "lonmin": 3.7749825833935287, 
      "sanName": "paradijsvogelplein", 
      "numOfAddr": 5, 
      "lonmax": 3.775394984425387, 
      "latmin": 51.06600040227539
    }, 
    {
      "latmax": 51.06661769288859, 
      "name": "Parkietstraat", 
      "lonmin": 3.7762636217162875, 
      "sanName": "parkietstraat", 
      "numOfAddr": 16, 
      "lonmax": 3.7772765045211014, 
      "latmin": 51.06621117952589
    }, 
    {
      "latmax": 51.05090009135419, 
      "name": "Paul De Ryckstraat", 
      "lonmin": 3.7627801575779363, 
      "sanName": "paulderyckstraat", 
      "numOfAddr": 33, 
      "lonmax": 3.7643029893719997, 
      "latmin": 51.04957451378396
    }, 
    {
      "latmax": 51.06967433583699, 
      "name": "Paviljoenweg", 
      "lonmin": 3.752629818084851, 
      "sanName": "paviljoenweg", 
      "numOfAddr": 86, 
      "lonmax": 3.7579192862166364, 
      "latmin": 51.066541989768254
    }, 
    {
      "latmax": 51.072206142695556, 
      "name": "Philip Blommaertstraat", 
      "lonmin": 3.7556066135420774, 
      "sanName": "philipblommaertstraat", 
      "numOfAddr": 11, 
      "lonmax": 3.756399545946365, 
      "latmin": 51.071685252740835
    }, 
    {
      "latmax": 51.06642717823354, 
      "name": "Pimpelmeesstraat", 
      "lonmin": 3.7744481798237652, 
      "sanName": "pimpelmeesstraat", 
      "numOfAddr": 8, 
      "lonmax": 3.7746336621074437, 
      "latmin": 51.066077084737216
    }, 
    {
      "latmax": 51.065659129189264, 
      "name": "Potuitstraat", 
      "lonmin": 3.7559423171174613, 
      "sanName": "potuitstraat", 
      "numOfAddr": 3, 
      "lonmax": 3.7562758267644947, 
      "latmin": 51.06561851420781
    }, 
    {
      "latmax": 51.06738129110545, 
      "name": "Quinten Metsijsstraat", 
      "lonmin": 3.761019058180889, 
      "sanName": "quintenmetsijsstraat", 
      "numOfAddr": 14, 
      "lonmax": 3.763100263722063, 
      "latmin": 51.065642560107705
    }, 
    {
      "latmax": 51.06990167619327, 
      "name": "Raaktstraat", 
      "lonmin": 3.7939909528949824, 
      "sanName": "raaktstraat", 
      "numOfAddr": 5, 
      "lonmax": 3.794533472249947, 
      "latmin": 51.06924595618766
    }, 
    {
      "latmax": 51.059811030099034, 
      "name": "Reginald Warnefordstraat", 
      "lonmin": 3.744624518505258, 
      "sanName": "reginaldwarnefordstraat", 
      "numOfAddr": 119, 
      "lonmax": 3.7484991556752116, 
      "latmin": 51.058099944438105
    }, 
    {
      "latmax": 51.066889857705505, 
      "name": "Rietzangerstraat", 
      "lonmin": 3.7755426537271637, 
      "sanName": "rietzangerstraat", 
      "numOfAddr": 12, 
      "lonmax": 3.776029456205805, 
      "latmin": 51.06675066077488
    }, 
    {
      "latmax": 51.06155403223029, 
      "name": "Rozebroekslag", 
      "lonmin": 3.7576217004841657, 
      "sanName": "rozebroekslag", 
      "numOfAddr": 21, 
      "lonmax": 3.7617388718052154, 
      "latmin": 51.05971185400309
    }, 
    {
      "latmax": 51.062378668321045, 
      "name": "Rozebroekstraat", 
      "lonmin": 3.7521605756173684, 
      "sanName": "rozebroekstraat", 
      "numOfAddr": 73, 
      "lonmax": 3.755968327964152, 
      "latmin": 51.060794642033756
    }, 
    {
      "latmax": 51.062477129394516, 
      "name": "Salviastraat", 
      "lonmin": 3.7539338029047093, 
      "sanName": "salviastraat", 
      "numOfAddr": 61, 
      "lonmax": 3.75629322748327, 
      "latmin": 51.06147506716953
    }, 
    {
      "latmax": 51.05067196741412, 
      "name": "Scaldisstraat", 
      "lonmin": 3.7605609934722395, 
      "sanName": "scaldisstraat", 
      "numOfAddr": 27, 
      "lonmax": 3.7624488091818518, 
      "latmin": 51.049007891256466
    }, 
    {
      "latmax": 51.05236640236084, 
      "name": "Scheldestraat", 
      "lonmin": 3.7492189129111297, 
      "sanName": "scheldestraat", 
      "numOfAddr": 154, 
      "lonmax": 3.7512373201592886, 
      "latmin": 51.04830135936008
    }, 
    {
      "latmax": 51.052454187077664, 
      "name": "Schildersstraat", 
      "lonmin": 3.745786768497483, 
      "sanName": "schildersstraat", 
      "numOfAddr": 31, 
      "lonmax": 3.746938699079945, 
      "latmin": 51.05181386246633
    }, 
    {
      "latmax": 51.06035384400029, 
      "name": "Schoolstraat", 
      "lonmin": 3.7478417839620914, 
      "sanName": "schoolstraat", 
      "numOfAddr": 90, 
      "lonmax": 3.750519540326953, 
      "latmin": 51.05775451577191
    }, 
    {
      "latmax": 51.069384099561574, 
      "name": "Schuurgoedstraat", 
      "lonmin": 3.7764086531452046, 
      "sanName": "schuurgoedstraat", 
      "numOfAddr": 13, 
      "lonmax": 3.7783678262344846, 
      "latmin": 51.06882576006061
    }, 
    {
      "latmax": 51.07355995851796, 
      "name": "Schuurstraat", 
      "lonmin": 3.7749823415973425, 
      "sanName": "schuurstraat", 
      "numOfAddr": 77, 
      "lonmax": 3.7803413631937874, 
      "latmin": 51.06774435222831
    }, 
    {
      "latmax": 51.06174581225982, 
      "name": "Seringendreef", 
      "lonmin": 3.752039495512877, 
      "sanName": "seringendreef", 
      "numOfAddr": 9, 
      "lonmax": 3.7529883247332325, 
      "latmin": 51.06094066376495
    }, 
    {
      "latmax": 51.06582282209477, 
      "name": "Sijsjeslaan", 
      "lonmin": 3.7738672701566682, 
      "sanName": "sijsjeslaan", 
      "numOfAddr": 15, 
      "lonmax": 3.7754872981813525, 
      "latmin": 51.065302220083495
    }, 
    {
      "latmax": 51.05813464895453, 
      "name": "Sint-Baafskouterstraat", 
      "lonmin": 3.752829269680432, 
      "sanName": "sintbaafskouterstraat", 
      "numOfAddr": 106, 
      "lonmax": 3.7563226553331326, 
      "latmin": 51.05493257943742
    }, 
    {
      "latmax": 51.06980014567331, 
      "name": "Sint-Bernadettestraat", 
      "lonmin": 3.74961754868795, 
      "sanName": "sintbernadettestraat", 
      "numOfAddr": 42, 
      "lonmax": 3.751958127859475, 
      "latmin": 51.06824008026838
    }, 
    {
      "latmax": 51.070951420677616, 
      "name": "Sint-Dorotheastraat", 
      "lonmin": 3.7569753195635798, 
      "sanName": "sintdorotheastraat", 
      "numOfAddr": 52, 
      "lonmax": 3.759874494162548, 
      "latmin": 51.067691103396285
    }, 
    {
      "latmax": 51.07326943656047, 
      "name": "Sleutelbloemstraat", 
      "lonmin": 3.7529158172081707, 
      "sanName": "sleutelbloemstraat", 
      "numOfAddr": 9, 
      "lonmax": 3.7542639122114774, 
      "latmin": 51.07254767181616
    }, 
    {
      "latmax": 51.067302672448164, 
      "name": "Speerdistelstraat", 
      "lonmin": 3.782488955196497, 
      "sanName": "speerdistelstraat", 
      "numOfAddr": 8, 
      "lonmax": 3.7841038572924277, 
      "latmin": 51.06675957402507
    }, 
    {
      "latmax": 51.061012833228816, 
      "name": "Spijkstraat", 
      "lonmin": 3.7436044634163457, 
      "sanName": "spijkstraat", 
      "numOfAddr": 39, 
      "lonmax": 3.745075691886024, 
      "latmin": 51.05980943325153
    }, 
    {
      "latmax": 51.06913408389845, 
      "name": "Staf Bruggenstraat", 
      "lonmin": 3.75082642387601, 
      "sanName": "stafbruggenstraat", 
      "numOfAddr": 26, 
      "lonmax": 3.7539435431141808, 
      "latmin": 51.06812301348834
    }, 
    {
      "latmax": 51.06812755236678, 
      "name": "Striemenbergstraat", 
      "lonmin": 3.7478021866145323, 
      "sanName": "striemenbergstraat", 
      "numOfAddr": 22, 
      "lonmax": 3.7487689612697785, 
      "latmin": 51.06667284511846
    }, 
    {
      "latmax": 51.06726135637366, 
      "name": "Sulkystraat", 
      "lonmin": 3.7670873420519198, 
      "sanName": "sulkystraat", 
      "numOfAddr": 14, 
      "lonmax": 3.7677370800439016, 
      "latmin": 51.06640856603329
    }, 
    {
      "latmax": 51.073560788125846, 
      "name": "Theofiel Lybaertstraat", 
      "lonmin": 3.773469442180438, 
      "sanName": "theofiellybaertstraat", 
      "numOfAddr": 32, 
      "lonmax": 3.774711996407442, 
      "latmin": 51.072541290607965
    }, 
    {
      "latmax": 51.07065166609653, 
      "name": "Thomas Edisonstraat", 
      "lonmin": 3.754646440311698, 
      "sanName": "thomasedisonstraat", 
      "numOfAddr": 7, 
      "lonmax": 3.755118660033549, 
      "latmin": 51.07046331263966
    }, 
    {
      "latmax": 51.05190859226422, 
      "name": "Toekomststraat", 
      "lonmin": 3.7449520739862545, 
      "sanName": "toekomststraat", 
      "numOfAddr": 122, 
      "lonmax": 3.7483883638993962, 
      "latmin": 51.049908011456196
    }, 
    {
      "latmax": 51.0657150850537, 
      "name": "Valkenstraat", 
      "lonmin": 3.7727060150219494, 
      "sanName": "valkenstraat", 
      "numOfAddr": 13, 
      "lonmax": 3.7733025390966297, 
      "latmin": 51.06528517454829
    }, 
    {
      "latmax": 51.05565428682287, 
      "name": "Verbindingstraat", 
      "lonmin": 3.748188009197201, 
      "sanName": "verbindingstraat", 
      "numOfAddr": 55, 
      "lonmax": 3.7495849734418143, 
      "latmin": 51.05449156844331
    }, 
    {
      "latmax": 51.06486477540732, 
      "name": "Verkortingstraat", 
      "lonmin": 3.750365665105453, 
      "sanName": "verkortingstraat", 
      "numOfAddr": 64, 
      "lonmax": 3.752429090842694, 
      "latmin": 51.06360104938558
    }, 
    {
      "latmax": 51.06228950903152, 
      "name": "Victor Braeckmanlaan", 
      "lonmin": 3.7500708357581294, 
      "sanName": "victorbraeckmanlaan", 
      "numOfAddr": 166, 
      "lonmax": 3.7617278513513135, 
      "latmin": 51.05894561764201
    }, 
    {
      "latmax": 51.066738833556464, 
      "name": "Vinkenlaan", 
      "lonmin": 3.7727731817402583, 
      "sanName": "vinkenlaan", 
      "numOfAddr": 46, 
      "lonmax": 3.7742690252466544, 
      "latmin": 51.064628437105796
    }, 
    {
      "latmax": 51.06806292288078, 
      "name": "Visitatiestraat", 
      "lonmin": 3.7475420489813644, 
      "sanName": "visitatiestraat", 
      "numOfAddr": 138, 
      "lonmax": 3.7497217512974372, 
      "latmin": 51.062074932813516
    }, 
    {
      "latmax": 51.07213880302969, 
      "name": "Vriendschapstraat", 
      "lonmin": 3.7737182183817195, 
      "sanName": "vriendschapstraat", 
      "numOfAddr": 40, 
      "lonmax": 3.776403694910142, 
      "latmin": 51.071255906886925
    }, 
    {
      "latmax": 51.074886902599545, 
      "name": "Waterdreef", 
      "lonmin": 3.756829217035871, 
      "sanName": "waterdreef", 
      "numOfAddr": 18, 
      "lonmax": 3.7588867291585775, 
      "latmin": 51.07363847388057
    }, 
    {
      "latmax": 51.047308506561244, 
      "name": "Waterkluiskaai", 
      "lonmin": 3.7517719181830285, 
      "sanName": "waterkluiskaai", 
      "numOfAddr": 14, 
      "lonmax": 3.7545625695437397, 
      "latmin": 51.047129773872655
    }, 
    {
      "latmax": 51.075360742582255, 
      "name": "Waterstraat", 
      "lonmin": 3.7522052298707758, 
      "sanName": "waterstraat", 
      "numOfAddr": 158, 
      "lonmax": 3.7623580498852522, 
      "latmin": 51.06986169982744
    }, 
    {
      "latmax": 51.06733446523616, 
      "name": "Westveldstraat", 
      "lonmin": 3.7753992442134003, 
      "sanName": "westveldstraat", 
      "numOfAddr": 40, 
      "lonmax": 3.7783784390534727, 
      "latmin": 51.065762954807816
    }, 
    {
      "latmax": 51.05348984089894, 
      "name": "Wijmakker", 
      "lonmin": 3.755625698722246, 
      "sanName": "wijmakker", 
      "numOfAddr": 5, 
      "lonmax": 3.756192176006805, 
      "latmin": 51.053053722831706
    }, 
    {
      "latmax": 51.0572101883285, 
      "name": "Wittemolenstraat", 
      "lonmin": 3.7467642756855017, 
      "sanName": "wittemolenstraat", 
      "numOfAddr": 142, 
      "lonmax": 3.7507026428213295, 
      "latmin": 51.05451115891242
    }, 
    {
      "latmax": 51.04957490016518, 
      "name": "Wolterslaan", 
      "lonmin": 3.746097562426864, 
      "sanName": "wolterslaan", 
      "numOfAddr": 91, 
      "lonmax": 3.7517295531517325, 
      "latmin": 51.047341814861674
    }, 
    {
      "latmax": 51.066464888479814, 
      "name": "Zavelput", 
      "lonmin": 3.7599027432560415, 
      "sanName": "zavelput", 
      "numOfAddr": 51, 
      "lonmax": 3.761556484987651, 
      "latmin": 51.06492992119762
    }, 
    {
      "latmax": 51.07607819745339, 
      "name": "Zenobe Grammestraat", 
      "lonmin": 3.78080566174605, 
      "sanName": "zenobegrammestraat", 
      "numOfAddr": 55, 
      "lonmax": 3.784080764180067, 
      "latmin": 51.07407506670432
    }, 
    {
      "latmax": 51.06534707448729, 
      "name": "Zilvermeeuwstraat", 
      "lonmin": 3.7769659068231327, 
      "sanName": "zilvermeeuwstraat", 
      "numOfAddr": 2, 
      "lonmax": 3.777209971699863, 
      "latmin": 51.06532220890296
    }, 
    {
      "latmax": 51.075021252466684, 
      "name": "Zingemkouterstraat", 
      "lonmin": 3.7624109981806217, 
      "sanName": "zingemkouterstraat", 
      "numOfAddr": 60, 
      "lonmax": 3.7647987281223205, 
      "latmin": 51.07199383944924
    }, 
    {
      "latmax": 51.05069368775477, 
      "name": "Zomerwee", 
      "lonmin": 3.764980776515945, 
      "sanName": "zomerwee", 
      "numOfAddr": 2, 
      "lonmax": 3.7649904413965127, 
      "latmin": 51.050691121287365
    }
  ]
}