{
  "streets": [
    {
      "latmax": 51.019730570078956, 
      "name": "Adelaarsstraat", 
      "lonmin": 3.663718331037692, 
      "sanName": "adelaarsstraat", 
      "numOfAddr": 22, 
      "lonmax": 3.6676770834833263, 
      "latmin": 51.01734743699969
    }, 
    {
      "latmax": 51.03204978122162, 
      "name": "Afsneedorp", 
      "lonmin": 3.6662819636390163, 
      "sanName": "afsneedorp", 
      "numOfAddr": 30, 
      "lonmax": 3.669326493497552, 
      "latmin": 51.03016448175565
    }, 
    {
      "latmax": 51.03471744188426, 
      "name": "Afsneekouter", 
      "lonmin": 3.659604869389094, 
      "sanName": "afsneekouter", 
      "numOfAddr": 26, 
      "lonmax": 3.66578752635564, 
      "latmin": 51.030653721362555
    }, 
    {
      "latmax": 51.0242103033777, 
      "name": "Afsneemolenstraat", 
      "lonmin": 3.65179825882904, 
      "sanName": "afsneemolenstraat", 
      "numOfAddr": 5, 
      "lonmax": 3.6522989550479443, 
      "latmin": 51.02317114913946
    }, 
    {
      "latmax": 51.028673452194624, 
      "name": "Afsneestraat", 
      "lonmin": 3.668234684769907, 
      "sanName": "afsneestraat", 
      "numOfAddr": 18, 
      "lonmax": 3.6700503109488203, 
      "latmin": 51.02595415373952
    }, 
    {
      "latmax": 51.020986067468975, 
      "name": "Amaryllislaan", 
      "lonmin": 3.675099576994228, 
      "sanName": "amaryllislaan", 
      "numOfAddr": 10, 
      "lonmax": 3.675696818251964, 
      "latmin": 51.0207011872561
    }, 
    {
      "latmax": 51.03095331460669, 
      "name": "Amelia Earhartlaan", 
      "lonmin": 3.689073186405298, 
      "sanName": "ameliaearhartlaan", 
      "numOfAddr": 7, 
      "lonmax": 3.6917192961180083, 
      "latmin": 51.03002167142241
    }, 
    {
      "latmax": 51.02209410467323, 
      "name": "Armand Bourdonlaan", 
      "lonmin": 3.697960904022111, 
      "sanName": "armandbourdonlaan", 
      "numOfAddr": 9, 
      "lonmax": 3.698720343576548, 
      "latmin": 51.02135230441213
    }, 
    {
      "latmax": 51.029919723694825, 
      "name": "Autoweg-Noord", 
      "lonmin": 3.6563034447851783, 
      "sanName": "autowegnoord", 
      "numOfAddr": 3, 
      "lonmax": 3.6590865437705595, 
      "latmin": 51.02886404429159
    }, 
    {
      "latmax": 51.0281762705254, 
      "name": "Autoweg-Zuid", 
      "lonmin": 3.6580285442536566, 
      "sanName": "autowegzuid", 
      "numOfAddr": 4, 
      "lonmax": 3.6636857581868902, 
      "latmin": 51.02615994273412
    }, 
    {
      "latmax": 51.01451293744512, 
      "name": "Belgi\u0089laan", 
      "lonmin": 3.6674032227785087, 
      "sanName": "belgilaan", 
      "numOfAddr": 64, 
      "lonmax": 3.673832955264016, 
      "latmin": 51.0105997208757
    }, 
    {
      "latmax": 51.03274293668889, 
      "name": "Beukenlaan", 
      "lonmin": 3.6717311565819744, 
      "sanName": "beukenlaan", 
      "numOfAddr": 104, 
      "lonmax": 3.6856608553153687, 
      "latmin": 51.02533978034032
    }, 
    {
      "latmax": 51.021442516204246, 
      "name": "Bijenstraat", 
      "lonmin": 3.680195758157914, 
      "sanName": "bijenstraat", 
      "numOfAddr": 3, 
      "lonmax": 3.680711309905701, 
      "latmin": 51.02123809466665
    }, 
    {
      "latmax": 51.02994526092024, 
      "name": "Boesbeeklaan", 
      "lonmin": 3.680100579777395, 
      "sanName": "boesbeeklaan", 
      "numOfAddr": 35, 
      "lonmax": 3.681958524380041, 
      "latmin": 51.0257598562074
    }, 
    {
      "latmax": 51.02251730278737, 
      "name": "Borluutplein", 
      "lonmin": 3.66601295032286, 
      "sanName": "borluutplein", 
      "numOfAddr": 20, 
      "lonmax": 3.667349917698219, 
      "latmin": 51.021758251299076
    }, 
    {
      "latmax": 51.022716885642204, 
      "name": "Borluutstraat", 
      "lonmin": 3.665812351631197, 
      "sanName": "borluutstraat", 
      "numOfAddr": 24, 
      "lonmax": 3.6684562272651955, 
      "latmin": 51.02130619044183
    }, 
    {
      "latmax": 51.02420708601053, 
      "name": "Bovenhove", 
      "lonmin": 3.689320475482606, 
      "sanName": "bovenhove", 
      "numOfAddr": 1, 
      "lonmax": 3.689320475482606, 
      "latmin": 51.02420708601053
    }, 
    {
      "latmax": 51.02290354487559, 
      "name": "Bressers-Blanchaertlaan", 
      "lonmin": 3.693532569231291, 
      "sanName": "bressersblanchaertlaan", 
      "numOfAddr": 7, 
      "lonmax": 3.694795877061554, 
      "latmin": 51.02243506139308
    }, 
    {
      "latmax": 51.035481160544805, 
      "name": "Brillandstraat", 
      "lonmin": 3.6629510395351894, 
      "sanName": "brillandstraat", 
      "numOfAddr": 7, 
      "lonmax": 3.6645892849078736, 
      "latmin": 51.03489073734261
    }, 
    {
      "latmax": 51.031671937347824, 
      "name": "Broekkantstraat", 
      "lonmin": 3.6583192268724245, 
      "sanName": "broekkantstraat", 
      "numOfAddr": 48, 
      "lonmax": 3.668329230132303, 
      "latmin": 51.02909638267891
    }, 
    {
      "latmax": 51.03175515807396, 
      "name": "Buchtenstraat", 
      "lonmin": 3.6846167577628277, 
      "sanName": "buchtenstraat", 
      "numOfAddr": 9, 
      "lonmax": 3.6874524709790304, 
      "latmin": 51.02837149390266
    }, 
    {
      "latmax": 51.01858657726482, 
      "name": "David Tenierslaan", 
      "lonmin": 3.6829386805022755, 
      "sanName": "davidtenierslaan", 
      "numOfAddr": 13, 
      "lonmax": 3.68458739583724, 
      "latmin": 51.01735646732327
    }, 
    {
      "latmax": 51.024219290977086, 
      "name": "Derbystraat", 
      "lonmin": 3.6939010180016907, 
      "sanName": "derbystraat", 
      "numOfAddr": 23, 
      "lonmax": 3.6992827599922498, 
      "latmin": 51.02304997948318
    }, 
    {
      "latmax": 51.02135979547265, 
      "name": "Drie Koningenstraat", 
      "lonmin": 3.690310109960209, 
      "sanName": "driekoningenstraat", 
      "numOfAddr": 8, 
      "lonmax": 3.6928558381081316, 
      "latmin": 51.0202238094402
    }, 
    {
      "latmax": 51.01938622771212, 
      "name": "Drie Sleutelsstraat", 
      "lonmin": 3.662364404535993, 
      "sanName": "driesleutelsstraat", 
      "numOfAddr": 18, 
      "lonmax": 3.664107001641568, 
      "latmin": 51.017217072249956
    }, 
    {
      "latmax": 51.02818833256595, 
      "name": "Duddegemstraat", 
      "lonmin": 3.6571715192521124, 
      "sanName": "duddegemstraat", 
      "numOfAddr": 25, 
      "lonmax": 3.6610760856524167, 
      "latmin": 51.02213850209532
    }, 
    {
      "latmax": 51.02419721729792, 
      "name": "Emile Andelhofstraat", 
      "lonmin": 3.6712040791098497, 
      "sanName": "emileandelhofstraat", 
      "numOfAddr": 12, 
      "lonmax": 3.6720305200955723, 
      "latmin": 51.02338317273392
    }, 
    {
      "latmax": 51.03044039652829, 
      "name": "Ernest Claeslaan", 
      "lonmin": 3.681220824539522, 
      "sanName": "ernestclaeslaan", 
      "numOfAddr": 36, 
      "lonmax": 3.684398557746122, 
      "latmin": 51.02799684711296
    }, 
    {
      "latmax": 51.02937200869147, 
      "name": "Ewald Delbaerestraat", 
      "lonmin": 3.671438710043936, 
      "sanName": "ewalddelbaerestraat", 
      "numOfAddr": 12, 
      "lonmax": 3.6740122660552044, 
      "latmin": 51.028136400715766
    }, 
    {
      "latmax": 51.01948378108243, 
      "name": "Frans Halslaan", 
      "lonmin": 3.6807726378795778, 
      "sanName": "franshalslaan", 
      "numOfAddr": 9, 
      "lonmax": 3.6822969385065414, 
      "latmin": 51.018789463566584
    }, 
    {
      "latmax": 51.020421651898694, 
      "name": "Gemeenteplein", 
      "lonmin": 3.667099875619431, 
      "sanName": "gemeenteplein", 
      "numOfAddr": 14, 
      "lonmax": 3.668111923292346, 
      "latmin": 51.01950911692685
    }, 
    {
      "latmax": 51.02154736735251, 
      "name": "Gentiaanlaan", 
      "lonmin": 3.6761772114128286, 
      "sanName": "gentiaanlaan", 
      "numOfAddr": 10, 
      "lonmax": 3.676527088960518, 
      "latmin": 51.02111103244533
    }, 
    {
      "latmax": 51.01526272963587, 
      "name": "Geo Verbancklaan", 
      "lonmin": 3.6689847442934918, 
      "sanName": "geoverbancklaan", 
      "numOfAddr": 10, 
      "lonmax": 3.67089793901354, 
      "latmin": 51.01439039707424
    }, 
    {
      "latmax": 51.021099406377324, 
      "name": "Gladioollaan", 
      "lonmin": 3.674843260122499, 
      "sanName": "gladioollaan", 
      "numOfAddr": 7, 
      "lonmax": 3.675117009341848, 
      "latmin": 51.0208798633346
    }, 
    {
      "latmax": 51.04101530746829, 
      "name": "Goedingenstraat", 
      "lonmin": 3.6460494000359254, 
      "sanName": "goedingenstraat", 
      "numOfAddr": 49, 
      "lonmax": 3.6586167284538007, 
      "latmin": 51.03002822109518
    }, 
    {
      "latmax": 51.02313889673917, 
      "name": "Hans Van Wervekestraat", 
      "lonmin": 3.6667154048097514, 
      "sanName": "hansvanwervekestraat", 
      "numOfAddr": 14, 
      "lonmax": 3.667623538086317, 
      "latmin": 51.02259942806628
    }, 
    {
      "latmax": 51.01633986280615, 
      "name": "Hemelrijkstraat", 
      "lonmin": 3.663250448528637, 
      "sanName": "hemelrijkstraat", 
      "numOfAddr": 68, 
      "lonmax": 3.6750083721237496, 
      "latmin": 51.00681337632539
    }, 
    {
      "latmax": 51.02785130739437, 
      "name": "Hemingplein", 
      "lonmin": 3.6793452388416177, 
      "sanName": "hemingplein", 
      "numOfAddr": 15, 
      "lonmax": 3.681231327130551, 
      "latmin": 51.026491342741664
    }, 
    {
      "latmax": 51.02470897679807, 
      "name": "Henri Crombezlaan", 
      "lonmin": 3.6938911266234187, 
      "sanName": "henricrombezlaan", 
      "numOfAddr": 1, 
      "lonmax": 3.6938911266234187, 
      "latmin": 51.02470897679807
    }, 
    {
      "latmax": 51.01441844259672, 
      "name": "Henry Stanleylaan", 
      "lonmin": 3.666796183987361, 
      "sanName": "henrystanleylaan", 
      "numOfAddr": 8, 
      "lonmax": 3.668203425239059, 
      "latmin": 51.014028363921724
    }, 
    {
      "latmax": 51.02356539779734, 
      "name": "H\u0082l\u008ane Dutrieulaan", 
      "lonmin": 3.690557430724144, 
      "sanName": "hlnedutrieulaan", 
      "numOfAddr": 5, 
      "lonmax": 3.6921599625449484, 
      "latmin": 51.0227339162844
    }, 
    {
      "latmax": 51.02261809014622, 
      "name": "Hogeheerweg", 
      "lonmin": 3.670564460656265, 
      "sanName": "hogeheerweg", 
      "numOfAddr": 63, 
      "lonmax": 3.6742969151716025, 
      "latmin": 51.02045530654123
    }, 
    {
      "latmax": 51.015760818764754, 
      "name": "Hubert Malfaitlaan", 
      "lonmin": 3.667762563170925, 
      "sanName": "hubertmalfaitlaan", 
      "numOfAddr": 17, 
      "lonmax": 3.6689618008260227, 
      "latmin": 51.013841321007874
    }, 
    {
      "latmax": 51.01419544679357, 
      "name": "James Ensorlaan", 
      "lonmin": 3.6651758929952596, 
      "sanName": "jamesensorlaan", 
      "numOfAddr": 50, 
      "lonmax": 3.6718705046344042, 
      "latmin": 51.0127843580107
    }, 
    {
      "latmax": 51.024233872560266, 
      "name": "Jean-Baptiste de Ghellincklaan", 
      "lonmin": 3.6771128686703847, 
      "sanName": "jeanbaptistedeghellincklaan", 
      "numOfAddr": 17, 
      "lonmax": 3.6802281773499423, 
      "latmin": 51.01953924284574
    }, 
    {
      "latmax": 51.01532685355735, 
      "name": "Jean-Baptiste de Gieylaan", 
      "lonmin": 3.659761663453175, 
      "sanName": "jeanbaptistedegieylaan", 
      "numOfAddr": 14, 
      "lonmax": 3.6634857151081657, 
      "latmin": 51.010309838782604
    }, 
    {
      "latmax": 51.01218759159218, 
      "name": "Jeroom Duquesnoylaan", 
      "lonmin": 3.6686516649983405, 
      "sanName": "jeroomduquesnoylaan", 
      "numOfAddr": 39, 
      "lonmax": 3.6722532985193928, 
      "latmin": 51.00961192005625
    }, 
    {
      "latmax": 51.03433035305932, 
      "name": "Kareelstraat", 
      "lonmin": 3.6829276085044076, 
      "sanName": "kareelstraat", 
      "numOfAddr": 21, 
      "lonmax": 3.6859354346705766, 
      "latmin": 51.0329615932886
    }, 
    {
      "latmax": 51.008363819117875, 
      "name": "Keistraat", 
      "lonmin": 3.656479130117635, 
      "sanName": "keistraat", 
      "numOfAddr": 2, 
      "lonmax": 3.657156308278304, 
      "latmin": 51.008152429140694
    }, 
    {
      "latmax": 51.02357069966689, 
      "name": "Kerkdreef", 
      "lonmin": 3.6690235772016297, 
      "sanName": "kerkdreef", 
      "numOfAddr": 12, 
      "lonmax": 3.669938875753198, 
      "latmin": 51.02250756795661
    }, 
    {
      "latmax": 51.02261278473326, 
      "name": "Kerkwegel", 
      "lonmin": 3.6707799624185613, 
      "sanName": "kerkwegel", 
      "numOfAddr": 1, 
      "lonmax": 3.6707799624185613, 
      "latmin": 51.02261278473326
    }, 
    {
      "latmax": 51.02249703594026, 
      "name": "Kleine Duddegemstraat", 
      "lonmin": 3.655033536553532, 
      "sanName": "kleineduddegemstraat", 
      "numOfAddr": 5, 
      "lonmax": 3.658464288381109, 
      "latmin": 51.02113867720042
    }, 
    {
      "latmax": 51.020398325112765, 
      "name": "Kleine Gentstraat", 
      "lonmin": 3.657836182088177, 
      "sanName": "kleinegentstraat", 
      "numOfAddr": 53, 
      "lonmax": 3.6671766606763607, 
      "latmin": 51.01857964260354
    }, 
    {
      "latmax": 51.03311244826517, 
      "name": "Kleine Goedingenstraat", 
      "lonmin": 3.661270746925646, 
      "sanName": "kleinegoedingenstraat", 
      "numOfAddr": 28, 
      "lonmax": 3.6656860345984894, 
      "latmin": 51.030863208746894
    }, 
    {
      "latmax": 51.02738067838333, 
      "name": "Kleinemoortelputstraat", 
      "lonmin": 3.646738957035256, 
      "sanName": "kleinemoortelputstraat", 
      "numOfAddr": 4, 
      "lonmax": 3.6527336804298907, 
      "latmin": 51.02454180490872
    }, 
    {
      "latmax": 51.02735285875639, 
      "name": "Kleinkouterken", 
      "lonmin": 3.6708719656686375, 
      "sanName": "kleinkouterken", 
      "numOfAddr": 19, 
      "lonmax": 3.6736967174594644, 
      "latmin": 51.02540472884632
    }, 
    {
      "latmax": 51.02311085793833, 
      "name": "Kortrijksesteenweg", 
      "lonmin": 3.650930633962221, 
      "sanName": "kortrijksesteenweg", 
      "numOfAddr": 174, 
      "lonmax": 3.7002330278576494, 
      "latmin": 51.01495363487254
    }, 
    {
      "latmax": 51.01993045837758, 
      "name": "Krijzeltand", 
      "lonmin": 3.6692212025710527, 
      "sanName": "krijzeltand", 
      "numOfAddr": 15, 
      "lonmax": 3.670843427195461, 
      "latmin": 51.01885398920026
    }, 
    {
      "latmax": 51.033165963490006, 
      "name": "Kromme Leie", 
      "lonmin": 3.6825216396282316, 
      "sanName": "krommeleie", 
      "numOfAddr": 32, 
      "lonmax": 3.6846015333923274, 
      "latmin": 51.03126814096577
    }, 
    {
      "latmax": 51.024077762944216, 
      "name": "Lauwstraat", 
      "lonmin": 3.659267962453524, 
      "sanName": "lauwstraat", 
      "numOfAddr": 67, 
      "lonmax": 3.6684402028048604, 
      "latmin": 51.01942227296639
    }, 
    {
      "latmax": 51.038197865613505, 
      "name": "Leieoever", 
      "lonmin": 3.654640631702014, 
      "sanName": "leieoever", 
      "numOfAddr": 8, 
      "lonmax": 3.6595095179084423, 
      "latmin": 51.03756923401933
    }, 
    {
      "latmax": 51.030293936711196, 
      "name": "Leiepark", 
      "lonmin": 3.6696101424280094, 
      "sanName": "leiepark", 
      "numOfAddr": 21, 
      "lonmax": 3.675538128120078, 
      "latmin": 51.02795787575069
    }, 
    {
      "latmax": 51.02431877578314, 
      "name": "Leieriggestraat", 
      "lonmin": 3.647046997693797, 
      "sanName": "leieriggestraat", 
      "numOfAddr": 12, 
      "lonmax": 3.655457404124124, 
      "latmin": 51.01928375449617
    }, 
    {
      "latmax": 51.02892355175263, 
      "name": "Lettelbroeklaan", 
      "lonmin": 3.677877745092994, 
      "sanName": "lettelbroeklaan", 
      "numOfAddr": 22, 
      "lonmax": 3.6799233106205547, 
      "latmin": 51.02681649438269
    }, 
    {
      "latmax": 51.02818712324502, 
      "name": "Lodewijk De Raetstraat", 
      "lonmin": 3.667284562392099, 
      "sanName": "lodewijkderaetstraat", 
      "numOfAddr": 21, 
      "lonmax": 3.668684549393012, 
      "latmin": 51.02628425434313
    }, 
    {
      "latmax": 51.02507343891365, 
      "name": "Loofblommestraat", 
      "lonmin": 3.667779382454998, 
      "sanName": "loofblommestraat", 
      "numOfAddr": 70, 
      "lonmax": 3.6706319700677366, 
      "latmin": 51.020353746935776
    }, 
    {
      "latmax": 51.02588367788065, 
      "name": "Louis Delebecquelaan", 
      "lonmin": 3.6693852215491756, 
      "sanName": "louisdelebecquelaan", 
      "numOfAddr": 31, 
      "lonmax": 3.679579972458349, 
      "latmin": 51.022979386416196
    }, 
    {
      "latmax": 51.025694605208464, 
      "name": "Luchthavenlaan", 
      "lonmin": 3.6668859951273634, 
      "sanName": "luchthavenlaan", 
      "numOfAddr": 38, 
      "lonmax": 3.6789286133002603, 
      "latmin": 51.02212562588445
    }, 
    {
      "latmax": 51.02670101467366, 
      "name": "Maaltekouter", 
      "lonmin": 3.688207951165515, 
      "sanName": "maaltekouter", 
      "numOfAddr": 5, 
      "lonmax": 3.6918669571431817, 
      "latmin": 51.023393508222284
    }, 
    {
      "latmax": 51.03098773231366, 
      "name": "Maaltenaard", 
      "lonmin": 3.683432376606489, 
      "sanName": "maaltenaard", 
      "numOfAddr": 6, 
      "lonmax": 3.684800453548536, 
      "latmin": 51.03063826977333
    }, 
    {
      "latmax": 51.02208034363148, 
      "name": "Maurice Dewulflaan", 
      "lonmin": 3.6647308140904387, 
      "sanName": "mauricedewulflaan", 
      "numOfAddr": 12, 
      "lonmax": 3.6662230393591444, 
      "latmin": 51.02026456372914
    }, 
    {
      "latmax": 51.02312670137256, 
      "name": "Meiklokjeslaan", 
      "lonmin": 3.6742170850819895, 
      "sanName": "meiklokjeslaan", 
      "numOfAddr": 44, 
      "lonmax": 3.6771791088163, 
      "latmin": 51.02187122393446
    }, 
    {
      "latmax": 51.02904116933529, 
      "name": "Meulenbroekstraat", 
      "lonmin": 3.6676243174442313, 
      "sanName": "meulenbroekstraat", 
      "numOfAddr": 6, 
      "lonmax": 3.6681070210548605, 
      "latmin": 51.028437788091225
    }, 
    {
      "latmax": 51.02534841422462, 
      "name": "Neststraat", 
      "lonmin": 3.6665404510868966, 
      "sanName": "neststraat", 
      "numOfAddr": 13, 
      "lonmax": 3.6670204641139685, 
      "latmin": 51.023878750289356
    }, 
    {
      "latmax": 51.02018329147756, 
      "name": "Nieuwstraat", 
      "lonmin": 3.6742859008649766, 
      "sanName": "nieuwstraat", 
      "numOfAddr": 22, 
      "lonmax": 3.6755820402813177, 
      "latmin": 51.019088968697275
    }, 
    {
      "latmax": 51.02018735672946, 
      "name": "Octaaf Soudanstraat", 
      "lonmin": 3.675142036587602, 
      "sanName": "octaafsoudanstraat", 
      "numOfAddr": 27, 
      "lonmax": 3.677204555402777, 
      "latmin": 51.019476646147936
    }, 
    {
      "latmax": 51.02046504143669, 
      "name": "Oudeheerweg", 
      "lonmin": 3.6698905403139532, 
      "sanName": "oudeheerweg", 
      "numOfAddr": 34, 
      "lonmax": 3.6743322934609925, 
      "latmin": 51.01968945780245
    }, 
    {
      "latmax": 51.018841539990966, 
      "name": "Overmeersstraat", 
      "lonmin": 3.6587275251667934, 
      "sanName": "overmeersstraat", 
      "numOfAddr": 22, 
      "lonmax": 3.6604289205011176, 
      "latmin": 51.01650418470321
    }, 
    {
      "latmax": 51.02254590936824, 
      "name": "Pastorijdreef", 
      "lonmin": 3.66947692537426, 
      "sanName": "pastorijdreef", 
      "numOfAddr": 3, 
      "lonmax": 3.670112310877074, 
      "latmin": 51.02168093464994
    }, 
    {
      "latmax": 51.028538860051356, 
      "name": "Pauline Van Pottelsberghelaan", 
      "lonmin": 3.687604924185228, 
      "sanName": "paulinevanpottelsberghelaan", 
      "numOfAddr": 2, 
      "lonmax": 3.6876321758317503, 
      "latmin": 51.02850130669448
    }, 
    {
      "latmax": 51.01839615881726, 
      "name": "Pieter Brueghellaan", 
      "lonmin": 3.684234415359536, 
      "sanName": "pieterbrueghellaan", 
      "numOfAddr": 8, 
      "lonmax": 3.6854699114851543, 
      "latmin": 51.01779587743114
    }, 
    {
      "latmax": 51.019297569402674, 
      "name": "Pieter Pauwel Rubenslaan", 
      "lonmin": 3.6805456749801517, 
      "sanName": "pieterpauwelrubenslaan", 
      "numOfAddr": 16, 
      "lonmax": 3.683455351633285, 
      "latmin": 51.01808083428074
    }, 
    {
      "latmax": 51.01953216286349, 
      "name": "Pieter van Reysschootlaan", 
      "lonmin": 3.682621505603799, 
      "sanName": "pietervanreysschootlaan", 
      "numOfAddr": 6, 
      "lonmax": 3.6859782329999735, 
      "latmin": 51.01779899240249
    }, 
    {
      "latmax": 51.021556143197024, 
      "name": "Pleispark", 
      "lonmin": 3.6921784545000356, 
      "sanName": "pleispark", 
      "numOfAddr": 43, 
      "lonmax": 3.698389208371977, 
      "latmin": 51.01871183551854
    }, 
    {
      "latmax": 51.025953737015975, 
      "name": "Poolse-Winglaan", 
      "lonmin": 3.6960280124795335, 
      "sanName": "poolsewinglaan", 
      "numOfAddr": 36, 
      "lonmax": 3.6998989532697415, 
      "latmin": 51.023537369549636
    }, 
    {
      "latmax": 51.0323745891094, 
      "name": "Poortakkerstraat", 
      "lonmin": 3.6807400364398295, 
      "sanName": "poortakkerstraat", 
      "numOfAddr": 34, 
      "lonmax": 3.6899943853899932, 
      "latmin": 51.02271055777917
    }, 
    {
      "latmax": 51.02265901795215, 
      "name": "Primulastraat", 
      "lonmin": 3.6712837577744297, 
      "sanName": "primulastraat", 
      "numOfAddr": 2, 
      "lonmax": 3.671726264248203, 
      "latmin": 51.02217609464942
    }, 
    {
      "latmax": 51.02362132724463, 
      "name": "Putkapelstraat", 
      "lonmin": 3.691516210446903, 
      "sanName": "putkapelstraat", 
      "numOfAddr": 22, 
      "lonmax": 3.6939186158538693, 
      "latmin": 51.02215724913537
    }, 
    {
      "latmax": 51.01907130774684, 
      "name": "Putstraat", 
      "lonmin": 3.67125071149964, 
      "sanName": "putstraat", 
      "numOfAddr": 34, 
      "lonmax": 3.692790570645728, 
      "latmin": 51.00869729975112
    }, 
    {
      "latmax": 51.027498965439435, 
      "name": "Raymonde de Larochelaan", 
      "lonmin": 3.6968247811418746, 
      "sanName": "raymondedelarochelaan", 
      "numOfAddr": 1, 
      "lonmax": 3.6968247811418746, 
      "latmin": 51.027498965439435
    }, 
    {
      "latmax": 51.022844106451416, 
      "name": "Rijsbrugge", 
      "lonmin": 3.6521962275531954, 
      "sanName": "rijsbrugge", 
      "numOfAddr": 10, 
      "lonmax": 3.654921935405484, 
      "latmin": 51.020146644446555
    }, 
    {
      "latmax": 51.031652395835664, 
      "name": "Rivierstraat", 
      "lonmin": 3.6793857171037025, 
      "sanName": "rivierstraat", 
      "numOfAddr": 10, 
      "lonmax": 3.6802429201238076, 
      "latmin": 51.03045692292406
    }, 
    {
      "latmax": 51.01821372825604, 
      "name": "Rogier van der Weydenlaan", 
      "lonmin": 3.6820973112876807, 
      "sanName": "rogiervanderweydenlaan", 
      "numOfAddr": 9, 
      "lonmax": 3.683345834970919, 
      "latmin": 51.017516683527504
    }, 
    {
      "latmax": 51.0144040085145, 
      "name": "Rosdamstraat", 
      "lonmin": 3.651977365596374, 
      "sanName": "rosdamstraat", 
      "numOfAddr": 12, 
      "lonmax": 3.655431975958712, 
      "latmin": 51.0079579770549
    }, 
    {
      "latmax": 51.0220404909714, 
      "name": "Rozenpark", 
      "lonmin": 3.6746921260428747, 
      "sanName": "rozenpark", 
      "numOfAddr": 20, 
      "lonmax": 3.6760715564833997, 
      "latmin": 51.02125632027593
    }, 
    {
      "latmax": 51.029674746894834, 
      "name": "Scheepsankerstraat", 
      "lonmin": 3.6761682303098735, 
      "sanName": "scheepsankerstraat", 
      "numOfAddr": 7, 
      "lonmax": 3.6776508859606953, 
      "latmin": 51.029157577536346
    }, 
    {
      "latmax": 51.01774671261346, 
      "name": "Schoonzichtstraat", 
      "lonmin": 3.6708643995821326, 
      "sanName": "schoonzichtstraat", 
      "numOfAddr": 24, 
      "lonmax": 3.6723299840016512, 
      "latmin": 51.014311493537605
    }, 
    {
      "latmax": 51.01869790063329, 
      "name": "Schuttershof", 
      "lonmin": 3.660368821558755, 
      "sanName": "schuttershof", 
      "numOfAddr": 25, 
      "lonmax": 3.662214864091679, 
      "latmin": 51.01712644596868
    }, 
    {
      "latmax": 51.017406566286006, 
      "name": "Simon Beninglaan", 
      "lonmin": 3.682679957225487, 
      "sanName": "simonbeninglaan", 
      "numOfAddr": 6, 
      "lonmax": 3.683721226557401, 
      "latmin": 51.0170375067746
    }, 
    {
      "latmax": 51.01975139828797, 
      "name": "Sint-Dionysiusstraat", 
      "lonmin": 3.668125967673824, 
      "sanName": "sintdionysiusstraat", 
      "numOfAddr": 53, 
      "lonmax": 3.6706594518802698, 
      "latmin": 51.01837768781733
    }, 
    {
      "latmax": 51.02072719147493, 
      "name": "Sint-Rochusplein", 
      "lonmin": 3.674014069213753, 
      "sanName": "sintrochusplein", 
      "numOfAddr": 13, 
      "lonmax": 3.675047172461369, 
      "latmin": 51.02005792058912
    }, 
    {
      "latmax": 51.02049739213208, 
      "name": "Sint-Rochusstraat", 
      "lonmin": 3.6752105410919587, 
      "sanName": "sintrochusstraat", 
      "numOfAddr": 13, 
      "lonmax": 3.676342078668199, 
      "latmin": 51.02035545815319
    }, 
    {
      "latmax": 51.0182350598527, 
      "name": "Soenenspark", 
      "lonmin": 3.6714585516555918, 
      "sanName": "soenenspark", 
      "numOfAddr": 58, 
      "lonmax": 3.675702180385428, 
      "latmin": 51.01459915696299
    }, 
    {
      "latmax": 51.02918147671768, 
      "name": "Steenaardestraat", 
      "lonmin": 3.6675146113015042, 
      "sanName": "steenaardestraat", 
      "numOfAddr": 40, 
      "lonmax": 3.680989712615804, 
      "latmin": 51.02566480686336
    }, 
    {
      "latmax": 51.01610821391119, 
      "name": "Steppestede", 
      "lonmin": 3.6639377206341996, 
      "sanName": "steppestede", 
      "numOfAddr": 46, 
      "lonmax": 3.667348154542034, 
      "latmin": 51.014270508045264
    }, 
    {
      "latmax": 51.029965214769106, 
      "name": "Stijn Streuvelslaan", 
      "lonmin": 3.6821245241345273, 
      "sanName": "stijnstreuvelslaan", 
      "numOfAddr": 20, 
      "lonmax": 3.6832323066173744, 
      "latmin": 51.02697667160623
    }, 
    {
      "latmax": 51.018013802630676, 
      "name": "Surkelbulk", 
      "lonmin": 3.68858319719402, 
      "sanName": "surkelbulk", 
      "numOfAddr": 8, 
      "lonmax": 3.69013651721688, 
      "latmin": 51.017027549617765
    }, 
    {
      "latmax": 51.023024470017106, 
      "name": "Tijgerlelielaan", 
      "lonmin": 3.6735397259664913, 
      "sanName": "tijgerlelielaan", 
      "numOfAddr": 20, 
      "lonmax": 3.67481877404943, 
      "latmin": 51.02189098769618
    }, 
    {
      "latmax": 51.020715289944725, 
      "name": "Twaalfapostelenstraat", 
      "lonmin": 3.678977159889385, 
      "sanName": "twaalfapostelenstraat", 
      "numOfAddr": 12, 
      "lonmax": 3.6814247560863445, 
      "latmin": 51.02007690677391
    }, 
    {
      "latmax": 51.02345520679283, 
      "name": "Vennebos", 
      "lonmin": 3.6720919534740024, 
      "sanName": "vennebos", 
      "numOfAddr": 46, 
      "lonmax": 3.674412132146926, 
      "latmin": 51.02121741814838
    }, 
    {
      "latmax": 51.024592308225145, 
      "name": "Vennestraat", 
      "lonmin": 3.6689045389107497, 
      "sanName": "vennestraat", 
      "numOfAddr": 18, 
      "lonmax": 3.6709568024550427, 
      "latmin": 51.024024081244505
    }, 
    {
      "latmax": 51.03834803427088, 
      "name": "Veurestraat", 
      "lonmin": 3.662254301803562, 
      "sanName": "veurestraat", 
      "numOfAddr": 48, 
      "lonmax": 3.6678498620294944, 
      "latmin": 51.03074131461357
    }, 
    {
      "latmax": 51.01850684550399, 
      "name": "Vierschaarlaan", 
      "lonmin": 3.6553978277511523, 
      "sanName": "vierschaarlaan", 
      "numOfAddr": 34, 
      "lonmax": 3.6581638492281408, 
      "latmin": 51.01635605839484
    }, 
    {
      "latmax": 51.017448981307844, 
      "name": "Wallekensstraat", 
      "lonmin": 3.660811953359913, 
      "sanName": "wallekensstraat", 
      "numOfAddr": 17, 
      "lonmax": 3.663607982729256, 
      "latmin": 51.016699472276315
    }, 
    {
      "latmax": 51.01305915749626, 
      "name": "Wijdebroeken", 
      "lonmin": 3.6666018204158743, 
      "sanName": "wijdebroeken", 
      "numOfAddr": 15, 
      "lonmax": 3.668189056139791, 
      "latmin": 51.01183908908772
    }, 
    {
      "latmax": 51.018704775526324, 
      "name": "Witbakkerstraat", 
      "lonmin": 3.65194902519353, 
      "sanName": "witbakkerstraat", 
      "numOfAddr": 36, 
      "lonmax": 3.6573215758399567, 
      "latmin": 51.015324663117575
    }, 
    {
      "latmax": 51.02773628880257, 
      "name": "Wittepaalstraat", 
      "lonmin": 3.6486278773586913, 
      "sanName": "wittepaalstraat", 
      "numOfAddr": 25, 
      "lonmax": 3.6566370969884856, 
      "latmin": 51.02294116156723
    }
  ]
}