{
  "streets": [
    {
      "latmax": 51.1950519883276, 
      "name": "Acaciastraat", 
      "lonmin": 3.7945703291113673, 
      "sanName": "acaciastraat", 
      "numOfAddr": 34, 
      "lonmax": 3.7956688905098606, 
      "latmin": 51.19391549902821
    }, 
    {
      "latmax": 51.19066684044586, 
      "name": "Achille De Clercqlaan", 
      "lonmin": 3.7965359530331697, 
      "sanName": "achilledeclercqlaan", 
      "numOfAddr": 8, 
      "lonmax": 3.7979986142054734, 
      "latmin": 51.189536808953434
    }, 
    {
      "latmax": 51.198869284576965, 
      "name": "Akker", 
      "lonmin": 3.8325405534303187, 
      "sanName": "akker", 
      "numOfAddr": 12, 
      "lonmax": 3.8360378997370344, 
      "latmin": 51.196799259239384
    }, 
    {
      "latmax": 51.202378345205595, 
      "name": "Akkerstraat", 
      "lonmin": 3.8205836078448128, 
      "sanName": "akkerstraat", 
      "numOfAddr": 36, 
      "lonmax": 3.8240420776921624, 
      "latmin": 51.19844595176534
    }, 
    {
      "latmax": 51.19117558669645, 
      "name": "Albert Mechelincklaan", 
      "lonmin": 3.7959386615827366, 
      "sanName": "albertmechelincklaan", 
      "numOfAddr": 17, 
      "lonmax": 3.7975612241908148, 
      "latmin": 51.19012132874381
    }, 
    {
      "latmax": 51.19452277623705, 
      "name": "Alphonse Duysburghlaan", 
      "lonmin": 3.8203691646696085, 
      "sanName": "alphonseduysburghlaan", 
      "numOfAddr": 31, 
      "lonmax": 3.823674136630902, 
      "latmin": 51.19339792287241
    }, 
    {
      "latmax": 51.203000296672265, 
      "name": "Antoon Vanderlindenstraat", 
      "lonmin": 3.8216650747431706, 
      "sanName": "antoonvanderlindenstraat", 
      "numOfAddr": 40, 
      "lonmax": 3.82420677302842, 
      "latmin": 51.20193392629473
    }, 
    {
      "latmax": 51.20408562082451, 
      "name": "Assenedesteenweg", 
      "lonmin": 3.778056242503478, 
      "sanName": "assenedesteenweg", 
      "numOfAddr": 245, 
      "lonmax": 3.7992716581561563, 
      "latmin": 51.19711109224658
    }, 
    {
      "latmax": 51.19718539809856, 
      "name": "Aubenaslaan", 
      "lonmin": 3.813758992144857, 
      "sanName": "aubenaslaan", 
      "numOfAddr": 24, 
      "lonmax": 3.8149463217493746, 
      "latmin": 51.19638413787718
    }, 
    {
      "latmax": 51.19542274268941, 
      "name": "Begonialaan", 
      "lonmin": 3.8237062198652527, 
      "sanName": "begonialaan", 
      "numOfAddr": 24, 
      "lonmax": 3.8248576709707267, 
      "latmin": 51.193280241117435
    }, 
    {
      "latmax": 51.21026659910544, 
      "name": "Beneluxlaan", 
      "lonmin": 3.80018938753053, 
      "sanName": "beneluxlaan", 
      "numOfAddr": 1, 
      "lonmax": 3.80018938753053, 
      "latmin": 51.21026659910544
    }, 
    {
      "latmax": 51.19565134779793, 
      "name": "Beukenstraat", 
      "lonmin": 3.793271278701095, 
      "sanName": "beukenstraat", 
      "numOfAddr": 44, 
      "lonmax": 3.7946074771455383, 
      "latmin": 51.19411620462188
    }, 
    {
      "latmax": 51.19897302433991, 
      "name": "Blende", 
      "lonmin": 3.7979390057790976, 
      "sanName": "blende", 
      "numOfAddr": 25, 
      "lonmax": 3.7990847345936665, 
      "latmin": 51.19781620037014
    }, 
    {
      "latmax": 51.195837681344884, 
      "name": "Bloemenboslaan", 
      "lonmin": 3.8211796430305998, 
      "sanName": "bloemenboslaan", 
      "numOfAddr": 20, 
      "lonmax": 3.822306409207019, 
      "latmin": 51.19512404571635
    }, 
    {
      "latmax": 51.200120840137, 
      "name": "Boekweitstraat", 
      "lonmin": 3.821309317759729, 
      "sanName": "boekweitstraat", 
      "numOfAddr": 7, 
      "lonmax": 3.822587370185702, 
      "latmin": 51.199106132099544
    }, 
    {
      "latmax": 51.197044419705016, 
      "name": "Boerenstraat", 
      "lonmin": 3.8120678262041445, 
      "sanName": "boerenstraat", 
      "numOfAddr": 35, 
      "lonmax": 3.813995692147265, 
      "latmin": 51.195999492668676
    }, 
    {
      "latmax": 51.20503836722217, 
      "name": "Brazekestraat", 
      "lonmin": 3.781795492540817, 
      "sanName": "brazekestraat", 
      "numOfAddr": 38, 
      "lonmax": 3.783293481984725, 
      "latmin": 51.20325933328136
    }, 
    {
      "latmax": 51.18719778995117, 
      "name": "Broeder Leopoldstraat", 
      "lonmin": 3.8103501767644588, 
      "sanName": "broederleopoldstraat", 
      "numOfAddr": 1, 
      "lonmax": 3.8103501767644588, 
      "latmin": 51.18719778995117
    }, 
    {
      "latmax": 51.19551798084777, 
      "name": "Burgemeester Camille Leynlaan", 
      "lonmin": 3.8165272847944585, 
      "sanName": "burgemeestercamilleleynlaan", 
      "numOfAddr": 12, 
      "lonmax": 3.817564601488862, 
      "latmin": 51.194283396517804
    }, 
    {
      "latmax": 51.199571426516506, 
      "name": "Burgemeester De Clercqstraat", 
      "lonmin": 3.8074902340150163, 
      "sanName": "burgemeesterdeclercqstraat", 
      "numOfAddr": 15, 
      "lonmax": 3.808223424180739, 
      "latmin": 51.198638517533354
    }, 
    {
      "latmax": 51.19830765022888, 
      "name": "Burgemeester Jos. Chalmetlaan", 
      "lonmin": 3.8127147434858193, 
      "sanName": "burgemeesterjoschalmetlaan", 
      "numOfAddr": 135, 
      "lonmax": 3.822351911979337, 
      "latmin": 51.19498001595389
    }, 
    {
      "latmax": 51.19098740062591, 
      "name": "Callemansputte", 
      "lonmin": 3.7776284639789566, 
      "sanName": "callemansputte", 
      "numOfAddr": 17, 
      "lonmax": 3.778824935259569, 
      "latmin": 51.18684730662818
    }, 
    {
      "latmax": 51.19453434944054, 
      "name": "Cederstraat", 
      "lonmin": 3.7959490654520045, 
      "sanName": "cederstraat", 
      "numOfAddr": 18, 
      "lonmax": 3.7966047701292744, 
      "latmin": 51.19380578483588
    }, 
    {
      "latmax": 51.19498036170004, 
      "name": "Cesenaticolaan", 
      "lonmin": 3.8139481635282237, 
      "sanName": "cesenaticolaan", 
      "numOfAddr": 22, 
      "lonmax": 3.8173205383528974, 
      "latmin": 51.19371271651818
    }, 
    {
      "latmax": 51.194541988204016, 
      "name": "Charles Andriesstraat", 
      "lonmin": 3.805181892111107, 
      "sanName": "charlesandriesstraat", 
      "numOfAddr": 10, 
      "lonmax": 3.807358702132287, 
      "latmin": 51.19407212302913
    }, 
    {
      "latmax": 51.19709885085423, 
      "name": "Debbautshoekstraat", 
      "lonmin": 3.7981727650774517, 
      "sanName": "debbautshoekstraat", 
      "numOfAddr": 17, 
      "lonmax": 3.798929957181424, 
      "latmin": 51.196224344260344
    }, 
    {
      "latmax": 51.19715353201146, 
      "name": "De Keyserstraat", 
      "lonmin": 3.79240066318915, 
      "sanName": "dekeyserstraat", 
      "numOfAddr": 45, 
      "lonmax": 3.7944756535341053, 
      "latmin": 51.194195832184896
    }, 
    {
      "latmax": 51.1962284595157, 
      "name": "Delfzijllaan", 
      "lonmin": 3.8117889963145015, 
      "sanName": "delfzijllaan", 
      "numOfAddr": 34, 
      "lonmax": 3.8136998244952984, 
      "latmin": 51.19519636461006
    }, 
    {
      "latmax": 51.21085298922078, 
      "name": "Denderdreve", 
      "lonmin": 3.78601782436104, 
      "sanName": "denderdreve", 
      "numOfAddr": 163, 
      "lonmax": 3.798669185976811, 
      "latmin": 51.20225704041399
    }, 
    {
      "latmax": 51.19222832978885, 
      "name": "Dimitri Peniakofflaan", 
      "lonmin": 3.79503574745016, 
      "sanName": "dimitripeniakofflaan", 
      "numOfAddr": 36, 
      "lonmax": 3.7965285579384305, 
      "latmin": 51.19064916323754
    }, 
    {
      "latmax": 51.20382014018623, 
      "name": "Duivenlaan", 
      "lonmin": 3.793645214838704, 
      "sanName": "duivenlaan", 
      "numOfAddr": 9, 
      "lonmax": 3.7947334949009006, 
      "latmin": 51.20316127928343
    }, 
    {
      "latmax": 51.19924997236471, 
      "name": "Edgar Van Peenestraat", 
      "lonmin": 3.806014694093812, 
      "sanName": "edgarvanpeenestraat", 
      "numOfAddr": 13, 
      "lonmax": 3.8067605236111977, 
      "latmin": 51.198038395230434
    }, 
    {
      "latmax": 51.20259906606458, 
      "name": "Eikelstraat", 
      "lonmin": 3.781933887484427, 
      "sanName": "eikelstraat", 
      "numOfAddr": 40, 
      "lonmax": 3.7837166408653613, 
      "latmin": 51.199905834533304
    }, 
    {
      "latmax": 51.196913680317465, 
      "name": "Elie Zwissiglaan", 
      "lonmin": 3.787873310553834, 
      "sanName": "eliezwissiglaan", 
      "numOfAddr": 30, 
      "lonmax": 3.789421305004466, 
      "latmin": 51.19568884893618
    }, 
    {
      "latmax": 51.20014314747604, 
      "name": "Emiel Caluslaan", 
      "lonmin": 3.792011738575204, 
      "sanName": "emielcaluslaan", 
      "numOfAddr": 17, 
      "lonmax": 3.7950841514341334, 
      "latmin": 51.198742280467485
    }, 
    {
      "latmax": 51.195930391557006, 
      "name": "Europaplein", 
      "lonmin": 3.811024215533991, 
      "sanName": "europaplein", 
      "numOfAddr": 27, 
      "lonmax": 3.812198133095239, 
      "latmin": 51.194792895828904
    }, 
    {
      "latmax": 51.19816302331486, 
      "name": "Europaprijslaan", 
      "lonmin": 3.788676919891391, 
      "sanName": "europaprijslaan", 
      "numOfAddr": 50, 
      "lonmax": 3.7921996281145143, 
      "latmin": 51.19525708587405
    }, 
    {
      "latmax": 51.20489859041284, 
      "name": "Forelstraat", 
      "lonmin": 3.815849181102261, 
      "sanName": "forelstraat", 
      "numOfAddr": 20, 
      "lonmax": 3.818074552933691, 
      "latmin": 51.204002547513404
    }, 
    {
      "latmax": 51.19958826630315, 
      "name": "Franz Wittoucklaan", 
      "lonmin": 3.8103179696234486, 
      "sanName": "franzwittoucklaan", 
      "numOfAddr": 37, 
      "lonmax": 3.8136452006065906, 
      "latmin": 51.19845860697319
    }, 
    {
      "latmax": 51.20058037047937, 
      "name": "Gerststraat", 
      "lonmin": 3.823367539203489, 
      "sanName": "gerststraat", 
      "numOfAddr": 2, 
      "lonmax": 3.8237632182538253, 
      "latmin": 51.200464570822355
    }, 
    {
      "latmax": 51.20428429100792, 
      "name": "Grijphoek", 
      "lonmin": 3.8120889071567423, 
      "sanName": "grijphoek", 
      "numOfAddr": 42, 
      "lonmax": 3.815732419110793, 
      "latmin": 51.20280232826418
    }, 
    {
      "latmax": 51.20335674530703, 
      "name": "Groene Briel", 
      "lonmin": 3.7971354096261547, 
      "sanName": "groenebriel", 
      "numOfAddr": 12, 
      "lonmax": 3.7991531769844533, 
      "latmin": 51.20271083811961
    }, 
    {
      "latmax": 51.19669416532013, 
      "name": "Groenplein", 
      "lonmin": 3.793686588886918, 
      "sanName": "groenplein", 
      "numOfAddr": 25, 
      "lonmax": 3.7956579053313337, 
      "latmin": 51.19552497913758
    }, 
    {
      "latmax": 51.19867317048133, 
      "name": "Groenstraat", 
      "lonmin": 3.7982495739041555, 
      "sanName": "groenstraat", 
      "numOfAddr": 108, 
      "lonmax": 3.8089667801111533, 
      "latmin": 51.19734294031107
    }, 
    {
      "latmax": 51.20260777041977, 
      "name": "Grote Markt", 
      "lonmin": 3.8087983706251234, 
      "sanName": "grotemarkt", 
      "numOfAddr": 102, 
      "lonmax": 3.8122509689660395, 
      "latmin": 51.198955170196655
    }, 
    {
      "latmax": 51.19880360106439, 
      "name": "Hans Kochlaan", 
      "lonmin": 3.7854968031622955, 
      "sanName": "hanskochlaan", 
      "numOfAddr": 42, 
      "lonmax": 3.790590180763727, 
      "latmin": 51.196912196806984
    }, 
    {
      "latmax": 51.2092895826288, 
      "name": "Havenlaan", 
      "lonmin": 3.806091824254259, 
      "sanName": "havenlaan", 
      "numOfAddr": 78, 
      "lonmax": 3.8099274146549975, 
      "latmin": 51.202706046520454
    }, 
    {
      "latmax": 51.201078976667425, 
      "name": "Haverstraat", 
      "lonmin": 3.8201094340226973, 
      "sanName": "haverstraat", 
      "numOfAddr": 19, 
      "lonmax": 3.821740475523719, 
      "latmin": 51.19955364728353
    }, 
    {
      "latmax": 51.19336884223229, 
      "name": "Heidelaan", 
      "lonmin": 3.813179283846275, 
      "sanName": "heidelaan", 
      "numOfAddr": 90, 
      "lonmax": 3.827065458962453, 
      "latmin": 51.19284755958811
    }, 
    {
      "latmax": 51.199067090667484, 
      "name": "Hendrik Van der Sypestraat", 
      "lonmin": 3.804379261113966, 
      "sanName": "hendrikvandersypestraat", 
      "numOfAddr": 6, 
      "lonmax": 3.804709527648232, 
      "latmin": 51.198634057185686
    }, 
    {
      "latmax": 51.197389923416004, 
      "name": "Hoogbouwplein", 
      "lonmin": 3.7903470263320713, 
      "sanName": "hoogbouwplein", 
      "numOfAddr": 41, 
      "lonmax": 3.7930325461548593, 
      "latmin": 51.195175032741226
    }, 
    {
      "latmax": 51.199831622611285, 
      "name": "Hooistraat", 
      "lonmin": 3.8183874292934594, 
      "sanName": "hooistraat", 
      "numOfAddr": 5, 
      "lonmax": 3.8193585604825175, 
      "latmin": 51.19933455429611
    }, 
    {
      "latmax": 51.1968230670083, 
      "name": "Huisvestingslaan", 
      "lonmin": 3.787934856797393, 
      "sanName": "huisvestingslaan", 
      "numOfAddr": 6, 
      "lonmax": 3.788514065277588, 
      "latmin": 51.196585639781006
    }, 
    {
      "latmax": 51.19103700278688, 
      "name": "Industriepark Rosteyne", 
      "lonmin": 3.8281502412234847, 
      "sanName": "industrieparkrosteyne", 
      "numOfAddr": 14, 
      "lonmax": 3.831330075565213, 
      "latmin": 51.18813774305161
    }, 
    {
      "latmax": 51.19575701892137, 
      "name": "Joannes Stobbaertsstraat", 
      "lonmin": 3.804557890248854, 
      "sanName": "joannesstobbaertsstraat", 
      "numOfAddr": 13, 
      "lonmax": 3.8061187470289672, 
      "latmin": 51.19464786785259
    }, 
    {
      "latmax": 51.20439860907445, 
      "name": "John Schenkelsstraat", 
      "lonmin": 3.81936800782936, 
      "sanName": "johnschenkelsstraat", 
      "numOfAddr": 16, 
      "lonmax": 3.8213892436049104, 
      "latmin": 51.20373611325074
    }, 
    {
      "latmax": 51.191227931932026, 
      "name": "Jozef De Tillouxlaan", 
      "lonmin": 3.7971309193945344, 
      "sanName": "jozefdetillouxlaan", 
      "numOfAddr": 18, 
      "lonmax": 3.798168671372128, 
      "latmin": 51.19074483427319
    }, 
    {
      "latmax": 51.201931592256486, 
      "name": "Kanaalstraat", 
      "lonmin": 3.805132716177043, 
      "sanName": "kanaalstraat", 
      "numOfAddr": 12, 
      "lonmax": 3.80738263155034, 
      "latmin": 51.20091712645324
    }, 
    {
      "latmax": 51.19236978663934, 
      "name": "Kardinaal Mercierplein", 
      "lonmin": 3.7931621787777603, 
      "sanName": "kardinaalmercierplein", 
      "numOfAddr": 40, 
      "lonmax": 3.7953734284575837, 
      "latmin": 51.19121063363039
    }, 
    {
      "latmax": 51.205223089285724, 
      "name": "Karel Waegenaerstraat", 
      "lonmin": 3.8084642030657814, 
      "sanName": "karelwaegenaerstraat", 
      "numOfAddr": 21, 
      "lonmax": 3.8093445510203394, 
      "latmin": 51.20446224426825
    }, 
    {
      "latmax": 51.21081592535851, 
      "name": "Karnemelkstraat", 
      "lonmin": 3.807708248558016, 
      "sanName": "karnemelkstraat", 
      "numOfAddr": 11, 
      "lonmax": 3.8118954777407588, 
      "latmin": 51.20877549649717
    }, 
    {
      "latmax": 51.20508045299326, 
      "name": "Karperstraat", 
      "lonmin": 3.8197341431542675, 
      "sanName": "karperstraat", 
      "numOfAddr": 13, 
      "lonmax": 3.8212923258584968, 
      "latmin": 51.2045731150318
    }, 
    {
      "latmax": 51.19540724897196, 
      "name": "Kastanjenstraat", 
      "lonmin": 3.78930966253311, 
      "sanName": "kastanjenstraat", 
      "numOfAddr": 11, 
      "lonmax": 3.7922252966123047, 
      "latmin": 51.19466949383422
    }, 
    {
      "latmax": 51.20185358485074, 
      "name": "Kasteelstraat", 
      "lonmin": 3.7806941502170934, 
      "sanName": "kasteelstraat", 
      "numOfAddr": 104, 
      "lonmax": 3.7858262652368357, 
      "latmin": 51.19638999750431
    }, 
    {
      "latmax": 51.20512123049099, 
      "name": "Kerkstraat", 
      "lonmin": 3.8096668252273087, 
      "sanName": "kerkstraat", 
      "numOfAddr": 124, 
      "lonmax": 3.814432493088831, 
      "latmin": 51.199650460115734
    }, 
    {
      "latmax": 51.19557974365526, 
      "name": "Kleine Landeigendomlaan", 
      "lonmin": 3.8175193740574325, 
      "sanName": "kleinelandeigendomlaan", 
      "numOfAddr": 26, 
      "lonmax": 3.8190871751600035, 
      "latmin": 51.193833561897364
    }, 
    {
      "latmax": 51.19924981717526, 
      "name": "Knikkerstraat", 
      "lonmin": 3.8032734568447726, 
      "sanName": "knikkerstraat", 
      "numOfAddr": 34, 
      "lonmax": 3.804260205490194, 
      "latmin": 51.1981879653271
    }, 
    {
      "latmax": 51.202428742633906, 
      "name": "Kolonel Oscar Boultonstraat", 
      "lonmin": 3.8066472990361238, 
      "sanName": "koloneloscarboultonstraat", 
      "numOfAddr": 1, 
      "lonmax": 3.8066472990361238, 
      "latmin": 51.202428742633906
    }, 
    {
      "latmax": 51.20329711919352, 
      "name": "Koning Albertlaan", 
      "lonmin": 3.7950536828913775, 
      "sanName": "koningalbertlaan", 
      "numOfAddr": 56, 
      "lonmax": 3.7974100377435356, 
      "latmin": 51.20075403181152
    }, 
    {
      "latmax": 51.20018916340901, 
      "name": "Koningin Astridlaan", 
      "lonmin": 2.306689562140502, 
      "sanName": "koninginastridlaan", 
      "numOfAddr": 56, 
      "lonmax": 3.796170080989064, 
      "latmin": 49.293335165093566
    }, 
    {
      "latmax": 51.20305173449228, 
      "name": "Koningin Fabiolalaan", 
      "lonmin": 3.7963119538250267, 
      "sanName": "koninginfabiolalaan", 
      "numOfAddr": 81, 
      "lonmax": 3.798497406766378, 
      "latmin": 51.20073531993327
    }, 
    {
      "latmax": 51.19057418231947, 
      "name": "Koophandelsplein", 
      "lonmin": 3.794903986952336, 
      "sanName": "koophandelsplein", 
      "numOfAddr": 14, 
      "lonmax": 3.7958191941777284, 
      "latmin": 51.19007003570981
    }, 
    {
      "latmax": 51.19935794033537, 
      "name": "Korenstraat", 
      "lonmin": 3.8225033632515872, 
      "sanName": "korenstraat", 
      "numOfAddr": 6, 
      "lonmax": 3.823224227520847, 
      "latmin": 51.19872708704131
    }, 
    {
      "latmax": 51.19907075851987, 
      "name": "Kortestraat", 
      "lonmin": 3.8103534480941277, 
      "sanName": "kortestraat", 
      "numOfAddr": 5, 
      "lonmax": 3.810719954638748, 
      "latmin": 51.198882376168406
    }, 
    {
      "latmax": 51.20508593090026, 
      "name": "Kreekstraat", 
      "lonmin": 3.817967557052529, 
      "sanName": "kreekstraat", 
      "numOfAddr": 32, 
      "lonmax": 3.8197955167259585, 
      "latmin": 51.20292857796597
    }, 
    {
      "latmax": 51.20260072690525, 
      "name": "Krekelmuyter", 
      "lonmin": 3.7958932363678874, 
      "sanName": "krekelmuyter", 
      "numOfAddr": 3, 
      "lonmax": 3.79894791117235, 
      "latmin": 51.19825314328473
    }, 
    {
      "latmax": 51.20370236525554, 
      "name": "Landstraat", 
      "lonmin": 3.8173670453845756, 
      "sanName": "landstraat", 
      "numOfAddr": 23, 
      "lonmax": 3.8189932144852627, 
      "latmin": 51.20241995592486
    }, 
    {
      "latmax": 51.19773694661815, 
      "name": "Lappersfort", 
      "lonmin": 3.8071689521471432, 
      "sanName": "lappersfort", 
      "numOfAddr": 34, 
      "lonmax": 3.8085995593194055, 
      "latmin": 51.196899743940776
    }, 
    {
      "latmax": 51.205384415134546, 
      "name": "Leegstraat", 
      "lonmin": 3.8143955340561546, 
      "sanName": "leegstraat", 
      "numOfAddr": 206, 
      "lonmax": 3.8395682515455993, 
      "latmin": 51.19954418133879
    }, 
    {
      "latmax": 51.20259602305187, 
      "name": "Leeuwerikenlaan", 
      "lonmin": 3.787489735237085, 
      "sanName": "leeuwerikenlaan", 
      "numOfAddr": 12, 
      "lonmax": 3.7882853495984845, 
      "latmin": 51.20155552024296
    }, 
    {
      "latmax": 51.19408848040854, 
      "name": "Lelielaan", 
      "lonmin": 3.825173130737987, 
      "sanName": "lelielaan", 
      "numOfAddr": 10, 
      "lonmax": 3.8257705938393936, 
      "latmin": 51.193278249848596
    }, 
    {
      "latmax": 51.2041811212915, 
      "name": "Lijsterlaan", 
      "lonmin": 3.7885592170095594, 
      "sanName": "lijsterlaan", 
      "numOfAddr": 67, 
      "lonmax": 3.793442813975272, 
      "latmin": 51.201363333146496
    }, 
    {
      "latmax": 51.20701696353733, 
      "name": "Livien Danschutterstraat", 
      "lonmin": 3.809092618179953, 
      "sanName": "liviendanschutterstraat", 
      "numOfAddr": 16, 
      "lonmax": 3.80999413800585, 
      "latmin": 51.206262735363914
    }, 
    {
      "latmax": 51.19763700365903, 
      "name": "Marcel Mollelaan", 
      "lonmin": 3.787219044065892, 
      "sanName": "marcelmollelaan", 
      "numOfAddr": 35, 
      "lonmax": 3.7904318242506276, 
      "latmin": 51.19644693198403
    }, 
    {
      "latmax": 51.19690295353083, 
      "name": "Marguerite Ottestraat", 
      "lonmin": 3.7973356823588933, 
      "sanName": "margueriteottestraat", 
      "numOfAddr": 20, 
      "lonmax": 3.7989614213083587, 
      "latmin": 51.195406753976066
    }, 
    {
      "latmax": 51.20021451762874, 
      "name": "Marktstraat", 
      "lonmin": 3.810026357687274, 
      "sanName": "marktstraat", 
      "numOfAddr": 6, 
      "lonmax": 3.8106239991972135, 
      "latmin": 51.199892508455406
    }, 
    {
      "latmax": 51.19808561909578, 
      "name": "Ma\u008bsstraat", 
      "lonmin": 3.8239911902745596, 
      "sanName": "masstraat", 
      "numOfAddr": 7, 
      "lonmax": 3.8258559656863156, 
      "latmin": 51.197028117014625
    }, 
    {
      "latmax": 51.19681986542418, 
      "name": "Maurice Salzmannlaan", 
      "lonmin": 3.7863327306460337, 
      "sanName": "mauricesalzmannlaan", 
      "numOfAddr": 24, 
      "lonmax": 3.788448869223064, 
      "latmin": 51.195212109020055
    }, 
    {
      "latmax": 51.2027677642175, 
      "name": "Merellaan", 
      "lonmin": 3.7895140669109693, 
      "sanName": "merellaan", 
      "numOfAddr": 47, 
      "lonmax": 3.7929616243903266, 
      "latmin": 51.20085718264027
    }, 
    {
      "latmax": 51.20462834738797, 
      "name": "Mezenlaan", 
      "lonmin": 3.7930352764262376, 
      "sanName": "mezenlaan", 
      "numOfAddr": 44, 
      "lonmax": 3.796462559978516, 
      "latmin": 51.20255984356468
    }, 
    {
      "latmax": 51.19630838920821, 
      "name": "Michel Gillemanstraat", 
      "lonmin": 3.8262651284430182, 
      "sanName": "michelgillemanstraat", 
      "numOfAddr": 5, 
      "lonmax": 3.8282904417946524, 
      "latmin": 51.19513402371838
    }, 
    {
      "latmax": 51.20275203253032, 
      "name": "Molenstraat", 
      "lonmin": 3.7743562329070444, 
      "sanName": "molenstraat", 
      "numOfAddr": 37, 
      "lonmax": 3.780209484081319, 
      "latmin": 51.197163988327716
    }, 
    {
      "latmax": 51.20019047496657, 
      "name": "Notelaarstraat", 
      "lonmin": 3.8155160539612254, 
      "sanName": "notelaarstraat", 
      "numOfAddr": 17, 
      "lonmax": 3.816639997501726, 
      "latmin": 51.19937646163267
    }, 
    {
      "latmax": 51.20001561676809, 
      "name": "Omer De Bruyckerstraat", 
      "lonmin": 3.795998326243384, 
      "sanName": "omerdebruyckerstraat", 
      "numOfAddr": 52, 
      "lonmax": 3.799069070561441, 
      "latmin": 51.19832195495267
    }, 
    {
      "latmax": 51.1988388221958, 
      "name": "Onteigeningsstraat", 
      "lonmin": 3.8135568204603567, 
      "sanName": "onteigeningsstraat", 
      "numOfAddr": 49, 
      "lonmax": 3.8183275014716207, 
      "latmin": 51.19693940983379
    }, 
    {
      "latmax": 51.20246852354868, 
      "name": "Ooievaarslaan", 
      "lonmin": 3.7881550813548994, 
      "sanName": "ooievaarslaan", 
      "numOfAddr": 62, 
      "lonmax": 3.795199651226939, 
      "latmin": 51.20019890291493
    }, 
    {
      "latmax": 51.20193049302915, 
      "name": "Oostkade", 
      "lonmin": 3.808921521897371, 
      "sanName": "oostkade", 
      "numOfAddr": 64, 
      "lonmax": 3.8105148622366714, 
      "latmin": 51.19598901937024
    }, 
    {
      "latmax": 51.1912608512942, 
      "name": "Opge\u0089istenstraat", 
      "lonmin": 3.793968117969899, 
      "sanName": "opgeistenstraat", 
      "numOfAddr": 7, 
      "lonmax": 3.794457974248779, 
      "latmin": 51.19089886269406
    }, 
    {
      "latmax": 51.21269371401684, 
      "name": "Oudenburgse Sluis", 
      "lonmin": 3.8468384387953822, 
      "sanName": "oudenburgsesluis", 
      "numOfAddr": 19, 
      "lonmax": 3.855406640544103, 
      "latmin": 51.20492686258772
    }, 
    {
      "latmax": 51.198152069106165, 
      "name": "Oude Westtragel", 
      "lonmin": 3.810694433523192, 
      "sanName": "oudewesttragel", 
      "numOfAddr": 7, 
      "lonmax": 3.8112022316148453, 
      "latmin": 51.19704289401536
    }, 
    {
      "latmax": 51.193924986013606, 
      "name": "Parkplein", 
      "lonmin": 3.8140842914592707, 
      "sanName": "parkplein", 
      "numOfAddr": 9, 
      "lonmax": 3.815443453003961, 
      "latmin": 51.193262804140886
    }, 
    {
      "latmax": 51.20403712538896, 
      "name": "Patronagestraat", 
      "lonmin": 3.8124302119037945, 
      "sanName": "patronagestraat", 
      "numOfAddr": 51, 
      "lonmax": 3.818421640748906, 
      "latmin": 51.201363817920296
    }, 
    {
      "latmax": 51.203322445871315, 
      "name": "Pelikaanlaan", 
      "lonmin": 3.789509125955256, 
      "sanName": "pelikaanlaan", 
      "numOfAddr": 12, 
      "lonmax": 3.7905833554034594, 
      "latmin": 51.20263714699406
    }, 
    {
      "latmax": 51.203626659796406, 
      "name": "Peperstraat", 
      "lonmin": 3.8094597647092208, 
      "sanName": "peperstraat", 
      "numOfAddr": 6, 
      "lonmax": 3.8100242549102386, 
      "latmin": 51.20322246793826
    }, 
    {
      "latmax": 51.19879958905374, 
      "name": "Pierets-De Colvenaerplein", 
      "lonmin": 3.8116710691451328, 
      "sanName": "pieretsdecolvenaerplein", 
      "numOfAddr": 24, 
      "lonmax": 3.8128388537171625, 
      "latmin": 51.19786394552075
    }, 
    {
      "latmax": 51.21151975657422, 
      "name": "Poelstraat", 
      "lonmin": 3.7978459009103083, 
      "sanName": "poelstraat", 
      "numOfAddr": 5, 
      "lonmax": 3.799628167109735, 
      "latmin": 51.210175289456394
    }, 
    {
      "latmax": 51.20931541898557, 
      "name": "Polderstraat", 
      "lonmin": 3.806717459896203, 
      "sanName": "polderstraat", 
      "numOfAddr": 67, 
      "lonmax": 3.8099794150265955, 
      "latmin": 51.20522550833874
    }, 
    {
      "latmax": 51.18662528653067, 
      "name": "Pres. J.F. Kennedylaan", 
      "lonmin": 3.8306213353589014, 
      "sanName": "presjfkennedylaan", 
      "numOfAddr": 3, 
      "lonmax": 3.8338264925728383, 
      "latmin": 51.184667226893964
    }, 
    {
      "latmax": 51.195204383166995, 
      "name": "Raoul Vanden Heedestraat", 
      "lonmin": 3.8061802793746873, 
      "sanName": "raoulvandenheedestraat", 
      "numOfAddr": 6, 
      "lonmax": 3.8069541900710466, 
      "latmin": 51.19470835708074
    }, 
    {
      "latmax": 51.203695968464736, 
      "name": "Reigerslaan", 
      "lonmin": 3.792358108249343, 
      "sanName": "reigerslaan", 
      "numOfAddr": 15, 
      "lonmax": 3.7950425662948257, 
      "latmin": 51.202710079717136
    }, 
    {
      "latmax": 51.19602611260991, 
      "name": "Ren\u0082 Vermandelstraat", 
      "lonmin": 3.8032382966024354, 
      "sanName": "renvermandelstraat", 
      "numOfAddr": 17, 
      "lonmax": 3.804284809380198, 
      "latmin": 51.195211895584045
    }, 
    {
      "latmax": 51.19693269116916, 
      "name": "Rijkswachtlaan", 
      "lonmin": 3.8249076414748626, 
      "sanName": "rijkswachtlaan", 
      "numOfAddr": 5, 
      "lonmax": 3.8274309952602206, 
      "latmin": 51.19588589183089
    }, 
    {
      "latmax": 51.19659244366651, 
      "name": "Roger Coolsstraat", 
      "lonmin": 3.8057156213788073, 
      "sanName": "rogercoolsstraat", 
      "numOfAddr": 14, 
      "lonmax": 3.806682904702273, 
      "latmin": 51.19588336291917
    }, 
    {
      "latmax": 51.201690550223766, 
      "name": "Roggestraat", 
      "lonmin": 3.822301085059992, 
      "sanName": "roggestraat", 
      "numOfAddr": 8, 
      "lonmax": 3.823240319611301, 
      "latmin": 51.20107438811252
    }, 
    {
      "latmax": 51.19467507507703, 
      "name": "Rozenlaan", 
      "lonmin": 3.824684975001339, 
      "sanName": "rozenlaan", 
      "numOfAddr": 25, 
      "lonmax": 3.8272454306824746, 
      "latmin": 51.19321196276336
    }, 
    {
      "latmax": 51.19502813999085, 
      "name": "Rusthuislaan", 
      "lonmin": 3.8184553842152256, 
      "sanName": "rusthuislaan", 
      "numOfAddr": 42, 
      "lonmax": 3.82105842827622, 
      "latmin": 51.193178357364864
    }, 
    {
      "latmax": 51.19805366089171, 
      "name": "Schepen Napoleon De Meyerstraat", 
      "lonmin": 3.8186528064376284, 
      "sanName": "schepennapoleondemeyerstraat", 
      "numOfAddr": 15, 
      "lonmax": 3.81966394013376, 
      "latmin": 51.196947278724195
    }, 
    {
      "latmax": 51.193127956308174, 
      "name": "Schepen Ren\u0082 De Deckerlaan", 
      "lonmin": 3.808927424377892, 
      "sanName": "schepenrendedeckerlaan", 
      "numOfAddr": 33, 
      "lonmax": 3.8122451139324545, 
      "latmin": 51.19277919171361
    }, 
    {
      "latmax": 51.191833671071976, 
      "name": "Schoolstraat", 
      "lonmin": 3.7963025148125458, 
      "sanName": "schoolstraat", 
      "numOfAddr": 16, 
      "lonmax": 3.7974628664271015, 
      "latmin": 51.19123515169144
    }, 
    {
      "latmax": 51.19509336179997, 
      "name": "Schwarzenbeklaan", 
      "lonmin": 3.812057381367994, 
      "sanName": "schwarzenbeklaan", 
      "numOfAddr": 18, 
      "lonmax": 3.812897350680316, 
      "latmin": 51.19414121304356
    }, 
    {
      "latmax": 51.19440092143937, 
      "name": "Sierrelaan", 
      "lonmin": 3.8140766426856207, 
      "sanName": "sierrelaan", 
      "numOfAddr": 11, 
      "lonmax": 3.814763614565426, 
      "latmin": 51.19400701810268
    }, 
    {
      "latmax": 51.20110208755349, 
      "name": "Sint-Sebastiaanstraat", 
      "lonmin": 3.81796485786615, 
      "sanName": "sintsebastiaanstraat", 
      "numOfAddr": 52, 
      "lonmax": 3.823125707218581, 
      "latmin": 51.19746707105841
    }, 
    {
      "latmax": 51.20931645843284, 
      "name": "Sint-Stevenstraat", 
      "lonmin": 3.8106741127640853, 
      "sanName": "sintstevenstraat", 
      "numOfAddr": 93, 
      "lonmax": 3.829263567011053, 
      "latmin": 51.204516328695775
    }, 
    {
      "latmax": 51.20031868119849, 
      "name": "Slachthuisstraat", 
      "lonmin": 3.8032240340433554, 
      "sanName": "slachthuisstraat", 
      "numOfAddr": 17, 
      "lonmax": 3.8043516079877473, 
      "latmin": 51.199412916941064
    }, 
    {
      "latmax": 51.19562203690591, 
      "name": "Sparrenstraat", 
      "lonmin": 3.795397796074276, 
      "sanName": "sparrenstraat", 
      "numOfAddr": 47, 
      "lonmax": 3.797436377370805, 
      "latmin": 51.19406571536675
    }, 
    {
      "latmax": 51.205169882846924, 
      "name": "Spechtenlaan", 
      "lonmin": 3.79382933139602, 
      "sanName": "spechtenlaan", 
      "numOfAddr": 4, 
      "lonmax": 3.7944480416907957, 
      "latmin": 51.2047574850393
    }, 
    {
      "latmax": 51.20208091081192, 
      "name": "Spreeuwelaan", 
      "lonmin": 3.7907190941687148, 
      "sanName": "spreeuwelaan", 
      "numOfAddr": 14, 
      "lonmax": 3.792209312906312, 
      "latmin": 51.201583659626486
    }, 
    {
      "latmax": 51.200848669590805, 
      "name": "Stationsstraat", 
      "lonmin": 3.805575375626689, 
      "sanName": "stationsstraat", 
      "numOfAddr": 33, 
      "lonmax": 3.808410938073836, 
      "latmin": 51.19950427004446
    }, 
    {
      "latmax": 51.19118448360915, 
      "name": "Strijderslaan", 
      "lonmin": 3.7958369314833296, 
      "sanName": "strijderslaan", 
      "numOfAddr": 20, 
      "lonmax": 3.7970185012709696, 
      "latmin": 51.19034100449006
    }, 
    {
      "latmax": 51.19759189555346, 
      "name": "Suikerkaai", 
      "lonmin": 3.8061694681537652, 
      "sanName": "suikerkaai", 
      "numOfAddr": 51, 
      "lonmax": 3.8131415495569834, 
      "latmin": 51.18840791359757
    }, 
    {
      "latmax": 51.20179024330612, 
      "name": "Tarwestraat", 
      "lonmin": 3.8190168143496397, 
      "sanName": "tarwestraat", 
      "numOfAddr": 12, 
      "lonmax": 3.8206868017064535, 
      "latmin": 51.20103249872211
    }, 
    {
      "latmax": 51.19575503184456, 
      "name": "Ter looverendreef", 
      "lonmin": 3.768492866955098, 
      "sanName": "terlooverendreef", 
      "numOfAddr": 6, 
      "lonmax": 3.776520034366889, 
      "latmin": 51.19323749967884
    }, 
    {
      "latmax": 51.19450569235429, 
      "name": "Tuinwijkstraat", 
      "lonmin": 3.7972738636873444, 
      "sanName": "tuinwijkstraat", 
      "numOfAddr": 23, 
      "lonmax": 3.798427773007842, 
      "latmin": 51.19371421410556
    }, 
    {
      "latmax": 51.19655965055645, 
      "name": "Tunnellaan", 
      "lonmin": 3.7853494162019703, 
      "sanName": "tunnellaan", 
      "numOfAddr": 125, 
      "lonmax": 3.799357614259319, 
      "latmin": 51.193226851684244
    }, 
    {
      "latmax": 51.19602028349422, 
      "name": "Tweede-Gidsenlaan", 
      "lonmin": 3.79923178874582, 
      "sanName": "tweedegidsenlaan", 
      "numOfAddr": 18, 
      "lonmax": 3.7996323785373645, 
      "latmin": 51.193339685494216
    }, 
    {
      "latmax": 51.197065229595516, 
      "name": "Veldbrugstraat", 
      "lonmin": 3.7953678439939122, 
      "sanName": "veldbrugstraat", 
      "numOfAddr": 77, 
      "lonmax": 3.7995515934618447, 
      "latmin": 51.193840879458
    }, 
    {
      "latmax": 51.197458444726294, 
      "name": "Veldstraat", 
      "lonmin": 3.783722981992769, 
      "sanName": "veldstraat", 
      "numOfAddr": 3, 
      "lonmax": 3.7841203403030717, 
      "latmin": 51.197172921865175
    }, 
    {
      "latmax": 51.197348271214736, 
      "name": "Verbindingsstraat", 
      "lonmin": 3.81850240694247, 
      "sanName": "verbindingsstraat", 
      "numOfAddr": 52, 
      "lonmax": 3.8216332060434373, 
      "latmin": 51.19638423042507
    }, 
    {
      "latmax": 51.19697197695315, 
      "name": "Verbroederingslaan", 
      "lonmin": 3.812471350540104, 
      "sanName": "verbroederingslaan", 
      "numOfAddr": 65, 
      "lonmax": 3.815211362875777, 
      "latmin": 51.19272935962777
    }, 
    {
      "latmax": 51.190193635418765, 
      "name": "Verminktenlaan", 
      "lonmin": 3.7956470103084983, 
      "sanName": "verminktenlaan", 
      "numOfAddr": 18, 
      "lonmax": 3.7967883206193336, 
      "latmin": 51.18965129583438
    }, 
    {
      "latmax": 51.201872552379946, 
      "name": "Victor Huylebroeckstraat", 
      "lonmin": 3.8112855939727233, 
      "sanName": "victorhuylebroeckstraat", 
      "numOfAddr": 3, 
      "lonmax": 3.811530468018819, 
      "latmin": 51.201596217578796
    }, 
    {
      "latmax": 51.202615441699194, 
      "name": "Vinkenlaan", 
      "lonmin": 3.7917652938314217, 
      "sanName": "vinkenlaan", 
      "numOfAddr": 25, 
      "lonmax": 3.794350111851366, 
      "latmin": 51.2009675205991
    }, 
    {
      "latmax": 51.202164180766005, 
      "name": "Vlasstraat", 
      "lonmin": 3.8225938086535622, 
      "sanName": "vlasstraat", 
      "numOfAddr": 36, 
      "lonmax": 3.82544063361193, 
      "latmin": 51.19874471532912
    }, 
    {
      "latmax": 51.205275856460034, 
      "name": "Vredekaai", 
      "lonmin": 3.8055763508028817, 
      "sanName": "vredekaai", 
      "numOfAddr": 10, 
      "lonmax": 3.8073330398989427, 
      "latmin": 51.20202759598446
    }, 
    {
      "latmax": 51.19133181123752, 
      "name": "Vrijwilligerslaan", 
      "lonmin": 3.7922139164970305, 
      "sanName": "vrijwilligerslaan", 
      "numOfAddr": 20, 
      "lonmax": 3.794737199754717, 
      "latmin": 51.19065555509529
    }, 
    {
      "latmax": 51.200611481671096, 
      "name": "Wachtebekestraat", 
      "lonmin": 3.8160755834928053, 
      "sanName": "wachtebekestraat", 
      "numOfAddr": 196, 
      "lonmax": 3.8285322126821835, 
      "latmin": 51.19345957740292
    }, 
    {
      "latmax": 51.200490631102916, 
      "name": "Warande", 
      "lonmin": 3.8043695605024688, 
      "sanName": "warande", 
      "numOfAddr": 29, 
      "lonmax": 3.805473285985874, 
      "latmin": 51.19812565460771
    }, 
    {
      "latmax": 51.20133540247872, 
      "name": "Westkade", 
      "lonmin": 3.807508146675713, 
      "sanName": "westkade", 
      "numOfAddr": 60, 
      "lonmax": 3.809453078898437, 
      "latmin": 51.19399259829768
    }, 
    {
      "latmax": 51.194815293190906, 
      "name": "Winkelstraat", 
      "lonmin": 3.8099967353253614, 
      "sanName": "winkelstraat", 
      "numOfAddr": 49, 
      "lonmax": 3.812412496596855, 
      "latmin": 51.1934028534853
    }, 
    {
      "latmax": 51.20473780153893, 
      "name": "Zandstraat", 
      "lonmin": 3.8215921182750408, 
      "sanName": "zandstraat", 
      "numOfAddr": 15, 
      "lonmax": 3.8223545312044993, 
      "latmin": 51.20369195209662
    }, 
    {
      "latmax": 51.20058457690755, 
      "name": "Zeestraat", 
      "lonmin": 3.8343109764993537, 
      "sanName": "zeestraat", 
      "numOfAddr": 15, 
      "lonmax": 3.8356782481953586, 
      "latmin": 51.19908102320925
    }, 
    {
      "latmax": 51.201937797245826, 
      "name": "Zonnebloemstraat", 
      "lonmin": 3.824299948161949, 
      "sanName": "zonnebloemstraat", 
      "numOfAddr": 3, 
      "lonmax": 3.8248083901986987, 
      "latmin": 51.201033715354335
    }
  ]
}