{
  "streets": [
    {
      "latmax": 51.08649695930208, 
      "name": "Acacialaan", 
      "lonmin": 3.818314734984633, 
      "sanName": "acacialaan", 
      "numOfAddr": 63, 
      "lonmax": 3.823668235312456, 
      "latmin": 51.08253884826044
    }, 
    {
      "latmax": 51.10658720063709, 
      "name": "Ambachtenlaan", 
      "lonmin": 3.8698272164866903, 
      "sanName": "ambachtenlaan", 
      "numOfAddr": 25, 
      "lonmax": 3.876905659046364, 
      "latmin": 51.105019562272986
    }, 
    {
      "latmax": 51.093658730228626, 
      "name": "Antwerpse Steenweg", 
      "lonmin": 3.7997696227885576, 
      "sanName": "antwerpsesteenweg", 
      "numOfAddr": 148, 
      "lonmax": 3.821986900395121, 
      "latmin": 51.084804486728274
    }, 
    {
      "latmax": 51.09397037508175, 
      "name": "Azalealaan", 
      "lonmin": 3.817251671815289, 
      "sanName": "azalealaan", 
      "numOfAddr": 36, 
      "lonmax": 3.8186237722519936, 
      "latmin": 51.09251751152829
    }, 
    {
      "latmax": 51.13603312481545, 
      "name": "Azaleastraat", 
      "lonmin": 3.859664144225803, 
      "sanName": "azaleastraat", 
      "numOfAddr": 24, 
      "lonmax": 3.8606254420930792, 
      "latmin": 51.13511936138676
    }, 
    {
      "latmax": 51.08665242783844, 
      "name": "Baljuwweg", 
      "lonmin": 3.8547974540874717, 
      "sanName": "baljuwweg", 
      "numOfAddr": 5, 
      "lonmax": 3.855016743333857, 
      "latmin": 51.08642550993035
    }, 
    {
      "latmax": 51.099908911998526, 
      "name": "Bastelare", 
      "lonmin": 3.8785696685889977, 
      "sanName": "bastelare", 
      "numOfAddr": 128, 
      "lonmax": 3.904751302968118, 
      "latmin": 51.09385615902002
    }, 
    {
      "latmax": 51.0893091669899, 
      "name": "Bedevaartlaan", 
      "lonmin": 3.8448379254742857, 
      "sanName": "bedevaartlaan", 
      "numOfAddr": 37, 
      "lonmax": 3.8479813408356187, 
      "latmin": 51.08808062172885
    }, 
    {
      "latmax": 51.105526720407084, 
      "name": "Bedrijvenlaan", 
      "lonmin": 3.870405212527522, 
      "sanName": "bedrijvenlaan", 
      "numOfAddr": 24, 
      "lonmax": 3.8806266990496123, 
      "latmin": 51.10328816447406
    }, 
    {
      "latmax": 51.082825777488296, 
      "name": "Beervelde-Dorp", 
      "lonmin": 3.8732025683452598, 
      "sanName": "beerveldedorp", 
      "numOfAddr": 89, 
      "lonmax": 3.8804620824624587, 
      "latmin": 51.079565859933666
    }, 
    {
      "latmax": 51.10483469066841, 
      "name": "Beerveldse Baan", 
      "lonmin": 3.8680327954643197, 
      "sanName": "beerveldsebaan", 
      "numOfAddr": 36, 
      "lonmax": 3.881055584556448, 
      "latmin": 51.080560132652145
    }, 
    {
      "latmax": 51.125942691915945, 
      "name": "Beeweg", 
      "lonmin": 3.867455586303095, 
      "sanName": "beeweg", 
      "numOfAddr": 47, 
      "lonmax": 3.8823589490520773, 
      "latmin": 51.12215928728857
    }, 
    {
      "latmax": 51.09399483333234, 
      "name": "Begonialaan", 
      "lonmin": 3.816510628697804, 
      "sanName": "begonialaan", 
      "numOfAddr": 26, 
      "lonmax": 3.8177844600288924, 
      "latmin": 51.092221372921294
    }, 
    {
      "latmax": 51.134826485637824, 
      "name": "Begoniastraat", 
      "lonmin": 3.8600863906301526, 
      "sanName": "begoniastraat", 
      "numOfAddr": 14, 
      "lonmax": 3.860840147578596, 
      "latmin": 51.134224960826685
    }, 
    {
      "latmax": 51.07988236783949, 
      "name": "Bennesteeg", 
      "lonmin": 3.8813855277578035, 
      "sanName": "bennesteeg", 
      "numOfAddr": 3, 
      "lonmax": 3.881513475997205, 
      "latmin": 51.079710934840435
    }, 
    {
      "latmax": 51.13475604814729, 
      "name": "Berkenstraat", 
      "lonmin": 3.8544077208691645, 
      "sanName": "berkenstraat", 
      "numOfAddr": 88, 
      "lonmax": 3.8598737406419565, 
      "latmin": 51.131928715481166
    }, 
    {
      "latmax": 51.09027735355324, 
      "name": "Berluyck", 
      "lonmin": 3.8162495432430443, 
      "sanName": "berluyck", 
      "numOfAddr": 6, 
      "lonmax": 3.817707772223689, 
      "latmin": 51.08990451318425
    }, 
    {
      "latmax": 51.08598254685233, 
      "name": "Beukendreef", 
      "lonmin": 3.81771978599929, 
      "sanName": "beukendreef", 
      "numOfAddr": 49, 
      "lonmax": 3.8309994390731053, 
      "latmin": 51.082310011328154
    }, 
    {
      "latmax": 51.10730929130019, 
      "name": "Bevrijdingslaan", 
      "lonmin": 3.826370486450533, 
      "sanName": "bevrijdingslaan", 
      "numOfAddr": 49, 
      "lonmax": 3.830766022004083, 
      "latmin": 51.10426162066553
    }, 
    {
      "latmax": 51.10036820612903, 
      "name": "Bijlokelaan", 
      "lonmin": 3.820163216014056, 
      "sanName": "bijlokelaan", 
      "numOfAddr": 59, 
      "lonmax": 3.825368325637456, 
      "latmin": 51.09826023628413
    }, 
    {
      "latmax": 51.08739035100807, 
      "name": "Bisschop-Pieter-Damantlaan", 
      "lonmin": 3.847768558717227, 
      "sanName": "bisschoppieterdamantlaan", 
      "numOfAddr": 40, 
      "lonmax": 3.8531601970770093, 
      "latmin": 51.08640844319092
    }, 
    {
      "latmax": 51.08605116895994, 
      "name": "Bloembollenlaan", 
      "lonmin": 3.803230379096947, 
      "sanName": "bloembollenlaan", 
      "numOfAddr": 17, 
      "lonmax": 3.805095750457767, 
      "latmin": 51.08457251334822
    }, 
    {
      "latmax": 51.07225048678911, 
      "name": "Bochtenstraat", 
      "lonmin": 3.8400877620582343, 
      "sanName": "bochtenstraat", 
      "numOfAddr": 6, 
      "lonmax": 3.8425158993356545, 
      "latmin": 51.06955943771506
    }, 
    {
      "latmax": 51.0981509894172, 
      "name": "Boekweitlaan", 
      "lonmin": 3.821065347770947, 
      "sanName": "boekweitlaan", 
      "numOfAddr": 67, 
      "lonmax": 3.825136726398735, 
      "latmin": 51.09678875770336
    }, 
    {
      "latmax": 51.10567285550585, 
      "name": "Boerenkrijghof", 
      "lonmin": 3.9002775115036306, 
      "sanName": "boerenkrijghof", 
      "numOfAddr": 10, 
      "lonmax": 3.9008705279960774, 
      "latmin": 51.104906817642885
    }, 
    {
      "latmax": 51.14377249132355, 
      "name": "Bommel", 
      "lonmin": 3.8428853950610464, 
      "sanName": "bommel", 
      "numOfAddr": 7, 
      "lonmax": 3.850481597728258, 
      "latmin": 51.142156800284766
    }, 
    {
      "latmax": 51.090063385482495, 
      "name": "Bommelslaan", 
      "lonmin": 3.856013384481105, 
      "sanName": "bommelslaan", 
      "numOfAddr": 34, 
      "lonmax": 3.858382782164471, 
      "latmin": 51.08795725030833
    }, 
    {
      "latmax": 51.09135988246257, 
      "name": "Bosakkers", 
      "lonmin": 3.843952223610706, 
      "sanName": "bosakkers", 
      "numOfAddr": 74, 
      "lonmax": 3.847115971744211, 
      "latmin": 51.08912885724838
    }, 
    {
      "latmax": 51.14559789486346, 
      "name": "Bosdam", 
      "lonmin": 3.8700426554916616, 
      "sanName": "bosdam", 
      "numOfAddr": 41, 
      "lonmax": 3.888013256345717, 
      "latmin": 51.134871492679906
    }, 
    {
      "latmax": 51.09759611591192, 
      "name": "Bosdreef", 
      "lonmin": 3.837436998268656, 
      "sanName": "bosdreef", 
      "numOfAddr": 76, 
      "lonmax": 3.8462744020012987, 
      "latmin": 51.08759698978419
    }, 
    {
      "latmax": 51.08957373287958, 
      "name": "Boskapellaan", 
      "lonmin": 3.845006142045496, 
      "sanName": "boskapellaan", 
      "numOfAddr": 71, 
      "lonmax": 3.85643563705609, 
      "latmin": 51.087319968010355
    }, 
    {
      "latmax": 51.07720772149427, 
      "name": "Bosmansdreef", 
      "lonmin": 3.861678934335293, 
      "sanName": "bosmansdreef", 
      "numOfAddr": 2, 
      "lonmax": 3.8625172315904037, 
      "latmin": 51.07651825661433
    }, 
    {
      "latmax": 51.10908413484789, 
      "name": "Bosstraat", 
      "lonmin": 3.8413180698173552, 
      "sanName": "bosstraat", 
      "numOfAddr": 30, 
      "lonmax": 3.8504376238143325, 
      "latmin": 51.10461724170253
    }, 
    {
      "latmax": 51.094992777522535, 
      "name": "Braamstraat", 
      "lonmin": 3.821068345459552, 
      "sanName": "braamstraat", 
      "numOfAddr": 13, 
      "lonmax": 3.822424957564126, 
      "latmin": 51.093776951815265
    }, 
    {
      "latmax": 51.076801799898945, 
      "name": "Brandstraat", 
      "lonmin": 3.8358555620433386, 
      "sanName": "brandstraat", 
      "numOfAddr": 70, 
      "lonmax": 3.8727920978271113, 
      "latmin": 51.06032357262735
    }, 
    {
      "latmax": 51.05950181253612, 
      "name": "Breestraat", 
      "lonmin": 3.8583801222616994, 
      "sanName": "breestraat", 
      "numOfAddr": 19, 
      "lonmax": 3.8660309555703263, 
      "latmin": 51.051244617185134
    }, 
    {
      "latmax": 51.069029525588284, 
      "name": "Brugstraat", 
      "lonmin": 3.8969133324468057, 
      "sanName": "brugstraat", 
      "numOfAddr": 9, 
      "lonmax": 3.8990960682822298, 
      "latmin": 51.06353277526994
    }, 
    {
      "latmax": 51.111844122688666, 
      "name": "Bunder", 
      "lonmin": 3.819989885158306, 
      "sanName": "bunder", 
      "numOfAddr": 11, 
      "lonmax": 3.823574514444675, 
      "latmin": 51.10967477874464
    }, 
    {
      "latmax": 51.08393172697121, 
      "name": "Burgemeester De Schryverhof", 
      "lonmin": 3.83021148605248, 
      "sanName": "burgemeesterdeschryverhof", 
      "numOfAddr": 6, 
      "lonmax": 3.8323203280945184, 
      "latmin": 51.083467271583416
    }, 
    {
      "latmax": 51.13578151217872, 
      "name": "Burgemeester Lippensstraat", 
      "lonmin": 3.8540876535267627, 
      "sanName": "burgemeesterlippensstraat", 
      "numOfAddr": 8, 
      "lonmax": 3.8585741158111, 
      "latmin": 51.134079119838475
    }, 
    {
      "latmax": 51.10178365647174, 
      "name": "Burgemeester-Vermeulenlaan", 
      "lonmin": 3.833245095525452, 
      "sanName": "burgemeestervermeulenlaan", 
      "numOfAddr": 66, 
      "lonmax": 3.836474937088561, 
      "latmin": 51.097672251608785
    }, 
    {
      "latmax": 51.137163310157945, 
      "name": "Busstraat", 
      "lonmin": 3.8180680828175824, 
      "sanName": "busstraat", 
      "numOfAddr": 22, 
      "lonmax": 3.831229429647736, 
      "latmin": 51.128510824401275
    }, 
    {
      "latmax": 51.13591835667692, 
      "name": "Canadastraat", 
      "lonmin": 3.8592158041202063, 
      "sanName": "canadastraat", 
      "numOfAddr": 12, 
      "lonmax": 3.859503273183374, 
      "latmin": 51.13507741758117
    }, 
    {
      "latmax": 51.095278006943744, 
      "name": "Charles Vuylstekehof", 
      "lonmin": 3.8363522131237437, 
      "sanName": "charlesvuylstekehof", 
      "numOfAddr": 15, 
      "lonmax": 3.8378379417225417, 
      "latmin": 51.09390634081221
    }, 
    {
      "latmax": 51.0861430002178, 
      "name": "Cijnsakkerweg", 
      "lonmin": 3.8113140946608994, 
      "sanName": "cijnsakkerweg", 
      "numOfAddr": 9, 
      "lonmax": 3.8124340424076424, 
      "latmin": 51.085347569600124
    }, 
    {
      "latmax": 51.09276365237048, 
      "name": "Clivialaan", 
      "lonmin": 3.8246672590712363, 
      "sanName": "clivialaan", 
      "numOfAddr": 10, 
      "lonmax": 3.8260461853198424, 
      "latmin": 51.09215926374168
    }, 
    {
      "latmax": 51.08043603749252, 
      "name": "Cootveld", 
      "lonmin": 3.908861716766794, 
      "sanName": "cootveld", 
      "numOfAddr": 30, 
      "lonmax": 3.9152520974778398, 
      "latmin": 51.07131350788184
    }, 
    {
      "latmax": 51.09090115507329, 
      "name": "Dahlialaan", 
      "lonmin": 3.8034084069809944, 
      "sanName": "dahlialaan", 
      "numOfAddr": 40, 
      "lonmax": 3.807192196595871, 
      "latmin": 51.08904758606418
    }, 
    {
      "latmax": 51.14800538767905, 
      "name": "Dam", 
      "lonmin": 3.8553449385739085, 
      "sanName": "dam", 
      "numOfAddr": 62, 
      "lonmax": 3.869920466829741, 
      "latmin": 51.13526648224832
    }, 
    {
      "latmax": 51.0959382938135, 
      "name": "Dekenijstraat", 
      "lonmin": 3.82842449628905, 
      "sanName": "dekenijstraat", 
      "numOfAddr": 43, 
      "lonmax": 3.834493906380469, 
      "latmin": 51.091455526317525
    }, 
    {
      "latmax": 51.05982895465407, 
      "name": "Dendermondse Steenweg", 
      "lonmin": 3.8349927726452897, 
      "sanName": "dendermondsesteenweg", 
      "numOfAddr": 30, 
      "lonmax": 3.8581752156780333, 
      "latmin": 51.050469134716664
    }, 
    {
      "latmax": 51.108434707551694, 
      "name": "Denen", 
      "lonmin": 3.846253682675608, 
      "sanName": "denen", 
      "numOfAddr": 104, 
      "lonmax": 3.8704365888848993, 
      "latmin": 51.09946689827607
    }, 
    {
      "latmax": 51.13488978823046, 
      "name": "Dijkgracht", 
      "lonmin": 3.8694579690863034, 
      "sanName": "dijkgracht", 
      "numOfAddr": 15, 
      "lonmax": 3.870174820450334, 
      "latmin": 51.13217628337717
    }, 
    {
      "latmax": 51.132158231337044, 
      "name": "Distelweg", 
      "lonmin": 3.8693900481490706, 
      "sanName": "distelweg", 
      "numOfAddr": 12, 
      "lonmax": 3.8705322879028494, 
      "latmin": 51.13173306654817
    }, 
    {
      "latmax": 51.077092396523405, 
      "name": "Dodemoerstraat", 
      "lonmin": 3.8578453243924575, 
      "sanName": "dodemoerstraat", 
      "numOfAddr": 1, 
      "lonmax": 3.8578453243924575, 
      "latmin": 51.077092396523405
    }, 
    {
      "latmax": 51.08757525895229, 
      "name": "Doornikstraat", 
      "lonmin": 3.8068088679815677, 
      "sanName": "doornikstraat", 
      "numOfAddr": 35, 
      "lonmax": 3.8100690911720547, 
      "latmin": 51.084360461866105
    }, 
    {
      "latmax": 51.11962756608148, 
      "name": "Doornzelestraat", 
      "lonmin": 3.8092851051700936, 
      "sanName": "doornzelestraat", 
      "numOfAddr": 34, 
      "lonmax": 3.8208159729328703, 
      "latmin": 51.11117638321199
    }, 
    {
      "latmax": 51.10004089548705, 
      "name": "Dorp-Oost", 
      "lonmin": 3.833429522596296, 
      "sanName": "dorpoost", 
      "numOfAddr": 128, 
      "lonmax": 3.846165973694469, 
      "latmin": 51.09595263096917
    }, 
    {
      "latmax": 51.10464794359325, 
      "name": "Dorpsstraat", 
      "lonmin": 3.827118048310039, 
      "sanName": "dorpsstraat", 
      "numOfAddr": 93, 
      "lonmax": 3.840168489397955, 
      "latmin": 51.099818604722365
    }, 
    {
      "latmax": 51.09669526892643, 
      "name": "Dorp-West", 
      "lonmin": 3.822754776667245, 
      "sanName": "dorpwest", 
      "numOfAddr": 128, 
      "lonmax": 3.833359725666902, 
      "latmin": 51.093244437808174
    }, 
    {
      "latmax": 51.06862747096731, 
      "name": "Draaiboomstraat", 
      "lonmin": 3.840053196115654, 
      "sanName": "draaiboomstraat", 
      "numOfAddr": 6, 
      "lonmax": 3.840522078802792, 
      "latmin": 51.067725028067514
    }, 
    {
      "latmax": 51.09292813009536, 
      "name": "Duiventorenhof", 
      "lonmin": 3.8119131589201367, 
      "sanName": "duiventorenhof", 
      "numOfAddr": 17, 
      "lonmax": 3.8146418346356907, 
      "latmin": 51.0918815748429
    }, 
    {
      "latmax": 51.09889954067362, 
      "name": "Eendenstraat", 
      "lonmin": 3.8431079419479253, 
      "sanName": "eendenstraat", 
      "numOfAddr": 23, 
      "lonmax": 3.8469896043486025, 
      "latmin": 51.096417959103505
    }, 
    {
      "latmax": 51.06643401046688, 
      "name": "Eethoek", 
      "lonmin": 3.9019069629167844, 
      "sanName": "eethoek", 
      "numOfAddr": 2, 
      "lonmax": 3.902979965360549, 
      "latmin": 51.064776499599155
    }, 
    {
      "latmax": 51.083051369744304, 
      "name": "Eikendreef", 
      "lonmin": 3.828661149535677, 
      "sanName": "eikendreef", 
      "numOfAddr": 19, 
      "lonmax": 3.832787926777961, 
      "latmin": 51.082241262556636
    }, 
    {
      "latmax": 51.106417662280606, 
      "name": "Eikstraat", 
      "lonmin": 3.8799284700233696, 
      "sanName": "eikstraat", 
      "numOfAddr": 30, 
      "lonmax": 3.8840040993641947, 
      "latmin": 51.096047500811444
    }, 
    {
      "latmax": 51.10487287783758, 
      "name": "Elf-Novemberlaan", 
      "lonmin": 3.8301079950505845, 
      "sanName": "elfnovemberlaan", 
      "numOfAddr": 30, 
      "lonmax": 3.833213181367897, 
      "latmin": 51.10211742288907
    }, 
    {
      "latmax": 51.070172559186425, 
      "name": "Ertbuerhoek", 
      "lonmin": 3.8595825621992343, 
      "sanName": "ertbuerhoek", 
      "numOfAddr": 19, 
      "lonmax": 3.8662637318691555, 
      "latmin": 51.067180061869855
    }, 
    {
      "latmax": 51.087233346793106, 
      "name": "Esdoornlaan", 
      "lonmin": 3.8205460216829317, 
      "sanName": "esdoornlaan", 
      "numOfAddr": 42, 
      "lonmax": 3.825388506908279, 
      "latmin": 51.08424333618744
    }, 
    {
      "latmax": 51.09676684245855, 
      "name": "Fazantenstraat", 
      "lonmin": 3.8404985770880304, 
      "sanName": "fazantenstraat", 
      "numOfAddr": 81, 
      "lonmax": 3.8532635080309308, 
      "latmin": 51.09456105781541
    }, 
    {
      "latmax": 51.09514509958209, 
      "name": "Ganzenhof", 
      "lonmin": 3.8476413998542944, 
      "sanName": "ganzenhof", 
      "numOfAddr": 24, 
      "lonmax": 3.850062548803568, 
      "latmin": 51.09385079421026
    }, 
    {
      "latmax": 51.099878998747826, 
      "name": "Gaverveld", 
      "lonmin": 3.892117526726839, 
      "sanName": "gaverveld", 
      "numOfAddr": 34, 
      "lonmax": 3.896704512250992, 
      "latmin": 51.09875376955873
    }, 
    {
      "latmax": 51.13409962786043, 
      "name": "Gelei", 
      "lonmin": 3.827288127816064, 
      "sanName": "gelei", 
      "numOfAddr": 8, 
      "lonmax": 3.8316963241148256, 
      "latmin": 51.12310739314211
    }, 
    {
      "latmax": 51.103880301055035, 
      "name": "Gemete", 
      "lonmin": 3.832866790085753, 
      "sanName": "gemete", 
      "numOfAddr": 20, 
      "lonmax": 3.8348811190058925, 
      "latmin": 51.10256555104646
    }, 
    {
      "latmax": 51.08470990864261, 
      "name": "Gloxinialaan", 
      "lonmin": 3.8007131557500133, 
      "sanName": "gloxinialaan", 
      "numOfAddr": 11, 
      "lonmax": 3.8024693225367816, 
      "latmin": 51.083945913399575
    }, 
    {
      "latmax": 51.09650472593232, 
      "name": "Goed ten Pauw", 
      "lonmin": 3.850421826097178, 
      "sanName": "goedtenpauw", 
      "numOfAddr": 54, 
      "lonmax": 3.854796537015484, 
      "latmin": 51.09407220143271
    }, 
    {
      "latmax": 51.09902614459654, 
      "name": "Graslaan", 
      "lonmin": 3.824214620950416, 
      "sanName": "graslaan", 
      "numOfAddr": 45, 
      "lonmax": 3.8260930083359845, 
      "latmin": 51.096078884848865
    }, 
    {
      "latmax": 51.09730199647341, 
      "name": "Graspieperhof", 
      "lonmin": 3.8445402168042406, 
      "sanName": "graspieperhof", 
      "numOfAddr": 25, 
      "lonmax": 3.8464257055950606, 
      "latmin": 51.09592755294753
    }, 
    {
      "latmax": 51.081040321105796, 
      "name": "Haanhoutstraat", 
      "lonmin": 3.843658067904677, 
      "sanName": "haanhoutstraat", 
      "numOfAddr": 107, 
      "lonmax": 3.872993098976587, 
      "latmin": 51.07504688024281
    }, 
    {
      "latmax": 51.10626701985101, 
      "name": "Halve Dreef", 
      "lonmin": 3.8906171508386835, 
      "sanName": "halvedreef", 
      "numOfAddr": 6, 
      "lonmax": 3.891781490685378, 
      "latmin": 51.10492829878744
    }, 
    {
      "latmax": 51.08122818482632, 
      "name": "Hanselaarstraat", 
      "lonmin": 3.898673410148244, 
      "sanName": "hanselaarstraat", 
      "numOfAddr": 39, 
      "lonmax": 3.904544768863834, 
      "latmin": 51.06985948023444
    }, 
    {
      "latmax": 51.09139566994525, 
      "name": "Heidegrond", 
      "lonmin": 3.8071482125160987, 
      "sanName": "heidegrond", 
      "numOfAddr": 33, 
      "lonmax": 3.8099321806050552, 
      "latmin": 51.08949221735708
    }, 
    {
      "latmax": 51.080304497939146, 
      "name": "Heistraat", 
      "lonmin": 3.88237768825411, 
      "sanName": "heistraat", 
      "numOfAddr": 63, 
      "lonmax": 3.8946368772081, 
      "latmin": 51.077140642907544
    }, 
    {
      "latmax": 51.133808695776644, 
      "name": "Hellestraat", 
      "lonmin": 3.8658909235423415, 
      "sanName": "hellestraat", 
      "numOfAddr": 27, 
      "lonmax": 3.868228719260699, 
      "latmin": 51.13094949178272
    }, 
    {
      "latmax": 51.099204492669834, 
      "name": "Hendrikslaar", 
      "lonmin": 3.831906293984423, 
      "sanName": "hendrikslaar", 
      "numOfAddr": 19, 
      "lonmax": 3.8338805935045874, 
      "latmin": 51.097731127852725
    }, 
    {
      "latmax": 51.11182809653692, 
      "name": "Hijfte-Center", 
      "lonmin": 3.8077735787236584, 
      "sanName": "hijftecenter", 
      "numOfAddr": 48, 
      "lonmax": 3.813450079583141, 
      "latmin": 51.10951180882599
    }, 
    {
      "latmax": 51.10951960403313, 
      "name": "Hijftestraat", 
      "lonmin": 3.808953094201828, 
      "sanName": "hijftestraat", 
      "numOfAddr": 125, 
      "lonmax": 3.822009387842058, 
      "latmin": 51.09555666630401
    }, 
    {
      "latmax": 51.11513752630401, 
      "name": "Hoekskensstraat", 
      "lonmin": 3.835414913364159, 
      "sanName": "hoekskensstraat", 
      "numOfAddr": 125, 
      "lonmax": 3.8477806053289276, 
      "latmin": 51.09939556429526
    }, 
    {
      "latmax": 51.12312861381813, 
      "name": "Hoekstraat", 
      "lonmin": 3.900363246559676, 
      "sanName": "hoekstraat", 
      "numOfAddr": 38, 
      "lonmax": 3.9021559376770143, 
      "latmin": 51.10799331696844
    }, 
    {
      "latmax": 51.098840305256196, 
      "name": "Hoogbastelare", 
      "lonmin": 3.8930449911691363, 
      "sanName": "hoogbastelare", 
      "numOfAddr": 19, 
      "lonmax": 3.8952406813431835, 
      "latmin": 51.09795830620777
    }, 
    {
      "latmax": 51.06966946648322, 
      "name": "Hoogstraat", 
      "lonmin": 3.8406714626406706, 
      "sanName": "hoogstraat", 
      "numOfAddr": 6, 
      "lonmax": 3.85189789855601, 
      "latmin": 51.06739348171683
    }, 
    {
      "latmax": 51.09334789836428, 
      "name": "Hortensialaan", 
      "lonmin": 3.8222057864577947, 
      "sanName": "hortensialaan", 
      "numOfAddr": 31, 
      "lonmax": 3.824657535986791, 
      "latmin": 51.0914076692149
    }, 
    {
      "latmax": 51.07956140467083, 
      "name": "Hospitaalstraat", 
      "lonmin": 3.8755248044719095, 
      "sanName": "hospitaalstraat", 
      "numOfAddr": 21, 
      "lonmax": 3.876429323917105, 
      "latmin": 51.07784915567502
    }, 
    {
      "latmax": 51.10049371105247, 
      "name": "Huringwegel", 
      "lonmin": 3.839127662652765, 
      "sanName": "huringwegel", 
      "numOfAddr": 17, 
      "lonmax": 3.840476191148913, 
      "latmin": 51.09949929586852
    }, 
    {
      "latmax": 51.09591118296895, 
      "name": "Jasmijnhof", 
      "lonmin": 3.819124677027404, 
      "sanName": "jasmijnhof", 
      "numOfAddr": 6, 
      "lonmax": 3.821000204579345, 
      "latmin": 51.09547557663687
    }, 
    {
      "latmax": 51.11101860763236, 
      "name": "Kallestraat", 
      "lonmin": 3.8957675960292986, 
      "sanName": "kallestraat", 
      "numOfAddr": 35, 
      "lonmax": 3.8970624054525524, 
      "latmin": 51.10761190406491
    }, 
    {
      "latmax": 51.10962297339995, 
      "name": "Kantschoolweg", 
      "lonmin": 3.897317093456922, 
      "sanName": "kantschoolweg", 
      "numOfAddr": 23, 
      "lonmax": 3.8997341741563454, 
      "latmin": 51.10851352159074
    }, 
    {
      "latmax": 51.13607839459935, 
      "name": "Kanunnik Petrus Jozef Triestlaan", 
      "lonmin": 3.8607651890142933, 
      "sanName": "kanunnikpetrusjozeftriestlaan", 
      "numOfAddr": 25, 
      "lonmax": 3.862472363863004, 
      "latmin": 51.133037327388564
    }, 
    {
      "latmax": 51.085812551629886, 
      "name": "Kapelaanwegel", 
      "lonmin": 3.8507211332356626, 
      "sanName": "kapelaanwegel", 
      "numOfAddr": 13, 
      "lonmax": 3.852400075289646, 
      "latmin": 51.08492768992187
    }, 
    {
      "latmax": 51.09681537067927, 
      "name": "Kapelleken", 
      "lonmin": 3.8217988175896758, 
      "sanName": "kapelleken", 
      "numOfAddr": 27, 
      "lonmax": 3.827749914090821, 
      "latmin": 51.09536672223354
    }, 
    {
      "latmax": 51.12237614778718, 
      "name": "Kapelstraat", 
      "lonmin": 3.853417002131607, 
      "sanName": "kapelstraat", 
      "numOfAddr": 41, 
      "lonmax": 3.8656074899371444, 
      "latmin": 51.11983194151413
    }, 
    {
      "latmax": 51.1211600486085, 
      "name": "Kapiteinsstraat", 
      "lonmin": 3.8292719609318344, 
      "sanName": "kapiteinsstraat", 
      "numOfAddr": 24, 
      "lonmax": 3.8351235477795576, 
      "latmin": 51.11563400656575
    }, 
    {
      "latmax": 51.13792410005231, 
      "name": "Kasselstraat", 
      "lonmin": 3.8642677870058706, 
      "sanName": "kasselstraat", 
      "numOfAddr": 25, 
      "lonmax": 3.8667703309580044, 
      "latmin": 51.13450938474705
    }, 
    {
      "latmax": 51.08386422756475, 
      "name": "Kastanjedreef", 
      "lonmin": 3.8271255707190392, 
      "sanName": "kastanjedreef", 
      "numOfAddr": 39, 
      "lonmax": 3.8326901728446288, 
      "latmin": 51.08120759270286
    }, 
    {
      "latmax": 51.09407443442836, 
      "name": "Kasteeldreef", 
      "lonmin": 3.8264485138769566, 
      "sanName": "kasteeldreef", 
      "numOfAddr": 24, 
      "lonmax": 3.833755142206919, 
      "latmin": 51.085966469322976
    }, 
    {
      "latmax": 51.079675029350014, 
      "name": "Kasteelstraat", 
      "lonmin": 3.8794175980209338, 
      "sanName": "kasteelstraat", 
      "numOfAddr": 26, 
      "lonmax": 3.8808789004853352, 
      "latmin": 51.07832739584999
    }, 
    {
      "latmax": 51.132231276670566, 
      "name": "Kerkstraat", 
      "lonmin": 3.8616892175807505, 
      "sanName": "kerkstraat", 
      "numOfAddr": 100, 
      "lonmax": 3.8673093369661027, 
      "latmin": 51.12159997939911
    }, 
    {
      "latmax": 51.094639024015926, 
      "name": "Kerkwegelakker", 
      "lonmin": 3.8342016487953683, 
      "sanName": "kerkwegelakker", 
      "numOfAddr": 32, 
      "lonmax": 3.8388646386025176, 
      "latmin": 51.090821990387184
    }, 
    {
      "latmax": 51.08021939029961, 
      "name": "Kerrebroekstraat", 
      "lonmin": 3.917595299279267, 
      "sanName": "kerrebroekstraat", 
      "numOfAddr": 9, 
      "lonmax": 3.9221525488234414, 
      "latmin": 51.07561102048846
    }, 
    {
      "latmax": 51.095676809471875, 
      "name": "Kievithof", 
      "lonmin": 3.843150082533241, 
      "sanName": "kievithof", 
      "numOfAddr": 22, 
      "lonmax": 3.8449652970537933, 
      "latmin": 51.09450666661491
    }, 
    {
      "latmax": 51.07960654723438, 
      "name": "Kijkdorp", 
      "lonmin": 3.8734150191080525, 
      "sanName": "kijkdorp", 
      "numOfAddr": 33, 
      "lonmax": 3.8750843098405587, 
      "latmin": 51.07739913219542
    }, 
    {
      "latmax": 51.0657104794421, 
      "name": "Kleine Heidestraat", 
      "lonmin": 3.883863626943681, 
      "sanName": "kleineheidestraat", 
      "numOfAddr": 5, 
      "lonmax": 3.885314109642982, 
      "latmin": 51.064541070797915
    }, 
    {
      "latmax": 51.06220906277211, 
      "name": "Klein Gent", 
      "lonmin": 3.8659972626953136, 
      "sanName": "kleingent", 
      "numOfAddr": 25, 
      "lonmax": 3.8703102403854963, 
      "latmin": 51.05986348122887
    }, 
    {
      "latmax": 51.078875584125846, 
      "name": "Kloosterstraat", 
      "lonmin": 3.872914815023394, 
      "sanName": "kloosterstraat", 
      "numOfAddr": 38, 
      "lonmax": 3.880404372662638, 
      "latmin": 51.076909557519016
    }, 
    {
      "latmax": 51.13444187304693, 
      "name": "Kluizestraat", 
      "lonmin": 3.8681545217471673, 
      "sanName": "kluizestraat", 
      "numOfAddr": 17, 
      "lonmax": 3.869033004112654, 
      "latmin": 51.1330900351649
    }, 
    {
      "latmax": 51.142535286724204, 
      "name": "Koedreef", 
      "lonmin": 3.8524732684644905, 
      "sanName": "koedreef", 
      "numOfAddr": 24, 
      "lonmax": 3.8557882179154443, 
      "latmin": 51.13061304583458
    }, 
    {
      "latmax": 51.111661031591474, 
      "name": "Koning-Albertlaan", 
      "lonmin": 3.814104725751213, 
      "sanName": "koningalbertlaan", 
      "numOfAddr": 197, 
      "lonmax": 3.833439175879575, 
      "latmin": 51.09637764146952
    }, 
    {
      "latmax": 51.09769027637316, 
      "name": "Koning-Boudewijnlaan", 
      "lonmin": 3.8284221471525712, 
      "sanName": "koningboudewijnlaan", 
      "numOfAddr": 5, 
      "lonmax": 3.8308203705664976, 
      "latmin": 51.09608364177037
    }, 
    {
      "latmax": 51.10081362881968, 
      "name": "Koningin Astridlaan", 
      "lonmin": 3.8307974252859207, 
      "sanName": "koninginastridlaan", 
      "numOfAddr": 13, 
      "lonmax": 3.832423104841172, 
      "latmin": 51.09954902459277
    }, 
    {
      "latmax": 51.09960524955139, 
      "name": "Koningin Elisabethlaan", 
      "lonmin": 3.833780327945291, 
      "sanName": "koninginelisabethlaan", 
      "numOfAddr": 19, 
      "lonmax": 3.8353893732807127, 
      "latmin": 51.09773832717185
    }, 
    {
      "latmax": 51.101326880440986, 
      "name": "Koning Leopold III-laan", 
      "lonmin": 3.8306978711673145, 
      "sanName": "koningleopoldiiilaan", 
      "numOfAddr": 32, 
      "lonmax": 3.833946770649793, 
      "latmin": 51.09883343576969
    }, 
    {
      "latmax": 51.10568136976348, 
      "name": "Kouter", 
      "lonmin": 3.827228316711731, 
      "sanName": "kouter", 
      "numOfAddr": 34, 
      "lonmax": 3.8308376766060097, 
      "latmin": 51.10368923729771
    }, 
    {
      "latmax": 51.13752934077644, 
      "name": "Krommendonck", 
      "lonmin": 3.861814765805874, 
      "sanName": "krommendonck", 
      "numOfAddr": 32, 
      "lonmax": 3.8651782034747337, 
      "latmin": 51.133652953034144
    }, 
    {
      "latmax": 51.09813194789848, 
      "name": "Kwartelweg", 
      "lonmin": 3.8464975379819775, 
      "sanName": "kwartelweg", 
      "numOfAddr": 16, 
      "lonmax": 3.847723689655671, 
      "latmin": 51.09702564761881
    }, 
    {
      "latmax": 51.096854123828194, 
      "name": "Kwikstaarthof", 
      "lonmin": 3.8419250909622367, 
      "sanName": "kwikstaarthof", 
      "numOfAddr": 9, 
      "lonmax": 3.843082485817899, 
      "latmin": 51.09592444436567
    }, 
    {
      "latmax": 51.098867817893534, 
      "name": "Langenakkerlaan", 
      "lonmin": 3.85287047218404, 
      "sanName": "langenakkerlaan", 
      "numOfAddr": 42, 
      "lonmax": 3.8603932990040497, 
      "latmin": 51.09691212898113
    }, 
    {
      "latmax": 51.08521913768745, 
      "name": "Ledeakkerstraat", 
      "lonmin": 3.872618321066894, 
      "sanName": "ledeakkerstraat", 
      "numOfAddr": 3, 
      "lonmax": 3.873453612166918, 
      "latmin": 51.081418751043124
    }, 
    {
      "latmax": 51.08770735897446, 
      "name": "Ledebeekweg", 
      "lonmin": 3.852838236690141, 
      "sanName": "ledebeekweg", 
      "numOfAddr": 101, 
      "lonmax": 3.8597904096969886, 
      "latmin": 51.08545807371696
    }, 
    {
      "latmax": 51.13597151488021, 
      "name": "Leemstraat", 
      "lonmin": 3.8740916563930194, 
      "sanName": "leemstraat", 
      "numOfAddr": 90, 
      "lonmax": 3.8822307794351474, 
      "latmin": 51.125996261920676
    }, 
    {
      "latmax": 51.09611741761644, 
      "name": "Lepelaarsweg", 
      "lonmin": 3.8465709382290783, 
      "sanName": "lepelaarsweg", 
      "numOfAddr": 10, 
      "lonmax": 3.8479432973798544, 
      "latmin": 51.0954221203697
    }, 
    {
      "latmax": 51.09060042123776, 
      "name": "Lichtelarestraat", 
      "lonmin": 3.8148245828606404, 
      "sanName": "lichtelarestraat", 
      "numOfAddr": 89, 
      "lonmax": 3.821304778253784, 
      "latmin": 51.07831878981679
    }, 
    {
      "latmax": 51.1035429203504, 
      "name": "Lieskensakker", 
      "lonmin": 3.838025281256269, 
      "sanName": "lieskensakker", 
      "numOfAddr": 56, 
      "lonmax": 3.8421755094059526, 
      "latmin": 51.09884439962621
    }, 
    {
      "latmax": 51.101061921604206, 
      "name": "Lieskensweg", 
      "lonmin": 3.84105177786267, 
      "sanName": "lieskensweg", 
      "numOfAddr": 9, 
      "lonmax": 3.8421669180893745, 
      "latmin": 51.10039843748437
    }, 
    {
      "latmax": 51.085024872655644, 
      "name": "Lijsterbeslaan", 
      "lonmin": 3.821179189145894, 
      "sanName": "lijsterbeslaan", 
      "numOfAddr": 22, 
      "lonmax": 3.8244957626757263, 
      "latmin": 51.08370917258442
    }, 
    {
      "latmax": 51.121920141542084, 
      "name": "Lindestraat", 
      "lonmin": 3.8180096881117547, 
      "sanName": "lindestraat", 
      "numOfAddr": 44, 
      "lonmax": 3.8299060677181105, 
      "latmin": 51.12005921664537
    }, 
    {
      "latmax": 51.13138549046547, 
      "name": "Lisdoddeweg", 
      "lonmin": 3.8695622898354185, 
      "sanName": "lisdoddeweg", 
      "numOfAddr": 11, 
      "lonmax": 3.870804229553827, 
      "latmin": 51.13100355194921
    }, 
    {
      "latmax": 51.09138895284017, 
      "name": "Loboslaan", 
      "lonmin": 3.8467839100901027, 
      "sanName": "loboslaan", 
      "numOfAddr": 62, 
      "lonmax": 3.850195057731217, 
      "latmin": 51.088197977872994
    }, 
    {
      "latmax": 51.108572396836465, 
      "name": "Lozen Boer", 
      "lonmin": 3.8719200058325964, 
      "sanName": "lozenboer", 
      "numOfAddr": 19, 
      "lonmax": 3.882454596264024, 
      "latmin": 51.10664751960881
    }, 
    {
      "latmax": 51.09828766552685, 
      "name": "Magerakkerlaan", 
      "lonmin": 3.854814863979896, 
      "sanName": "magerakkerlaan", 
      "numOfAddr": 28, 
      "lonmax": 3.858385274357143, 
      "latmin": 51.09660612660025
    }, 
    {
      "latmax": 51.069871249772206, 
      "name": "Magretstraat", 
      "lonmin": 3.869800596558938, 
      "sanName": "magretstraat", 
      "numOfAddr": 71, 
      "lonmax": 3.87855482645819, 
      "latmin": 51.06356305365849
    }, 
    {
      "latmax": 51.09132641527026, 
      "name": "Markussenhof", 
      "lonmin": 3.823157261334601, 
      "sanName": "markussenhof", 
      "numOfAddr": 3, 
      "lonmax": 3.824039775542556, 
      "latmin": 51.09076203754978
    }, 
    {
      "latmax": 51.09320507276342, 
      "name": "Meerhout", 
      "lonmin": 3.8293856311795014, 
      "sanName": "meerhout", 
      "numOfAddr": 6, 
      "lonmax": 3.8301450484400332, 
      "latmin": 51.092200546764936
    }, 
    {
      "latmax": 51.1004406577174, 
      "name": "Merelput", 
      "lonmin": 3.836075726196324, 
      "sanName": "merelput", 
      "numOfAddr": 12, 
      "lonmax": 3.838443075079656, 
      "latmin": 51.09978284097722
    }, 
    {
      "latmax": 51.079572272171646, 
      "name": "Molenberglaan", 
      "lonmin": 3.8853785294756324, 
      "sanName": "molenberglaan", 
      "numOfAddr": 48, 
      "lonmax": 3.8940820537838814, 
      "latmin": 51.077612027182546
    }, 
    {
      "latmax": 51.13152790467832, 
      "name": "Moleneinde", 
      "lonmin": 3.8550349688641994, 
      "sanName": "moleneinde", 
      "numOfAddr": 52, 
      "lonmax": 3.8582162062275622, 
      "latmin": 51.13011403678992
    }, 
    {
      "latmax": 51.12990093701229, 
      "name": "Molenstraat", 
      "lonmin": 3.8538526614412554, 
      "sanName": "molenstraat", 
      "numOfAddr": 43, 
      "lonmax": 3.8573223578968214, 
      "latmin": 51.119695989106276
    }, 
    {
      "latmax": 51.05853690845508, 
      "name": "Moststraat", 
      "lonmin": 3.849446198265416, 
      "sanName": "moststraat", 
      "numOfAddr": 2, 
      "lonmax": 3.8518797714561392, 
      "latmin": 51.05831720360949
    }, 
    {
      "latmax": 51.134347878225086, 
      "name": "Nerenhoek", 
      "lonmin": 3.8318295491659176, 
      "sanName": "nerenhoek", 
      "numOfAddr": 63, 
      "lonmax": 3.845350222596799, 
      "latmin": 51.12835560040736
    }, 
    {
      "latmax": 51.090673418417246, 
      "name": "Nieuwstraat", 
      "lonmin": 3.8169772626486407, 
      "sanName": "nieuwstraat", 
      "numOfAddr": 63, 
      "lonmax": 3.8263691961900435, 
      "latmin": 51.08803198545744
    }, 
    {
      "latmax": 51.08798555339286, 
      "name": "Ommegangstraat", 
      "lonmin": 3.8446437460924328, 
      "sanName": "ommegangstraat", 
      "numOfAddr": 103, 
      "lonmax": 3.8587219643950954, 
      "latmin": 51.08436646802814
    }, 
    {
      "latmax": 51.09754591809061, 
      "name": "Ooievaarsweg", 
      "lonmin": 3.8492376162263304, 
      "sanName": "ooievaarsweg", 
      "numOfAddr": 19, 
      "lonmax": 3.851033768374158, 
      "latmin": 51.09594820870099
    }, 
    {
      "latmax": 51.13539974847297, 
      "name": "Oosteinde", 
      "lonmin": 3.8645946180171493, 
      "sanName": "oosteinde", 
      "numOfAddr": 51, 
      "lonmax": 3.869122629884874, 
      "latmin": 51.13298782099675
    }, 
    {
      "latmax": 51.08961843414201, 
      "name": "Orchidee\u0089nhof", 
      "lonmin": 3.8017439873716476, 
      "sanName": "orchideenhof", 
      "numOfAddr": 27, 
      "lonmax": 3.804031528787889, 
      "latmin": 51.08825010303661
    }, 
    {
      "latmax": 51.087283046588865, 
      "name": "Oudburgweg", 
      "lonmin": 3.8564353976538848, 
      "sanName": "oudburgweg", 
      "numOfAddr": 10, 
      "lonmax": 3.857143801918541, 
      "latmin": 51.08678819666625
    }, 
    {
      "latmax": 51.101631638400214, 
      "name": "Oude-Boomgaardlaan", 
      "lonmin": 3.8265560661523716, 
      "sanName": "oudeboomgaardlaan", 
      "numOfAddr": 29, 
      "lonmax": 3.8287215821030873, 
      "latmin": 51.10029338749819
    }, 
    {
      "latmax": 51.069591784435765, 
      "name": "Oude Rivierstraat", 
      "lonmin": 3.8806615692834443, 
      "sanName": "ouderivierstraat", 
      "numOfAddr": 10, 
      "lonmax": 3.8825954779693665, 
      "latmin": 51.06668324138781
    }, 
    {
      "latmax": 51.10804319375436, 
      "name": "Oude Slagmanstraat", 
      "lonmin": 3.869500886534779, 
      "sanName": "oudeslagmanstraat", 
      "numOfAddr": 20, 
      "lonmax": 3.871341549952582, 
      "latmin": 51.10653987498983
    }, 
    {
      "latmax": 51.12850257219578, 
      "name": "Oude Veldstraat", 
      "lonmin": 3.835210890241515, 
      "sanName": "oudeveldstraat", 
      "numOfAddr": 193, 
      "lonmax": 3.897390139423774, 
      "latmin": 51.1151332074051
    }, 
    {
      "latmax": 51.10203041655596, 
      "name": "Oud-Hoflaan", 
      "lonmin": 3.8248935499503958, 
      "sanName": "oudhoflaan", 
      "numOfAddr": 32, 
      "lonmax": 3.8280466068248375, 
      "latmin": 51.1006155426852
    }, 
    {
      "latmax": 51.10549110595397, 
      "name": "Oudstrijderslaan", 
      "lonmin": 3.831062251295059, 
      "sanName": "oudstrijderslaan", 
      "numOfAddr": 19, 
      "lonmax": 3.833351665604475, 
      "latmin": 51.10373140984302
    }, 
    {
      "latmax": 51.133374300816214, 
      "name": "Pachtgoed", 
      "lonmin": 3.856713836684609, 
      "sanName": "pachtgoed", 
      "numOfAddr": 23, 
      "lonmax": 3.8585161319734924, 
      "latmin": 51.131787311070006
    }, 
    {
      "latmax": 51.09196838687412, 
      "name": "Palingstraat", 
      "lonmin": 3.810269490513506, 
      "sanName": "palingstraat", 
      "numOfAddr": 21, 
      "lonmax": 3.8121003698634537, 
      "latmin": 51.09032384525047
    }, 
    {
      "latmax": 51.09868096949326, 
      "name": "Parelhoenstraat", 
      "lonmin": 3.8471490971005267, 
      "sanName": "parelhoenstraat", 
      "numOfAddr": 47, 
      "lonmax": 3.8498326569377017, 
      "latmin": 51.095619013331444
    }, 
    {
      "latmax": 51.07972800420142, 
      "name": "Parochiedreef", 
      "lonmin": 3.872304096977455, 
      "sanName": "parochiedreef", 
      "numOfAddr": 30, 
      "lonmax": 3.873283265416262, 
      "latmin": 51.07732533900365
    }, 
    {
      "latmax": 51.0974379507907, 
      "name": "Patrijsweg", 
      "lonmin": 3.8456548684818297, 
      "sanName": "patrijsweg", 
      "numOfAddr": 13, 
      "lonmax": 3.847237367639596, 
      "latmin": 51.09623258844958
    }, 
    {
      "latmax": 51.09935156741045, 
      "name": "Pauwstraat", 
      "lonmin": 3.8471052414583906, 
      "sanName": "pauwstraat", 
      "numOfAddr": 138, 
      "lonmax": 3.8747069245878007, 
      "latmin": 51.092386817221275
    }, 
    {
      "latmax": 51.09733395896696, 
      "name": "Pelikaanweg", 
      "lonmin": 3.8506009260431133, 
      "sanName": "pelikaanweg", 
      "numOfAddr": 19, 
      "lonmax": 3.8526373724288727, 
      "latmin": 51.09629041769864
    }, 
    {
      "latmax": 51.08175684207115, 
      "name": "Pensionaatstraat", 
      "lonmin": 3.856488345255013, 
      "sanName": "pensionaatstraat", 
      "numOfAddr": 4, 
      "lonmax": 3.857349316919777, 
      "latmin": 51.08055526605175
    }, 
    {
      "latmax": 51.12961381039059, 
      "name": "Persijzerstraat", 
      "lonmin": 3.882505518707062, 
      "sanName": "persijzerstraat", 
      "numOfAddr": 102, 
      "lonmax": 3.8968683636533474, 
      "latmin": 51.1256568313531
    }, 
    {
      "latmax": 51.0842684763417, 
      "name": "Platanendreef", 
      "lonmin": 3.828610127190234, 
      "sanName": "platanendreef", 
      "numOfAddr": 11, 
      "lonmax": 3.8296781727832245, 
      "latmin": 51.083056174864396
    }, 
    {
      "latmax": 51.092507174829166, 
      "name": "Poelinkstraat", 
      "lonmin": 3.859945595530439, 
      "sanName": "poelinkstraat", 
      "numOfAddr": 3, 
      "lonmax": 3.8612410577792833, 
      "latmin": 51.08952461690046
    }, 
    {
      "latmax": 51.09037107671303, 
      "name": "Populierenhof", 
      "lonmin": 3.817889591707401, 
      "sanName": "populierenhof", 
      "numOfAddr": 25, 
      "lonmax": 3.8200188780799613, 
      "latmin": 51.08907879863808
    }, 
    {
      "latmax": 51.0893810670227, 
      "name": "Posthoornlaan", 
      "lonmin": 3.8579373732606883, 
      "sanName": "posthoornlaan", 
      "numOfAddr": 15, 
      "lonmax": 3.859353777543722, 
      "latmin": 51.08816480710363
    }, 
    {
      "latmax": 51.13278359998223, 
      "name": "Ranonkelweg", 
      "lonmin": 3.868607107766761, 
      "sanName": "ranonkelweg", 
      "numOfAddr": 14, 
      "lonmax": 3.869267577243743, 
      "latmin": 51.13126054734
    }, 
    {
      "latmax": 51.096760370957355, 
      "name": "Rapaartakkerlaan", 
      "lonmin": 3.8574617570202734, 
      "sanName": "rapaartakkerlaan", 
      "numOfAddr": 22, 
      "lonmax": 3.861485240274278, 
      "latmin": 51.095669541538044
    }, 
    {
      "latmax": 51.07051763901183, 
      "name": "Raveschoot", 
      "lonmin": 3.8824079083480707, 
      "sanName": "raveschoot", 
      "numOfAddr": 6, 
      "lonmax": 3.892795924183451, 
      "latmin": 51.06977658398961
    }, 
    {
      "latmax": 51.13120558284744, 
      "name": "Rechtstraat", 
      "lonmin": 3.8305608093551, 
      "sanName": "rechtstraat", 
      "numOfAddr": 183, 
      "lonmax": 3.854807725498015, 
      "latmin": 51.12127318008857
    }, 
    {
      "latmax": 51.06144477655363, 
      "name": "Reigersstraat", 
      "lonmin": 3.839722997714109, 
      "sanName": "reigersstraat", 
      "numOfAddr": 14, 
      "lonmax": 3.8430662502884374, 
      "latmin": 51.058248394329325
    }, 
    {
      "latmax": 51.088431092135565, 
      "name": "Reinaertlaan", 
      "lonmin": 3.854136588068652, 
      "sanName": "reinaertlaan", 
      "numOfAddr": 32, 
      "lonmax": 3.855599466795302, 
      "latmin": 51.08711446096982
    }, 
    {
      "latmax": 51.066032812214836, 
      "name": "Reinaertstraat", 
      "lonmin": 3.8649893174712533, 
      "sanName": "reinaertstraat", 
      "numOfAddr": 12, 
      "lonmax": 3.8658261613981995, 
      "latmin": 51.06487108101177
    }, 
    {
      "latmax": 51.06814373481871, 
      "name": "Rietveldstraat", 
      "lonmin": 3.8621351334151726, 
      "sanName": "rietveldstraat", 
      "numOfAddr": 53, 
      "lonmax": 3.8686048390527135, 
      "latmin": 51.061815493339644
    }, 
    {
      "latmax": 51.11571575240781, 
      "name": "Ringstraat", 
      "lonmin": 3.8172451430395165, 
      "sanName": "ringstraat", 
      "numOfAddr": 2, 
      "lonmax": 3.8174022533327645, 
      "latmin": 51.11386007919561
    }, 
    {
      "latmax": 51.07980513110929, 
      "name": "Rivierstraat", 
      "lonmin": 3.8800764447128406, 
      "sanName": "rivierstraat", 
      "numOfAddr": 73, 
      "lonmax": 3.8826316528169746, 
      "latmin": 51.068499265189814
    }, 
    {
      "latmax": 51.088037455201395, 
      "name": "Roosbroeklaan", 
      "lonmin": 3.853170923521188, 
      "sanName": "roosbroeklaan", 
      "numOfAddr": 11, 
      "lonmax": 3.854689280828947, 
      "latmin": 51.08698931585755
    }, 
    {
      "latmax": 51.111034721730235, 
      "name": "Rostijnenstraat", 
      "lonmin": 3.790890992309224, 
      "sanName": "rostijnenstraat", 
      "numOfAddr": 46, 
      "lonmax": 3.8075197833892953, 
      "latmin": 51.103972113135086
    }, 
    {
      "latmax": 51.09526337592249, 
      "name": "Rozenlaan", 
      "lonmin": 3.8225232552293336, 
      "sanName": "rozenlaan", 
      "numOfAddr": 14, 
      "lonmax": 3.823569625103431, 
      "latmin": 51.093923383991864
    }, 
    {
      "latmax": 51.12173508846436, 
      "name": "Ruilare", 
      "lonmin": 3.869051739562423, 
      "sanName": "ruilare", 
      "numOfAddr": 147, 
      "lonmax": 3.9010728626293685, 
      "latmin": 51.11014428586207
    }, 
    {
      "latmax": 51.095447466896225, 
      "name": "Scholeksterhof", 
      "lonmin": 3.8422251472258546, 
      "sanName": "scholeksterhof", 
      "numOfAddr": 23, 
      "lonmax": 3.843986951849112, 
      "latmin": 51.09433011242318
    }, 
    {
      "latmax": 51.099786202569746, 
      "name": "Schoolstraat", 
      "lonmin": 3.8257481928695767, 
      "sanName": "schoolstraat", 
      "numOfAddr": 50, 
      "lonmax": 3.8290821441377365, 
      "latmin": 51.09558353613519
    }, 
    {
      "latmax": 51.08721626960072, 
      "name": "Sint-Baafsdreef", 
      "lonmin": 3.8244689392418847, 
      "sanName": "sintbaafsdreef", 
      "numOfAddr": 16, 
      "lonmax": 3.829935966499214, 
      "latmin": 51.0862908795286
    }, 
    {
      "latmax": 51.10717826763753, 
      "name": "Sint-Elooistraat", 
      "lonmin": 3.896370125441773, 
      "sanName": "sintelooistraat", 
      "numOfAddr": 103, 
      "lonmax": 3.8997089773625033, 
      "latmin": 51.09806494994028
    }, 
    {
      "latmax": 51.09540855880035, 
      "name": "Sint-Niklaaslaan", 
      "lonmin": 3.8304561702549766, 
      "sanName": "sintniklaaslaan", 
      "numOfAddr": 26, 
      "lonmax": 3.8329611748727466, 
      "latmin": 51.09381535651818
    }, 
    {
      "latmax": 51.10016216059428, 
      "name": "Sint-Sebastiaanhof", 
      "lonmin": 3.8277619087249115, 
      "sanName": "sintsebastiaanhof", 
      "numOfAddr": 19, 
      "lonmax": 3.8292464096471757, 
      "latmin": 51.098804163342884
    }, 
    {
      "latmax": 51.120555227555954, 
      "name": "Slagmanstraat", 
      "lonmin": 3.8628142485916195, 
      "sanName": "slagmanstraat", 
      "numOfAddr": 63, 
      "lonmax": 3.869522697962695, 
      "latmin": 51.1063596514697
    }, 
    {
      "latmax": 51.09586817414739, 
      "name": "Smalle Heerweg", 
      "lonmin": 3.7962985473060806, 
      "sanName": "smalleheerweg", 
      "numOfAddr": 168, 
      "lonmax": 3.82098946643301, 
      "latmin": 51.08870808386252
    }, 
    {
      "latmax": 51.10385749369963, 
      "name": "Smetsakkers", 
      "lonmin": 3.829205695756185, 
      "sanName": "smetsakkers", 
      "numOfAddr": 17, 
      "lonmax": 3.830761087342205, 
      "latmin": 51.102653929602184
    }, 
    {
      "latmax": 51.09916032828522, 
      "name": "Soldatenhoek", 
      "lonmin": 3.8898208515743304, 
      "sanName": "soldatenhoek", 
      "numOfAddr": 19, 
      "lonmax": 3.8920573539290206, 
      "latmin": 51.097832687944404
    }, 
    {
      "latmax": 51.08601938667519, 
      "name": "Sparrenlaan", 
      "lonmin": 3.8015692447578613, 
      "sanName": "sparrenlaan", 
      "numOfAddr": 39, 
      "lonmax": 3.805655497167551, 
      "latmin": 51.082119586204854
    }, 
    {
      "latmax": 51.09403292630699, 
      "name": "Stationsstraat", 
      "lonmin": 3.8254954833138277, 
      "sanName": "stationsstraat", 
      "numOfAddr": 119, 
      "lonmax": 3.8367171130044353, 
      "latmin": 51.081742192302535
    }, 
    {
      "latmax": 51.0959238982074, 
      "name": "Steenakkerlaan", 
      "lonmin": 3.8546275467363, 
      "sanName": "steenakkerlaan", 
      "numOfAddr": 33, 
      "lonmax": 3.856589384301937, 
      "latmin": 51.09358679375524
    }, 
    {
      "latmax": 51.08519363766281, 
      "name": "Terpoelen", 
      "lonmin": 3.862305526297192, 
      "sanName": "terpoelen", 
      "numOfAddr": 2, 
      "lonmax": 3.8647101528813055, 
      "latmin": 51.08323353101382
    }, 
    {
      "latmax": 51.08480424214045, 
      "name": "Theophiel Van der Cruyssenhof", 
      "lonmin": 3.8310777210569307, 
      "sanName": "theophielvandercruyssenhof", 
      "numOfAddr": 7, 
      "lonmax": 3.831950566994892, 
      "latmin": 51.08440291601405
    }, 
    {
      "latmax": 51.13873692002175, 
      "name": "'t Jongestraat", 
      "lonmin": 3.838141080693171, 
      "sanName": "tjongestraat", 
      "numOfAddr": 13, 
      "lonmax": 3.848244906634964, 
      "latmin": 51.13525939900028
    }, 
    {
      "latmax": 51.08454691586051, 
      "name": "Toleindestraat", 
      "lonmin": 3.880866790976906, 
      "sanName": "toleindestraat", 
      "numOfAddr": 186, 
      "lonmax": 3.905805997588953, 
      "latmin": 51.0786830639314
    }, 
    {
      "latmax": 51.08465498054745, 
      "name": "Tollekenswegel", 
      "lonmin": 3.8928674047491794, 
      "sanName": "tollekenswegel", 
      "numOfAddr": 25, 
      "lonmax": 3.895306244611181, 
      "latmin": 51.08082958077908
    }, 
    {
      "latmax": 51.09566770354364, 
      "name": "Tomboslaan", 
      "lonmin": 3.858234530207998, 
      "sanName": "tomboslaan", 
      "numOfAddr": 26, 
      "lonmax": 3.861138326562525, 
      "latmin": 51.0940270963448
    }, 
    {
      "latmax": 51.08241974269327, 
      "name": "Toverstraat", 
      "lonmin": 3.8757441664344467, 
      "sanName": "toverstraat", 
      "numOfAddr": 4, 
      "lonmax": 3.876288475137606, 
      "latmin": 51.08052802119625
    }, 
    {
      "latmax": 51.110667719793874, 
      "name": "Tuinwijk", 
      "lonmin": 3.8970887420171576, 
      "sanName": "tuinwijk", 
      "numOfAddr": 78, 
      "lonmax": 3.901011489956311, 
      "latmin": 51.109557952667274
    }, 
    {
      "latmax": 51.09698538583593, 
      "name": "Tulpenlaan", 
      "lonmin": 3.8218988407901318, 
      "sanName": "tulpenlaan", 
      "numOfAddr": 30, 
      "lonmax": 3.824796215472412, 
      "latmin": 51.095659722532346
    }, 
    {
      "latmax": 51.10303291019998, 
      "name": "Vaarlaars", 
      "lonmin": 3.8350403763471665, 
      "sanName": "vaarlaars", 
      "numOfAddr": 94, 
      "lonmax": 3.841843480480589, 
      "latmin": 51.10057643254812
    }, 
    {
      "latmax": 51.07761725632757, 
      "name": "Veldekensstraat", 
      "lonmin": 3.8150939649835496, 
      "sanName": "veldekensstraat", 
      "numOfAddr": 2, 
      "lonmax": 3.817586354788376, 
      "latmin": 51.07647242220664
    }, 
    {
      "latmax": 51.09667312176644, 
      "name": "Veldleeuwerikhof", 
      "lonmin": 3.8409187739654485, 
      "sanName": "veldleeuwerikhof", 
      "numOfAddr": 9, 
      "lonmax": 3.8417098777009286, 
      "latmin": 51.09580265224008
    }, 
    {
      "latmax": 51.10930509798013, 
      "name": "Veldstraat", 
      "lonmin": 3.7946447103179426, 
      "sanName": "veldstraat", 
      "numOfAddr": 60, 
      "lonmax": 3.8087097980636186, 
      "latmin": 51.10101593428055
    }, 
    {
      "latmax": 51.115364350026525, 
      "name": "Verleydonckstraat", 
      "lonmin": 3.8139944082603416, 
      "sanName": "verleydonckstraat", 
      "numOfAddr": 36, 
      "lonmax": 3.834734546106256, 
      "latmin": 51.11208950826817
    }, 
    {
      "latmax": 51.06534052392378, 
      "name": "Vijfweegse", 
      "lonmin": 3.881326233148009, 
      "sanName": "vijfweegse", 
      "numOfAddr": 8, 
      "lonmax": 3.882479791298123, 
      "latmin": 51.06425722016876
    }, 
    {
      "latmax": 51.098836650890846, 
      "name": "Vitsakkerlaan", 
      "lonmin": 3.8518273634653677, 
      "sanName": "vitsakkerlaan", 
      "numOfAddr": 13, 
      "lonmax": 3.853422678173701, 
      "latmin": 51.09803860640309
    }, 
    {
      "latmax": 51.09720482040005, 
      "name": "Voldersstraat", 
      "lonmin": 3.892101093889949, 
      "sanName": "voldersstraat", 
      "numOfAddr": 13, 
      "lonmax": 3.897891046321762, 
      "latmin": 51.08123874599704
    }, 
    {
      "latmax": 51.08645141602702, 
      "name": "Voordestraat", 
      "lonmin": 3.803622574280305, 
      "sanName": "voordestraat", 
      "numOfAddr": 51, 
      "lonmax": 3.817214725512737, 
      "latmin": 51.08139773609163
    }, 
    {
      "latmax": 51.06038012981132, 
      "name": "Vossenstraat", 
      "lonmin": 3.8536927457090844, 
      "sanName": "vossenstraat", 
      "numOfAddr": 20, 
      "lonmax": 3.865448055332432, 
      "latmin": 51.054411004578995
    }, 
    {
      "latmax": 51.08867211597055, 
      "name": "Waalsland", 
      "lonmin": 3.799483112183764, 
      "sanName": "waalsland", 
      "numOfAddr": 22, 
      "lonmax": 3.8012897755211337, 
      "latmin": 51.087145094000945
    }, 
    {
      "latmax": 51.13117062344021, 
      "name": "Watermuntweg", 
      "lonmin": 3.867253291962407, 
      "sanName": "watermuntweg", 
      "numOfAddr": 11, 
      "lonmax": 3.869072608910426, 
      "latmin": 51.13025387935349
    }, 
    {
      "latmax": 51.095188480926616, 
      "name": "Watersniphof", 
      "lonmin": 3.8414146105318077, 
      "sanName": "watersniphof", 
      "numOfAddr": 16, 
      "lonmax": 3.8427444764316565, 
      "latmin": 51.094158296844796
    }, 
    {
      "latmax": 51.104448260603924, 
      "name": "Weerstandshof", 
      "lonmin": 3.827454014705741, 
      "sanName": "weerstandshof", 
      "numOfAddr": 21, 
      "lonmax": 3.8298740294285984, 
      "latmin": 51.10320524416035
    }, 
    {
      "latmax": 51.141444774209106, 
      "name": "Windgat", 
      "lonmin": 3.822597586745843, 
      "sanName": "windgat", 
      "numOfAddr": 29, 
      "lonmax": 3.831939836705063, 
      "latmin": 51.134307780369944
    }, 
    {
      "latmax": 51.133706359421836, 
      "name": "Zaffelare-Dorp", 
      "lonmin": 3.8582216145939445, 
      "sanName": "zaffelaredorp", 
      "numOfAddr": 78, 
      "lonmax": 3.8653259731189347, 
      "latmin": 51.13125884034089
    }, 
    {
      "latmax": 51.10825765943746, 
      "name": "Zavel", 
      "lonmin": 3.8833287338202913, 
      "sanName": "zavel", 
      "numOfAddr": 46, 
      "lonmax": 3.8918779942539055, 
      "latmin": 51.10737964623555
    }, 
    {
      "latmax": 51.10092231407492, 
      "name": "Zeeakker", 
      "lonmin": 3.8355063841080113, 
      "sanName": "zeeakker", 
      "numOfAddr": 12, 
      "lonmax": 3.8367839095215754, 
      "latmin": 51.10015764515623
    }, 
    {
      "latmax": 51.1081214916818, 
      "name": "Zeveneken-Dorp", 
      "lonmin": 3.8813717633628135, 
      "sanName": "zevenekendorp", 
      "numOfAddr": 123, 
      "lonmax": 3.9013171803560898, 
      "latmin": 51.106695405757
    }, 
    {
      "latmax": 51.06348962667179, 
      "name": "Zevestraat", 
      "lonmin": 3.866650879824569, 
      "sanName": "zevestraat", 
      "numOfAddr": 10, 
      "lonmax": 3.8774632892404117, 
      "latmin": 51.059821229056524
    }, 
    {
      "latmax": 51.074036316434714, 
      "name": "Zijstraat", 
      "lonmin": 3.865720150238288, 
      "sanName": "zijstraat", 
      "numOfAddr": 4, 
      "lonmax": 3.8673808732672277, 
      "latmin": 51.07289053343125
    }
  ]
}