{
  "streets": [
    {
      "latmax": 51.293730390947815, 
      "name": "Acacialaan", 
      "lonmin": 4.175598824448811, 
      "sanName": "acacialaan", 
      "numOfAddr": 35, 
      "lonmax": 4.178304814904414, 
      "latmin": 51.28928883712217
    }, 
    {
      "latmax": 51.25227224779868, 
      "name": "Aven Ackers", 
      "lonmin": 4.1900334697015325, 
      "sanName": "avenackers", 
      "numOfAddr": 19, 
      "lonmax": 4.197138617202409, 
      "latmin": 51.247986934382496
    }, 
    {
      "latmax": 51.32564955323646, 
      "name": "Belgische Dreef", 
      "lonmin": 4.207264291490526, 
      "sanName": "belgischedreef", 
      "numOfAddr": 9, 
      "lonmax": 4.211467236261592, 
      "latmin": 51.32373693563241
    }, 
    {
      "latmax": 51.25675556297954, 
      "name": "Berkenboomstraat", 
      "lonmin": 4.183563028428458, 
      "sanName": "berkenboomstraat", 
      "numOfAddr": 29, 
      "lonmax": 4.184328116312882, 
      "latmin": 51.254965344543194
    }, 
    {
      "latmax": 51.29115590212803, 
      "name": "Beukenlaan", 
      "lonmin": 4.175360025533335, 
      "sanName": "beukenlaan", 
      "numOfAddr": 36, 
      "lonmax": 4.180142476129716, 
      "latmin": 51.28998668375141
    }, 
    {
      "latmax": 51.255493011864246, 
      "name": "Binnendijk", 
      "lonmin": 4.178085907788357, 
      "sanName": "binnendijk", 
      "numOfAddr": 52, 
      "lonmax": 4.191692332294058, 
      "latmin": 51.25149411832453
    }, 
    {
      "latmax": 51.28839434623259, 
      "name": "Blikken", 
      "lonmin": 4.20689431631566, 
      "sanName": "blikken", 
      "numOfAddr": 3, 
      "lonmax": 4.230256481267679, 
      "latmin": 51.26759006397018
    }, 
    {
      "latmax": 51.26386238485767, 
      "name": "Bloempotstraat", 
      "lonmin": 4.159758052684712, 
      "sanName": "bloempotstraat", 
      "numOfAddr": 11, 
      "lonmax": 4.169035294760641, 
      "latmin": 51.25812572898106
    }, 
    {
      "latmax": 51.256449813135966, 
      "name": "Borringstraat", 
      "lonmin": 4.164737550350261, 
      "sanName": "borringstraat", 
      "numOfAddr": 10, 
      "lonmax": 4.17068879210563, 
      "latmin": 51.25423778413273
    }, 
    {
      "latmax": 51.258161485037434, 
      "name": "Braakstraat", 
      "lonmin": 4.1760671817396, 
      "sanName": "braakstraat", 
      "numOfAddr": 22, 
      "lonmax": 4.177246608473998, 
      "latmin": 51.25539038124533
    }, 
    {
      "latmax": 51.27197125009498, 
      "name": "Bralstraat", 
      "lonmin": 4.186114614455644, 
      "sanName": "bralstraat", 
      "numOfAddr": 6, 
      "lonmax": 4.190113782532987, 
      "latmin": 51.27001166805619
    }, 
    {
      "latmax": 51.26959481738574, 
      "name": "Bralstraat-West", 
      "lonmin": 4.183914831731801, 
      "sanName": "bralstraatwest", 
      "numOfAddr": 6, 
      "lonmax": 4.185084078490897, 
      "latmin": 51.268692028405056
    }, 
    {
      "latmax": 51.31013857427883, 
      "name": "Camermanstraat", 
      "lonmin": 4.263897221905891, 
      "sanName": "camermanstraat", 
      "numOfAddr": 32, 
      "lonmax": 4.266516809645016, 
      "latmin": 51.309657376832874
    }, 
    {
      "latmax": 51.33144442788645, 
      "name": "Carolusstraat", 
      "lonmin": 4.224039514045267, 
      "sanName": "carolusstraat", 
      "numOfAddr": 4, 
      "lonmax": 4.227004020761752, 
      "latmin": 51.3281116463686
    }, 
    {
      "latmax": 51.29142164503133, 
      "name": "Cederlaan", 
      "lonmin": 4.178381498025283, 
      "sanName": "cederlaan", 
      "numOfAddr": 12, 
      "lonmax": 4.179816461682569, 
      "latmin": 51.2910680460774
    }, 
    {
      "latmax": 51.29379742611025, 
      "name": "Dorpsstraat", 
      "lonmin": 4.172175853109467, 
      "sanName": "dorpsstraat", 
      "numOfAddr": 133, 
      "lonmax": 4.176332750634837, 
      "latmin": 51.28939423701649
    }, 
    {
      "latmax": 51.30286864440436, 
      "name": "Dreefstraat", 
      "lonmin": 4.216863195880828, 
      "sanName": "dreefstraat", 
      "numOfAddr": 7, 
      "lonmax": 4.232953118420163, 
      "latmin": 51.301938973188925
    }, 
    {
      "latmax": 51.25622952418741, 
      "name": "Drieshoekstraat", 
      "lonmin": 4.184561651231137, 
      "sanName": "drieshoekstraat", 
      "numOfAddr": 22, 
      "lonmax": 4.185715239451516, 
      "latmin": 51.25510270878834
    }, 
    {
      "latmax": 51.2747844863782, 
      "name": "Drijdijk", 
      "lonmin": 4.194366001815707, 
      "sanName": "drijdijk", 
      "numOfAddr": 3, 
      "lonmax": 4.195964424521744, 
      "latmin": 51.27433095240374
    }, 
    {
      "latmax": 51.25772121544096, 
      "name": "Edward Jaecquemijnslaan", 
      "lonmin": 4.185241268808387, 
      "sanName": "edwardjaecquemijnslaan", 
      "numOfAddr": 36, 
      "lonmax": 4.187948663253312, 
      "latmin": 51.25600996426689
    }, 
    {
      "latmax": 51.31344748136532, 
      "name": "Engelsesteenweg", 
      "lonmin": 4.234930447534453, 
      "sanName": "engelsesteenweg", 
      "numOfAddr": 86, 
      "lonmax": 4.265658101661612, 
      "latmin": 51.30476494861822
    }, 
    {
      "latmax": 51.291248564359805, 
      "name": "Esdoornlaan", 
      "lonmin": 4.183060271842939, 
      "sanName": "esdoornlaan", 
      "numOfAddr": 10, 
      "lonmax": 4.183157808574699, 
      "latmin": 51.2889236584613
    }, 
    {
      "latmax": 51.29225586402356, 
      "name": "Essenlaan", 
      "lonmin": 4.177854318030572, 
      "sanName": "essenlaan", 
      "numOfAddr": 15, 
      "lonmax": 4.1798638060299655, 
      "latmin": 51.291833882725854
    }, 
    {
      "latmax": 51.29025818790096, 
      "name": "Fort Verboomstraat", 
      "lonmin": 4.166365440721568, 
      "sanName": "fortverboomstraat", 
      "numOfAddr": 28, 
      "lonmax": 4.168566916839853, 
      "latmin": 51.2886395547216
    }, 
    {
      "latmax": 51.287919892670416, 
      "name": "Ganzendries", 
      "lonmin": 4.179184971060104, 
      "sanName": "ganzendries", 
      "numOfAddr": 8, 
      "lonmax": 4.179926197185378, 
      "latmin": 51.28757114002633
    }, 
    {
      "latmax": 51.27960761442504, 
      "name": "Gemenestraat", 
      "lonmin": 4.175653518228196, 
      "sanName": "gemenestraat", 
      "numOfAddr": 23, 
      "lonmax": 4.190702889943347, 
      "latmin": 51.27218570577648
    }, 
    {
      "latmax": 51.292082707357295, 
      "name": "Geslecht", 
      "lonmin": 4.271916649060043, 
      "sanName": "geslecht", 
      "numOfAddr": 1, 
      "lonmax": 4.271916649060043, 
      "latmin": 51.292082707357295
    }, 
    {
      "latmax": 51.29393240471317, 
      "name": "Grensstraat", 
      "lonmin": 4.1666633160368125, 
      "sanName": "grensstraat", 
      "numOfAddr": 28, 
      "lonmax": 4.168927559241537, 
      "latmin": 51.29321745530759
    }, 
    {
      "latmax": 51.24916565571426, 
      "name": "Groenstraat", 
      "lonmin": 4.188201087230295, 
      "sanName": "groenstraat", 
      "numOfAddr": 1, 
      "lonmax": 4.188201087230295, 
      "latmin": 51.24916565571426
    }, 
    {
      "latmax": 51.31179983167448, 
      "name": "Havenweg", 
      "lonmin": 4.263344609243114, 
      "sanName": "havenweg", 
      "numOfAddr": 34, 
      "lonmax": 4.265835771756739, 
      "latmin": 51.31115421205994
    }, 
    {
      "latmax": 51.294167056431725, 
      "name": "Hazelarenhof", 
      "lonmin": 4.177832903601977, 
      "sanName": "hazelarenhof", 
      "numOfAddr": 14, 
      "lonmax": 4.180034638615682, 
      "latmin": 51.293870822585035
    }, 
    {
      "latmax": 51.33636384585103, 
      "name": "Hertog Prosperstraat", 
      "lonmin": 4.206801366640833, 
      "sanName": "hertogprosperstraat", 
      "numOfAddr": 22, 
      "lonmax": 4.230413531940822, 
      "latmin": 51.325230656109284
    }, 
    {
      "latmax": 51.2569472200144, 
      "name": "Hoeve van Carena", 
      "lonmin": 4.1823467479972205, 
      "sanName": "hoevevancarena", 
      "numOfAddr": 20, 
      "lonmax": 4.18336549293784, 
      "latmin": 51.25565891306411
    }, 
    {
      "latmax": 51.298884421188916, 
      "name": "Hogendijk", 
      "lonmin": 4.237819311843055, 
      "sanName": "hogendijk", 
      "numOfAddr": 5, 
      "lonmax": 4.239044640773784, 
      "latmin": 51.29517906069979
    }, 
    {
      "latmax": 51.26131307691491, 
      "name": "Hoge Wilde", 
      "lonmin": 4.1719004511127435, 
      "sanName": "hogewilde", 
      "numOfAddr": 13, 
      "lonmax": 4.187562680270642, 
      "latmin": 51.2586880011646
    }, 
    {
      "latmax": 51.31151849936606, 
      "name": "Hooghuisstraat", 
      "lonmin": 4.262952485428996, 
      "sanName": "hooghuisstraat", 
      "numOfAddr": 19, 
      "lonmax": 4.264256648780766, 
      "latmin": 51.30886269724796
    }, 
    {
      "latmax": 51.26654237423674, 
      "name": "Hoogschoorweg", 
      "lonmin": 4.200853809633246, 
      "sanName": "hoogschoorweg", 
      "numOfAddr": 1, 
      "lonmax": 4.200853809633246, 
      "latmin": 51.26654237423674
    }, 
    {
      "latmax": 51.25927862082217, 
      "name": "Joost Welarestraat", 
      "lonmin": 4.192791062734228, 
      "sanName": "joostwelarestraat", 
      "numOfAddr": 14, 
      "lonmax": 4.193082931569399, 
      "latmin": 51.256705438883984
    }, 
    {
      "latmax": 51.29291366805641, 
      "name": "Kastanjelaan", 
      "lonmin": 4.179939667556791, 
      "sanName": "kastanjelaan", 
      "numOfAddr": 23, 
      "lonmax": 4.180661930429531, 
      "latmin": 51.28930436194626
    }, 
    {
      "latmax": 51.27979073735799, 
      "name": "Ketenislaan", 
      "lonmin": 4.2934306557812025, 
      "sanName": "ketenislaan", 
      "numOfAddr": 1, 
      "lonmax": 4.2934306557812025, 
      "latmin": 51.27979073735799
    }, 
    {
      "latmax": 51.27213700872008, 
      "name": "Kieldrechtsebaan", 
      "lonmin": 4.184589580098984, 
      "sanName": "kieldrechtsebaan", 
      "numOfAddr": 88, 
      "lonmax": 4.189279780903582, 
      "latmin": 51.25580002288359
    }, 
    {
      "latmax": 51.29409060366024, 
      "name": "Kouterstraat", 
      "lonmin": 4.163390157366489, 
      "sanName": "kouterstraat", 
      "numOfAddr": 210, 
      "lonmax": 4.188546272376564, 
      "latmin": 51.21780678599382
    }, 
    {
      "latmax": 51.28843135691992, 
      "name": "Kreek", 
      "lonmin": 4.176874268570849, 
      "sanName": "kreek", 
      "numOfAddr": 67, 
      "lonmax": 4.184322980195843, 
      "latmin": 51.27487904093371
    }, 
    {
      "latmax": 51.28817204342583, 
      "name": "Laagland", 
      "lonmin": 4.1793132760923974, 
      "sanName": "laagland", 
      "numOfAddr": 18, 
      "lonmax": 4.182767581196825, 
      "latmin": 51.28705483155337
    }, 
    {
      "latmax": 51.28293828909166, 
      "name": "Lange Nieuwstraat", 
      "lonmin": 4.170195651711869, 
      "sanName": "langenieuwstraat", 
      "numOfAddr": 49, 
      "lonmax": 4.184279723347672, 
      "latmin": 51.275734853226304
    }, 
    {
      "latmax": 51.31002845572666, 
      "name": "Liefkenshoekstraat", 
      "lonmin": 4.266512866844055, 
      "sanName": "liefkenshoekstraat", 
      "numOfAddr": 11, 
      "lonmax": 4.26781260527397, 
      "latmin": 51.306075500327
    }, 
    {
      "latmax": 51.29353072300603, 
      "name": "Lorkenlaan", 
      "lonmin": 4.17898470097861, 
      "sanName": "lorkenlaan", 
      "numOfAddr": 13, 
      "lonmax": 4.180140607847752, 
      "latmin": 51.2931547173729
    }, 
    {
      "latmax": 51.28938361395059, 
      "name": "Marktplein", 
      "lonmin": 4.175046006378302, 
      "sanName": "marktplein", 
      "numOfAddr": 37, 
      "lonmax": 4.176764845657205, 
      "latmin": 51.28818274706772
    }, 
    {
      "latmax": 51.29235357366775, 
      "name": "Merodestraat", 
      "lonmin": 4.1662300464969775, 
      "sanName": "merodestraat", 
      "numOfAddr": 117, 
      "lonmax": 4.1702494821332134, 
      "latmin": 51.288827307046034
    }, 
    {
      "latmax": 51.253072186123205, 
      "name": "Moeringstraat", 
      "lonmin": 4.16559203383182, 
      "sanName": "moeringstraat", 
      "numOfAddr": 5, 
      "lonmax": 4.173320494819099, 
      "latmin": 51.25013141268701
    }, 
    {
      "latmax": 51.29133334734863, 
      "name": "Molenstraat", 
      "lonmin": 4.16343978918087, 
      "sanName": "molenstraat", 
      "numOfAddr": 114, 
      "lonmax": 4.174288475890201, 
      "latmin": 51.283464375386465
    }, 
    {
      "latmax": 51.280676498077064, 
      "name": "Molenweg", 
      "lonmin": 4.279205348573583, 
      "sanName": "molenweg", 
      "numOfAddr": 1, 
      "lonmax": 4.279205348573583, 
      "latmin": 51.280676498077064
    }, 
    {
      "latmax": 51.31666218150408, 
      "name": "Muggenhoek", 
      "lonmin": 4.182534836033502, 
      "sanName": "muggenhoek", 
      "numOfAddr": 13, 
      "lonmax": 4.21387578187743, 
      "latmin": 51.30500408793502
    }, 
    {
      "latmax": 51.25247437245106, 
      "name": "Nicolaasstraat", 
      "lonmin": 4.2465177666356055, 
      "sanName": "nicolaasstraat", 
      "numOfAddr": 1, 
      "lonmax": 4.2465177666356055, 
      "latmin": 51.25247437245106
    }, 
    {
      "latmax": 51.30528992843188, 
      "name": "Nieuw-Arenbergstraat", 
      "lonmin": 4.172160548444569, 
      "sanName": "nieuwarenbergstraat", 
      "numOfAddr": 15, 
      "lonmax": 4.216429566288863, 
      "latmin": 51.29389964794445
    }, 
    {
      "latmax": 51.29017757705478, 
      "name": "Olmenlaan", 
      "lonmin": 4.1785435561934285, 
      "sanName": "olmenlaan", 
      "numOfAddr": 36, 
      "lonmax": 4.183087176148098, 
      "latmin": 51.28950529294855
    }, 
    {
      "latmax": 51.33479182545526, 
      "name": "Oostlangeweg", 
      "lonmin": 4.235887213278395, 
      "sanName": "oostlangeweg", 
      "numOfAddr": 25, 
      "lonmax": 4.255494696173173, 
      "latmin": 51.30269650776275
    }, 
    {
      "latmax": 51.2892009564912, 
      "name": "Oud Arenberg", 
      "lonmin": 4.1771048205747, 
      "sanName": "oudarenberg", 
      "numOfAddr": 121, 
      "lonmax": 4.22364872164783, 
      "latmin": 51.28809720954321
    }, 
    {
      "latmax": 51.29298900703127, 
      "name": "Oude Havenweg", 
      "lonmin": 4.171639876958616, 
      "sanName": "oudehavenweg", 
      "numOfAddr": 8, 
      "lonmax": 4.171684088291492, 
      "latmin": 51.292341289244305
    }, 
    {
      "latmax": 51.33584089376022, 
      "name": "Ouden Doel-Dijk", 
      "lonmin": 4.235246403047743, 
      "sanName": "oudendoeldijk", 
      "numOfAddr": 8, 
      "lonmax": 4.237225405550092, 
      "latmin": 51.334792238545816
    }, 
    {
      "latmax": 51.3338036975353, 
      "name": "Ouden Doel-Kleinstraatje", 
      "lonmin": 4.237147185097134, 
      "sanName": "oudendoelkleinstraatje", 
      "numOfAddr": 1, 
      "lonmax": 4.237147185097134, 
      "latmin": 51.3338036975353
    }, 
    {
      "latmax": 51.31350081830376, 
      "name": "Oude Sluisstraat", 
      "lonmin": 4.216617382040923, 
      "sanName": "oudesluisstraat", 
      "numOfAddr": 6, 
      "lonmax": 4.2174784780878785, 
      "latmin": 51.30819822168963
    }, 
    {
      "latmax": 51.25444218786098, 
      "name": "Paardenkerkhofstraat", 
      "lonmin": 4.189923083867567, 
      "sanName": "paardenkerkhofstraat", 
      "numOfAddr": 13, 
      "lonmax": 4.192607488396675, 
      "latmin": 51.25279249151815
    }, 
    {
      "latmax": 51.31051355139089, 
      "name": "Parkstraat", 
      "lonmin": 4.265614067074792, 
      "sanName": "parkstraat", 
      "numOfAddr": 3, 
      "lonmax": 4.265677519779123, 
      "latmin": 51.31028341983383
    }, 
    {
      "latmax": 51.256809833702306, 
      "name": "Pastoor Jasparsstraat", 
      "lonmin": 4.181734615767016, 
      "sanName": "pastoorjasparsstraat", 
      "numOfAddr": 26, 
      "lonmax": 4.183456525788324, 
      "latmin": 51.25458887883763
    }, 
    {
      "latmax": 51.25834397748242, 
      "name": "Pastoor Vynckestraat", 
      "lonmin": 4.185836809208398, 
      "sanName": "pastoorvynckestraat", 
      "numOfAddr": 10, 
      "lonmax": 4.186836725742301, 
      "latmin": 51.257848824636106
    }, 
    {
      "latmax": 51.311028699609935, 
      "name": "Pastorijstraat", 
      "lonmin": 4.263628891045694, 
      "sanName": "pastorijstraat", 
      "numOfAddr": 35, 
      "lonmax": 4.26616056455155, 
      "latmin": 51.310217440378125
    }, 
    {
      "latmax": 51.25649643626748, 
      "name": "Pater Vergauwenstraat", 
      "lonmin": 4.18921247403335, 
      "sanName": "patervergauwenstraat", 
      "numOfAddr": 18, 
      "lonmax": 4.19224933550945, 
      "latmin": 51.255586465433936
    }, 
    {
      "latmax": 51.32349862821503, 
      "name": "Petrusstraat", 
      "lonmin": 4.204480630710105, 
      "sanName": "petrusstraat", 
      "numOfAddr": 10, 
      "lonmax": 4.209386020825234, 
      "latmin": 51.31966659657375
    }, 
    {
      "latmax": 51.294989293529305, 
      "name": "Pillendijk", 
      "lonmin": 4.172725722413489, 
      "sanName": "pillendijk", 
      "numOfAddr": 64, 
      "lonmax": 4.209104214255046, 
      "latmin": 51.29290784833049
    }, 
    {
      "latmax": 51.312825726545896, 
      "name": "Polderdijk", 
      "lonmin": 4.223750357265361, 
      "sanName": "polderdijk", 
      "numOfAddr": 1, 
      "lonmax": 4.223750357265361, 
      "latmin": 51.312825726545896
    }, 
    {
      "latmax": 51.29157022462907, 
      "name": "Populierenlaan", 
      "lonmin": 4.180923986445957, 
      "sanName": "populierenlaan", 
      "numOfAddr": 14, 
      "lonmax": 4.183021911040864, 
      "latmin": 51.291190105257805
    }, 
    {
      "latmax": 51.262275284667396, 
      "name": "Priesteragiestraat", 
      "lonmin": 4.188699569659496, 
      "sanName": "priesteragiestraat", 
      "numOfAddr": 15, 
      "lonmax": 4.1962846192410135, 
      "latmin": 51.2597505766457
    }, 
    {
      "latmax": 51.32036442987816, 
      "name": "Rapenburg-Kleinstraatje", 
      "lonmin": 4.230424377086987, 
      "sanName": "rapenburgkleinstraatje", 
      "numOfAddr": 2, 
      "lonmax": 4.230762803622295, 
      "latmin": 51.320285661592884
    }, 
    {
      "latmax": 51.25961055842904, 
      "name": "Rijkstraat", 
      "lonmin": 4.177169086803878, 
      "sanName": "rijkstraat", 
      "numOfAddr": 60, 
      "lonmax": 4.187558938694813, 
      "latmin": 51.25491050338622
    }, 
    {
      "latmax": 51.25191060686868, 
      "name": "Ruiterstraat", 
      "lonmin": 4.161296320695792, 
      "sanName": "ruiterstraat", 
      "numOfAddr": 41, 
      "lonmax": 4.178107294873847, 
      "latmin": 51.24405227460756
    }, 
    {
      "latmax": 51.31249786821123, 
      "name": "Saftingen", 
      "lonmin": 4.229725317199634, 
      "sanName": "saftingen", 
      "numOfAddr": 24, 
      "lonmax": 4.23330512293362, 
      "latmin": 51.303771059696274
    }, 
    {
      "latmax": 51.324290886955346, 
      "name": "Scheldemolenstraat", 
      "lonmin": 4.258693766315453, 
      "sanName": "scheldemolenstraat", 
      "numOfAddr": 45, 
      "lonmax": 4.266114788965201, 
      "latmin": 51.3109950226837
    }, 
    {
      "latmax": 51.23972880011427, 
      "name": "Schoorstraat", 
      "lonmin": 4.184103863536722, 
      "sanName": "schoorstraat", 
      "numOfAddr": 3, 
      "lonmax": 4.188725467080971, 
      "latmin": 51.239574709847915
    }, 
    {
      "latmax": 51.293072197927984, 
      "name": "Singel", 
      "lonmin": 4.166578046506464, 
      "sanName": "singel", 
      "numOfAddr": 59, 
      "lonmax": 4.168676651629721, 
      "latmin": 51.29198328359669
    }, 
    {
      "latmax": 51.27907495284336, 
      "name": "Sint-Antoniusweg", 
      "lonmin": 4.249532105009931, 
      "sanName": "sintantoniusweg", 
      "numOfAddr": 4, 
      "lonmax": 4.275872824272244, 
      "latmin": 51.27497239930917
    }, 
    {
      "latmax": 51.32825700462055, 
      "name": "Sint-Engelbertusstraat", 
      "lonmin": 4.2127210510765325, 
      "sanName": "sintengelbertusstraat", 
      "numOfAddr": 20, 
      "lonmax": 4.214666310080969, 
      "latmin": 51.32655757229243
    }, 
    {
      "latmax": 51.255434594952014, 
      "name": "Sint-Laurentiusstraat", 
      "lonmin": 4.178595924111997, 
      "sanName": "sintlaurentiusstraat", 
      "numOfAddr": 62, 
      "lonmax": 4.187381018216032, 
      "latmin": 51.25204588862291
    }, 
    {
      "latmax": 51.26537912375042, 
      "name": "Sint-Michielsstraat", 
      "lonmin": 4.1885524239122685, 
      "sanName": "sintmichielsstraat", 
      "numOfAddr": 8, 
      "lonmax": 4.19461399860836, 
      "latmin": 51.261393049890216
    }, 
    {
      "latmax": 51.25593979477075, 
      "name": "Sluisstraat", 
      "lonmin": 4.192691616138215, 
      "sanName": "sluisstraat", 
      "numOfAddr": 21, 
      "lonmax": 4.198746266939591, 
      "latmin": 51.25459621730386
    }, 
    {
      "latmax": 51.2636245225735, 
      "name": "Spaans Fort", 
      "lonmin": 4.192553072521322, 
      "sanName": "spaansfort", 
      "numOfAddr": 36, 
      "lonmax": 4.199333450289979, 
      "latmin": 51.2559807312937
    }, 
    {
      "latmax": 51.291170792238866, 
      "name": "Sparrenhof", 
      "lonmin": 4.181233531459247, 
      "sanName": "sparrenhof", 
      "numOfAddr": 21, 
      "lonmax": 4.182777379975975, 
      "latmin": 51.29038947667296
    }, 
    {
      "latmax": 51.29308182918872, 
      "name": "Sportpleinstraat", 
      "lonmin": 4.16811822466023, 
      "sanName": "sportpleinstraat", 
      "numOfAddr": 55, 
      "lonmax": 4.171179591698923, 
      "latmin": 51.291113646081264
    }, 
    {
      "latmax": 51.28984660335242, 
      "name": "Tragel", 
      "lonmin": 4.173227112310651, 
      "sanName": "tragel", 
      "numOfAddr": 97, 
      "lonmax": 4.1776060495480785, 
      "latmin": 51.28656335673915
    }, 
    {
      "latmax": 51.29299302917541, 
      "name": "Tuinwijkstraat", 
      "lonmin": 4.1688642368382895, 
      "sanName": "tuinwijkstraat", 
      "numOfAddr": 48, 
      "lonmax": 4.172616819289242, 
      "latmin": 51.29032847858705
    }, 
    {
      "latmax": 51.273396684402776, 
      "name": "Turfbanken", 
      "lonmin": 4.174582082138911, 
      "sanName": "turfbanken", 
      "numOfAddr": 1, 
      "lonmax": 4.174582082138911, 
      "latmin": 51.273396684402776
    }, 
    {
      "latmax": 51.25585433632108, 
      "name": "Verheyenplein", 
      "lonmin": 4.18749254663, 
      "sanName": "verheyenplein", 
      "numOfAddr": 19, 
      "lonmax": 4.1891576094069425, 
      "latmin": 51.25435978059352
    }, 
    {
      "latmax": 51.25526401002224, 
      "name": "Verrebroekstraat", 
      "lonmin": 4.188782282217276, 
      "sanName": "verrebroekstraat", 
      "numOfAddr": 23, 
      "lonmax": 4.190127665868336, 
      "latmin": 51.2459819406846
    }, 
    {
      "latmax": 51.311883282293195, 
      "name": "Vissersstraat", 
      "lonmin": 4.264310320309879, 
      "sanName": "vissersstraat", 
      "numOfAddr": 42, 
      "lonmax": 4.2659174916959905, 
      "latmin": 51.30908425876259
    }, 
    {
      "latmax": 51.254725982755346, 
      "name": "Walestraat", 
      "lonmin": 4.176888910704573, 
      "sanName": "walestraat", 
      "numOfAddr": 24, 
      "lonmax": 4.178253289548495, 
      "latmin": 51.252095853727695
    }, 
    {
      "latmax": 51.25778242927156, 
      "name": "Watermolendijk", 
      "lonmin": 4.198526694218833, 
      "sanName": "watermolendijk", 
      "numOfAddr": 1, 
      "lonmax": 4.198526694218833, 
      "latmin": 51.25778242927156
    }, 
    {
      "latmax": 51.32316353542122, 
      "name": "Westlangeweg", 
      "lonmin": 4.230034292616193, 
      "sanName": "westlangeweg", 
      "numOfAddr": 12, 
      "lonmax": 4.24265339478395, 
      "latmin": 51.30341461094351
    }, 
    {
      "latmax": 51.3156994405084, 
      "name": "West Zeestraat", 
      "lonmin": 4.196888663882398, 
      "sanName": "westzeestraat", 
      "numOfAddr": 6, 
      "lonmax": 4.198438727178534, 
      "latmin": 51.308652425833024
    }, 
    {
      "latmax": 51.290477975369335, 
      "name": "Weverstraat", 
      "lonmin": 4.165500390149393, 
      "sanName": "weverstraat", 
      "numOfAddr": 56, 
      "lonmax": 4.167746741800351, 
      "latmin": 51.28776402376913
    }, 
    {
      "latmax": 51.29355186840648, 
      "name": "Wilgenlaan", 
      "lonmin": 4.17524171164888, 
      "sanName": "wilgenlaan", 
      "numOfAddr": 30, 
      "lonmax": 4.178759791776647, 
      "latmin": 51.29136077059004
    }, 
    {
      "latmax": 51.33686475118909, 
      "name": "Zoetenberm", 
      "lonmin": 4.22729767168417, 
      "sanName": "zoetenberm", 
      "numOfAddr": 33, 
      "lonmax": 4.2530789627092025, 
      "latmin": 51.31705970932318
    }, 
    {
      "latmax": 51.25762465352718, 
      "name": "Zwaantje", 
      "lonmin": 4.170300631793755, 
      "sanName": "zwaantje", 
      "numOfAddr": 52, 
      "lonmax": 4.176640823315826, 
      "latmin": 51.25350296338338
    }
  ]
}