{
  "streets": [
    {
      "latmax": 51.11720489857633, 
      "name": "Afschrijverslaan", 
      "lonmin": 4.19384732455248, 
      "sanName": "afschrijverslaan", 
      "numOfAddr": 2, 
      "lonmax": 4.193917606453654, 
      "latmin": 51.11628059793721
    }, 
    {
      "latmax": 51.127383820812014, 
      "name": "Akkerstraat", 
      "lonmin": 4.213374143867047, 
      "sanName": "akkerstraat", 
      "numOfAddr": 74, 
      "lonmax": 4.215091666580589, 
      "latmin": 51.12481811656569
    }, 
    {
      "latmax": 51.12178483902742, 
      "name": "Albrecht Rodenbachlaan", 
      "lonmin": 4.197386148887576, 
      "sanName": "albrechtrodenbachlaan", 
      "numOfAddr": 24, 
      "lonmax": 4.198739087039596, 
      "latmin": 51.12091328098905
    }, 
    {
      "latmax": 51.13578683031065, 
      "name": "Anemonenlaan", 
      "lonmin": 4.272325167178091, 
      "sanName": "anemonenlaan", 
      "numOfAddr": 11, 
      "lonmax": 4.2731924450972665, 
      "latmin": 51.13507407602008
    }, 
    {
      "latmax": 51.116476003443424, 
      "name": "Antwerpse Steenweg", 
      "lonmin": 4.175463053844743, 
      "sanName": "antwerpsesteenweg", 
      "numOfAddr": 176, 
      "lonmax": 4.1880422498150445, 
      "latmin": 51.112116738895764
    }, 
    {
      "latmax": 51.11698851969839, 
      "name": "Appelsvoorde", 
      "lonmin": 4.1608585458290595, 
      "sanName": "appelsvoorde", 
      "numOfAddr": 79, 
      "lonmax": 4.162697007601624, 
      "latmin": 51.11478238861083
    }, 
    {
      "latmax": 51.12672079536723, 
      "name": "Aragonialaan", 
      "lonmin": 4.268760894483791, 
      "sanName": "aragonialaan", 
      "numOfAddr": 38, 
      "lonmax": 4.270683274717427, 
      "latmin": 51.12424187337681
    }, 
    {
      "latmax": 51.13491133349726, 
      "name": "Arthur Meersmanstraat", 
      "lonmin": 4.228192895288233, 
      "sanName": "arthurmeersmanstraat", 
      "numOfAddr": 10, 
      "lonmax": 4.229986256844509, 
      "latmin": 51.13385603023111
    }, 
    {
      "latmax": 51.13731377681119, 
      "name": "Arthur Van Daelestraat", 
      "lonmin": 4.22925242778994, 
      "sanName": "arthurvandaelestraat", 
      "numOfAddr": 10, 
      "lonmax": 4.230358538520748, 
      "latmin": 51.1360034933156
    }, 
    {
      "latmax": 51.13261445538465, 
      "name": "August De Batslaan", 
      "lonmin": 4.199839064159733, 
      "sanName": "augustdebatslaan", 
      "numOfAddr": 40, 
      "lonmax": 4.202610257102259, 
      "latmin": 51.13144441912251
    }, 
    {
      "latmax": 51.127822911347515, 
      "name": "August Wautersstraat", 
      "lonmin": 4.21773048996314, 
      "sanName": "augustwautersstraat", 
      "numOfAddr": 47, 
      "lonmax": 4.220001691483732, 
      "latmin": 51.12710483283278
    }, 
    {
      "latmax": 51.12720219908362, 
      "name": "Azalealaan", 
      "lonmin": 4.194984625917738, 
      "sanName": "azalealaan", 
      "numOfAddr": 109, 
      "lonmax": 4.1989477630639085, 
      "latmin": 51.1237436626253
    }, 
    {
      "latmax": 51.1753695054813, 
      "name": "Bank", 
      "lonmin": 4.221815315587618, 
      "sanName": "bank", 
      "numOfAddr": 6, 
      "lonmax": 4.223273470203212, 
      "latmin": 51.17445597424829
    }, 
    {
      "latmax": 51.14126404984807, 
      "name": "Beekstraat", 
      "lonmin": 4.210574817511654, 
      "sanName": "beekstraat", 
      "numOfAddr": 31, 
      "lonmax": 4.2189360799686515, 
      "latmin": 51.13662843176198
    }, 
    {
      "latmax": 51.16079888585439, 
      "name": "Beeldstraat", 
      "lonmin": 4.197796874872928, 
      "sanName": "beeldstraat", 
      "numOfAddr": 34, 
      "lonmax": 4.201463097304538, 
      "latmin": 51.15515094003242
    }, 
    {
      "latmax": 51.132408140886305, 
      "name": "Begonialaan", 
      "lonmin": 4.269991212708179, 
      "sanName": "begonialaan", 
      "numOfAddr": 18, 
      "lonmax": 4.2722406333649126, 
      "latmin": 51.13130492747213
    }, 
    {
      "latmax": 51.12548168269027, 
      "name": "Belgi\u0089laan", 
      "lonmin": 4.267423052677383, 
      "sanName": "belgilaan", 
      "numOfAddr": 19, 
      "lonmax": 4.268941121707886, 
      "latmin": 51.12491391907718
    }, 
    {
      "latmax": 51.12560919108945, 
      "name": "Bergstraat", 
      "lonmin": 4.151911970439698, 
      "sanName": "bergstraat", 
      "numOfAddr": 17, 
      "lonmax": 4.157259739423944, 
      "latmin": 51.120022865492615
    }, 
    {
      "latmax": 51.12568055307962, 
      "name": "Berkenlaan", 
      "lonmin": 4.275188867472996, 
      "sanName": "berkenlaan", 
      "numOfAddr": 9, 
      "lonmax": 4.276002808543323, 
      "latmin": 51.12503060602866
    }, 
    {
      "latmax": 51.113614685805864, 
      "name": "Bettehemstraat", 
      "lonmin": 4.169602379645975, 
      "sanName": "bettehemstraat", 
      "numOfAddr": 36, 
      "lonmax": 4.170874899531919, 
      "latmin": 51.111805054946736
    }, 
    {
      "latmax": 51.12847989463163, 
      "name": "Bevrijdingstraat", 
      "lonmin": 4.229809168570226, 
      "sanName": "bevrijdingstraat", 
      "numOfAddr": 26, 
      "lonmax": 4.232426595352635, 
      "latmin": 51.12715746097864
    }, 
    {
      "latmax": 51.13327601104263, 
      "name": "Blauwhofstraat", 
      "lonmin": 4.2550615944985735, 
      "sanName": "blauwhofstraat", 
      "numOfAddr": 1, 
      "lonmax": 4.2550615944985735, 
      "latmin": 51.13327601104263
    }, 
    {
      "latmax": 51.156166797169135, 
      "name": "Blindstraat", 
      "lonmin": 4.2301565397636205, 
      "sanName": "blindstraat", 
      "numOfAddr": 62, 
      "lonmax": 4.235538997860745, 
      "latmin": 51.132049244920005
    }, 
    {
      "latmax": 51.12339311530767, 
      "name": "Bokmolenstraat", 
      "lonmin": 4.134640925614739, 
      "sanName": "bokmolenstraat", 
      "numOfAddr": 28, 
      "lonmax": 4.136233272936934, 
      "latmin": 51.11443634910922
    }, 
    {
      "latmax": 51.13676197048661, 
      "name": "Bolderik", 
      "lonmin": 4.245690267428591, 
      "sanName": "bolderik", 
      "numOfAddr": 5, 
      "lonmax": 4.250840033981133, 
      "latmin": 51.136316542718035
    }, 
    {
      "latmax": 51.126878395697695, 
      "name": "Boodtsstraat", 
      "lonmin": 4.216627356767041, 
      "sanName": "boodtsstraat", 
      "numOfAddr": 68, 
      "lonmax": 4.2193414260691515, 
      "latmin": 51.12631594751974
    }, 
    {
      "latmax": 51.13351439770805, 
      "name": "Boonakker", 
      "lonmin": 4.1962547728642825, 
      "sanName": "boonakker", 
      "numOfAddr": 40, 
      "lonmax": 4.202268760065753, 
      "latmin": 51.13189520179155
    }, 
    {
      "latmax": 51.13460005779564, 
      "name": "Borluutstraat", 
      "lonmin": 4.232457296388933, 
      "sanName": "borluutstraat", 
      "numOfAddr": 16, 
      "lonmax": 4.235428814526599, 
      "latmin": 51.133665306510366
    }, 
    {
      "latmax": 51.11948756256881, 
      "name": "Bosweg", 
      "lonmin": 4.189795084838308, 
      "sanName": "bosweg", 
      "numOfAddr": 27, 
      "lonmax": 4.191217130455113, 
      "latmin": 51.118765864493305
    }, 
    {
      "latmax": 51.123282721675864, 
      "name": "Branderslaan", 
      "lonmin": 4.204608255280989, 
      "sanName": "branderslaan", 
      "numOfAddr": 25, 
      "lonmax": 4.206600486372468, 
      "latmin": 51.12206592703377
    }, 
    {
      "latmax": 51.15986115934816, 
      "name": "Brandstraat", 
      "lonmin": 4.191470070698799, 
      "sanName": "brandstraat", 
      "numOfAddr": 18, 
      "lonmax": 4.19258993501521, 
      "latmin": 51.15249194886896
    }, 
    {
      "latmax": 51.127293099341536, 
      "name": "Brigade Pironstraat", 
      "lonmin": 4.2295681012944595, 
      "sanName": "brigadepironstraat", 
      "numOfAddr": 12, 
      "lonmax": 4.230549582198576, 
      "latmin": 51.12585992548009
    }, 
    {
      "latmax": 51.11139585158275, 
      "name": "Broekstraat", 
      "lonmin": 4.175265267467825, 
      "sanName": "broekstraat", 
      "numOfAddr": 20, 
      "lonmax": 4.177393133936838, 
      "latmin": 51.11080419077499
    }, 
    {
      "latmax": 51.12374877228204, 
      "name": "Buizenleggerslaan", 
      "lonmin": 4.205389232102464, 
      "sanName": "buizenleggerslaan", 
      "numOfAddr": 28, 
      "lonmax": 4.207254475379405, 
      "latmin": 51.1225282064916
    }, 
    {
      "latmax": 51.116921831637434, 
      "name": "Burgem. Achiel Heymanstraat", 
      "lonmin": 4.169949766670787, 
      "sanName": "burgemachielheymanstraat", 
      "numOfAddr": 76, 
      "lonmax": 4.187710084977896, 
      "latmin": 51.113193439205375
    }, 
    {
      "latmax": 51.119338227585885, 
      "name": "Burggravestraat", 
      "lonmin": 4.146065151241235, 
      "sanName": "burggravestraat", 
      "numOfAddr": 59, 
      "lonmax": 4.151525717938952, 
      "latmin": 51.11437279443026
    }, 
    {
      "latmax": 51.13694790371619, 
      "name": "Burmtiendestraat", 
      "lonmin": 4.156909762600234, 
      "sanName": "burmtiendestraat", 
      "numOfAddr": 73, 
      "lonmax": 4.172652478386668, 
      "latmin": 51.13270414183953
    }, 
    {
      "latmax": 51.119117881267364, 
      "name": "Cabinestraat", 
      "lonmin": 4.1882771299421, 
      "sanName": "cabinestraat", 
      "numOfAddr": 23, 
      "lonmax": 4.189543851448008, 
      "latmin": 51.118232573655256
    }, 
    {
      "latmax": 51.13146549854913, 
      "name": "Camille Vennenslaan", 
      "lonmin": 4.202941892363973, 
      "sanName": "camillevennenslaan", 
      "numOfAddr": 28, 
      "lonmax": 4.205494914770678, 
      "latmin": 51.13026512098405
    }, 
    {
      "latmax": 51.12491363149979, 
      "name": "Canadalaan", 
      "lonmin": 4.185982461944126, 
      "sanName": "canadalaan", 
      "numOfAddr": 23, 
      "lonmax": 4.189090321099308, 
      "latmin": 51.12427472407342
    }, 
    {
      "latmax": 51.125939866279744, 
      "name": "Cauwerburg", 
      "lonmin": 4.191539668372175, 
      "sanName": "cauwerburg", 
      "numOfAddr": 192, 
      "lonmax": 4.2048640834399285, 
      "latmin": 51.118183161070256
    }, 
    {
      "latmax": 51.13414503681846, 
      "name": "Cesar Hinderdaelstraat", 
      "lonmin": 4.192251042395726, 
      "sanName": "cesarhinderdaelstraat", 
      "numOfAddr": 16, 
      "lonmax": 4.193710060478896, 
      "latmin": 51.13223972719239
    }, 
    {
      "latmax": 51.131354998614704, 
      "name": "Clemens De Landtsheerlaan", 
      "lonmin": 4.204114976751951, 
      "sanName": "clemensdelandtsheerlaan", 
      "numOfAddr": 21, 
      "lonmax": 4.207917054286371, 
      "latmin": 51.12895990924064
    }, 
    {
      "latmax": 51.129540493727276, 
      "name": "Clement D'hooghelaan", 
      "lonmin": 4.2141190208833015, 
      "sanName": "clementdhooghelaan", 
      "numOfAddr": 56, 
      "lonmax": 4.217890534293758, 
      "latmin": 51.12779718522058
    }, 
    {
      "latmax": 51.12396803093797, 
      "name": "Consciencestraat", 
      "lonmin": 4.218379453282335, 
      "sanName": "consciencestraat", 
      "numOfAddr": 16, 
      "lonmax": 4.2192831959585, 
      "latmin": 51.123241110092295
    }, 
    {
      "latmax": 51.134215163884456, 
      "name": "Dahlialaan", 
      "lonmin": 4.2713667830568545, 
      "sanName": "dahlialaan", 
      "numOfAddr": 15, 
      "lonmax": 4.272246828734124, 
      "latmin": 51.133171532364734
    }, 
    {
      "latmax": 51.119301156648085, 
      "name": "de Hemptinneplein-Waesmeer", 
      "lonmin": 4.189096247876427, 
      "sanName": "dehemptinnepleinwaesmeer", 
      "numOfAddr": 1, 
      "lonmax": 4.189096247876427, 
      "latmin": 51.119301156648085
    }, 
    {
      "latmax": 51.11579337911873, 
      "name": "De Lokers", 
      "lonmin": 4.1442367266361755, 
      "sanName": "delokers", 
      "numOfAddr": 21, 
      "lonmax": 4.145847849948795, 
      "latmin": 51.114362752721966
    }, 
    {
      "latmax": 51.12663622319069, 
      "name": "Dennenlaan", 
      "lonmin": 4.27188398343438, 
      "sanName": "dennenlaan", 
      "numOfAddr": 19, 
      "lonmax": 4.272914680826193, 
      "latmin": 51.12597407715994
    }, 
    {
      "latmax": 51.124497533556784, 
      "name": "Dijkstraat", 
      "lonmin": 4.211965223786117, 
      "sanName": "dijkstraat", 
      "numOfAddr": 10, 
      "lonmax": 4.212987355180184, 
      "latmin": 51.12369779794624
    }, 
    {
      "latmax": 51.125048565594504, 
      "name": "Dis Van Raemdonckplein", 
      "lonmin": 4.273018995894991, 
      "sanName": "disvanraemdonckplein", 
      "numOfAddr": 14, 
      "lonmax": 4.273634845968179, 
      "latmin": 51.12454489531525
    }, 
    {
      "latmax": 51.125969350358304, 
      "name": "Dominicanessenstraat", 
      "lonmin": 4.216597259273851, 
      "sanName": "dominicanessenstraat", 
      "numOfAddr": 14, 
      "lonmax": 4.217336645402774, 
      "latmin": 51.12535678534455
    }, 
    {
      "latmax": 51.15476708392573, 
      "name": "Doornstraat", 
      "lonmin": 4.201108734481229, 
      "sanName": "doornstraat", 
      "numOfAddr": 180, 
      "lonmax": 4.2133337691981945, 
      "latmin": 51.13425078484969
    }, 
    {
      "latmax": 51.118529257754695, 
      "name": "Dorpstraat", 
      "lonmin": 4.131545306727185, 
      "sanName": "dorpstraat", 
      "numOfAddr": 114, 
      "lonmax": 4.142664720122209, 
      "latmin": 51.113535320325795
    }, 
    {
      "latmax": 51.117983411253995, 
      "name": "Dorusdreef", 
      "lonmin": 4.189456482557672, 
      "sanName": "dorusdreef", 
      "numOfAddr": 1, 
      "lonmax": 4.189456482557672, 
      "latmin": 51.117983411253995
    }, 
    {
      "latmax": 51.14395233949518, 
      "name": "Duitslandstraat", 
      "lonmin": 4.197222798177556, 
      "sanName": "duitslandstraat", 
      "numOfAddr": 17, 
      "lonmax": 4.200684481938635, 
      "latmin": 51.14238690533811
    }, 
    {
      "latmax": 51.11291640052037, 
      "name": "Durmedal", 
      "lonmin": 4.13914792859109, 
      "sanName": "durmedal", 
      "numOfAddr": 50, 
      "lonmax": 4.14145494654534, 
      "latmin": 51.11184433106802
    }, 
    {
      "latmax": 51.1138088900034, 
      "name": "Durmestraat", 
      "lonmin": 4.164140792315847, 
      "sanName": "durmestraat", 
      "numOfAddr": 29, 
      "lonmax": 4.166127596961483, 
      "latmin": 51.11172364336137
    }, 
    {
      "latmax": 51.11779683933111, 
      "name": "Dwarsweg", 
      "lonmin": 4.188592141156091, 
      "sanName": "dwarsweg", 
      "numOfAddr": 7, 
      "lonmax": 4.189301381783141, 
      "latmin": 51.117501740133115
    }, 
    {
      "latmax": 51.126895270042574, 
      "name": "Edgard Tinelplaats", 
      "lonmin": 4.203559196432264, 
      "sanName": "edgardtinelplaats", 
      "numOfAddr": 13, 
      "lonmax": 4.2043500559419655, 
      "latmin": 51.126084829952326
    }, 
    {
      "latmax": 51.131965016375936, 
      "name": "Eduard De Sutterlaan", 
      "lonmin": 4.196878894894803, 
      "sanName": "eduarddesutterlaan", 
      "numOfAddr": 47, 
      "lonmax": 4.199590528278866, 
      "latmin": 51.13105184242377
    }, 
    {
      "latmax": 51.13080347317907, 
      "name": "Eeckhoutdriesstraat", 
      "lonmin": 4.205930033080797, 
      "sanName": "eeckhoutdriesstraat", 
      "numOfAddr": 142, 
      "lonmax": 4.210777712807313, 
      "latmin": 51.12750182992522
    }, 
    {
      "latmax": 51.13380326111826, 
      "name": "Eglantierlaan", 
      "lonmin": 4.270143883111622, 
      "sanName": "eglantierlaan", 
      "numOfAddr": 24, 
      "lonmax": 4.27121580388452, 
      "latmin": 51.13254052833911
    }, 
    {
      "latmax": 51.15495220433782, 
      "name": "Eigenlo", 
      "lonmin": 4.189972810687734, 
      "sanName": "eigenlo", 
      "numOfAddr": 75, 
      "lonmax": 4.201048863241857, 
      "latmin": 51.15087782395193
    }, 
    {
      "latmax": 51.127117679600474, 
      "name": "Eikenlaan", 
      "lonmin": 4.273714988123503, 
      "sanName": "eikenlaan", 
      "numOfAddr": 19, 
      "lonmax": 4.274584710821482, 
      "latmin": 51.12593565587185
    }, 
    {
      "latmax": 51.15905595434425, 
      "name": "Elsstraat-Noord", 
      "lonmin": 4.223715604053843, 
      "sanName": "elsstraatnoord", 
      "numOfAddr": 5, 
      "lonmax": 4.224631186089398, 
      "latmin": 51.15757692728748
    }, 
    {
      "latmax": 51.155079167347814, 
      "name": "Elsstraat-Zuid", 
      "lonmin": 4.223898516867018, 
      "sanName": "elsstraatzuid", 
      "numOfAddr": 18, 
      "lonmax": 4.225797933120141, 
      "latmin": 51.147213487447345
    }, 
    {
      "latmax": 51.12415165995999, 
      "name": "Elzenpad", 
      "lonmin": 4.18642614040295, 
      "sanName": "elzenpad", 
      "numOfAddr": 5, 
      "lonmax": 4.1867597450249505, 
      "latmin": 51.123621613102856
    }, 
    {
      "latmax": 51.134058641434066, 
      "name": "Emiel Van Boschstraat", 
      "lonmin": 4.193158098980766, 
      "sanName": "emielvanboschstraat", 
      "numOfAddr": 31, 
      "lonmax": 4.195760285469058, 
      "latmin": 51.13275282779848
    }, 
    {
      "latmax": 51.13423227201038, 
      "name": "Ericalaan", 
      "lonmin": 4.2724451910055725, 
      "sanName": "ericalaan", 
      "numOfAddr": 13, 
      "lonmax": 4.2738591095168585, 
      "latmin": 51.13347776687826
    }, 
    {
      "latmax": 51.121215189835766, 
      "name": "Esdreef", 
      "lonmin": 4.196684218616624, 
      "sanName": "esdreef", 
      "numOfAddr": 26, 
      "lonmax": 4.198825130314878, 
      "latmin": 51.11971342452836
    }, 
    {
      "latmax": 51.128589875139944, 
      "name": "Eupenlaan", 
      "lonmin": 4.223206780378445, 
      "sanName": "eupenlaan", 
      "numOfAddr": 70, 
      "lonmax": 4.228711646411543, 
      "latmin": 51.12579783181197
    }, 
    {
      "latmax": 51.13946527242852, 
      "name": "Eurolaan", 
      "lonmin": 4.187314689268022, 
      "sanName": "eurolaan", 
      "numOfAddr": 20, 
      "lonmax": 4.1938984913078725, 
      "latmin": 51.135334844630556
    }, 
    {
      "latmax": 51.1249243903614, 
      "name": "Europalaan", 
      "lonmin": 4.267387099930979, 
      "sanName": "europalaan", 
      "numOfAddr": 21, 
      "lonmax": 4.268290508336297, 
      "latmin": 51.123791429295615
    }, 
    {
      "latmax": 51.12019838979228, 
      "name": "Fazantenweg", 
      "lonmin": 4.189521516611334, 
      "sanName": "fazantenweg", 
      "numOfAddr": 33, 
      "lonmax": 4.190788424818847, 
      "latmin": 51.119309610087384
    }, 
    {
      "latmax": 51.12158015352692, 
      "name": "Felix Timmermanslaan", 
      "lonmin": 4.198248313416767, 
      "sanName": "felixtimmermanslaan", 
      "numOfAddr": 22, 
      "lonmax": 4.199777839425803, 
      "latmin": 51.12093153670173
    }, 
    {
      "latmax": 51.131699190326096, 
      "name": "Florent Beeckxlaan", 
      "lonmin": 4.1947112301221345, 
      "sanName": "florentbeeckxlaan", 
      "numOfAddr": 40, 
      "lonmax": 4.196640208283335, 
      "latmin": 51.13059375961763
    }, 
    {
      "latmax": 51.13143480317305, 
      "name": "Flor Kiedenlaan", 
      "lonmin": 4.201272667861594, 
      "sanName": "florkiedenlaan", 
      "numOfAddr": 4, 
      "lonmax": 4.201590166059451, 
      "latmin": 51.13114952065063
    }, 
    {
      "latmax": 51.12564719771023, 
      "name": "Fonteinstraat", 
      "lonmin": 4.225023465719194, 
      "sanName": "fonteinstraat", 
      "numOfAddr": 51, 
      "lonmax": 4.230928433890809, 
      "latmin": 51.124185347594654
    }, 
    {
      "latmax": 51.141688595449516, 
      "name": "Frankrijkstraat", 
      "lonmin": 4.19441413558834, 
      "sanName": "frankrijkstraat", 
      "numOfAddr": 15, 
      "lonmax": 4.2005245115578145, 
      "latmin": 51.14001044953832
    }, 
    {
      "latmax": 51.12155032711884, 
      "name": "Frank Van Dyckelaan", 
      "lonmin": 4.195685030940035, 
      "sanName": "frankvandyckelaan", 
      "numOfAddr": 18, 
      "lonmax": 4.20443516991499, 
      "latmin": 51.116899325066846
    }, 
    {
      "latmax": 51.12442351128074, 
      "name": "Frans Boelplein", 
      "lonmin": 4.209719435975634, 
      "sanName": "fransboelplein", 
      "numOfAddr": 8, 
      "lonmax": 4.211735645444406, 
      "latmin": 51.123519188837406
    }, 
    {
      "latmax": 51.133554964849324, 
      "name": "Frans Smetstraat", 
      "lonmin": 4.202536144651859, 
      "sanName": "franssmetstraat", 
      "numOfAddr": 71, 
      "lonmax": 4.206276356485118, 
      "latmin": 51.131469820423284
    }, 
    {
      "latmax": 51.11347007949862, 
      "name": "Ganstienden", 
      "lonmin": 4.131515646698609, 
      "sanName": "ganstienden", 
      "numOfAddr": 56, 
      "lonmax": 4.133437545853803, 
      "latmin": 51.112032207706875
    }, 
    {
      "latmax": 51.13342546737521, 
      "name": "Gasthuisstraat", 
      "lonmin": 4.2107425501682325, 
      "sanName": "gasthuisstraat", 
      "numOfAddr": 131, 
      "lonmax": 4.213456627412691, 
      "latmin": 51.127939659456125
    }, 
    {
      "latmax": 51.13144038057842, 
      "name": "Gebroeders Boellaan", 
      "lonmin": 4.213414859149566, 
      "sanName": "gebroedersboellaan", 
      "numOfAddr": 45, 
      "lonmax": 4.2170438561913075, 
      "latmin": 51.13034799402516
    }, 
    {
      "latmax": 51.13152791390285, 
      "name": "Gebrs. Van Raemdonckstraat", 
      "lonmin": 4.2086543513839185, 
      "sanName": "gebrsvanraemdonckstraat", 
      "numOfAddr": 92, 
      "lonmax": 4.212246021597938, 
      "latmin": 51.13075141632538
    }, 
    {
      "latmax": 51.130262191149455, 
      "name": "Gelaagstraat", 
      "lonmin": 4.268754919879932, 
      "sanName": "gelaagstraat", 
      "numOfAddr": 146, 
      "lonmax": 4.272276028581256, 
      "latmin": 51.12402639752324
    }, 
    {
      "latmax": 51.116451763903974, 
      "name": "Gentstraat", 
      "lonmin": 4.1595181117643465, 
      "sanName": "gentstraat", 
      "numOfAddr": 158, 
      "lonmax": 4.175125101667273, 
      "latmin": 51.1122738802019
    }, 
    {
      "latmax": 51.123076163687585, 
      "name": "Georges Van Dammeplein", 
      "lonmin": 4.208701460473783, 
      "sanName": "georgesvandammeplein", 
      "numOfAddr": 5, 
      "lonmax": 4.20985778196052, 
      "latmin": 51.12238894651722
    }, 
    {
      "latmax": 51.13319927962478, 
      "name": "Gladiolenlaan", 
      "lonmin": 4.269463865994952, 
      "sanName": "gladiolenlaan", 
      "numOfAddr": 11, 
      "lonmax": 4.270380577530968, 
      "latmin": 51.13189644129632
    }, 
    {
      "latmax": 51.11423237868464, 
      "name": "Godevaert Braemstraat", 
      "lonmin": 4.140037996001065, 
      "sanName": "godevaertbraemstraat", 
      "numOfAddr": 22, 
      "lonmax": 4.1408249683635745, 
      "latmin": 51.112926635274995
    }, 
    {
      "latmax": 51.14268915206835, 
      "name": "Grensstraat", 
      "lonmin": 4.2686674102949045, 
      "sanName": "grensstraat", 
      "numOfAddr": 4, 
      "lonmax": 4.269464427053661, 
      "latmin": 51.14209971480891
    }, 
    {
      "latmax": 51.133912499747744, 
      "name": "Grote Dweersstraat", 
      "lonmin": 4.193210232156281, 
      "sanName": "grotedweersstraat", 
      "numOfAddr": 43, 
      "lonmax": 4.20196955174081, 
      "latmin": 51.13175129977358
    }, 
    {
      "latmax": 51.11419911698485, 
      "name": "Guido Gezellelaan", 
      "lonmin": 4.162159387739674, 
      "sanName": "guidogezellelaan", 
      "numOfAddr": 39, 
      "lonmax": 4.16355392221592, 
      "latmin": 51.11277868479384
    }, 
    {
      "latmax": 51.12779559185741, 
      "name": "Guido Gezelleplaats", 
      "lonmin": 4.2197483321923395, 
      "sanName": "guidogezelleplaats", 
      "numOfAddr": 20, 
      "lonmax": 4.220407424599126, 
      "latmin": 51.12680589188178
    }, 
    {
      "latmax": 51.126162320540914, 
      "name": "Guldenwal", 
      "lonmin": 4.213371023846885, 
      "sanName": "guldenwal", 
      "numOfAddr": 15, 
      "lonmax": 4.214150767935156, 
      "latmin": 51.125865395838325
    }, 
    {
      "latmax": 51.165049394177196, 
      "name": "Haagdam", 
      "lonmin": 4.2331923129571685, 
      "sanName": "haagdam", 
      "numOfAddr": 7, 
      "lonmax": 4.2359425605218926, 
      "latmin": 51.16244068621446
    }, 
    {
      "latmax": 51.16984068462874, 
      "name": "Haasdonksesteenweg", 
      "lonmin": 4.208520273447937, 
      "sanName": "haasdonksesteenweg", 
      "numOfAddr": 84, 
      "lonmax": 4.214496277281777, 
      "latmin": 51.161483751899524
    }, 
    {
      "latmax": 51.13930743201866, 
      "name": "Haverheidelaan", 
      "lonmin": 4.196157691543319, 
      "sanName": "haverheidelaan", 
      "numOfAddr": 18, 
      "lonmax": 4.2012982634410925, 
      "latmin": 51.13717294715569
    }, 
    {
      "latmax": 51.12574462173292, 
      "name": "Heilig Hartplein", 
      "lonmin": 4.198511833503774, 
      "sanName": "heilighartplein", 
      "numOfAddr": 2, 
      "lonmax": 4.198728386880272, 
      "latmin": 51.1255066413923
    }, 
    {
      "latmax": 51.13774881661564, 
      "name": "Heirputstraat", 
      "lonmin": 4.265742204802825, 
      "sanName": "heirputstraat", 
      "numOfAddr": 5, 
      "lonmax": 4.268465999458974, 
      "latmin": 51.13629057581663
    }, 
    {
      "latmax": 51.164579327042155, 
      "name": "Heistraat", 
      "lonmin": 4.203625208550245, 
      "sanName": "heistraat", 
      "numOfAddr": 42, 
      "lonmax": 4.208333528592312, 
      "latmin": 51.16137422804201
    }, 
    {
      "latmax": 51.13575341836168, 
      "name": "Hemelrijkstraat", 
      "lonmin": 4.274176025240294, 
      "sanName": "hemelrijkstraat", 
      "numOfAddr": 15, 
      "lonmax": 4.276262541160629, 
      "latmin": 51.13334752974454
    }, 
    {
      "latmax": 51.13051091827043, 
      "name": "Hendrik Heymanlaan", 
      "lonmin": 4.1973349991157685, 
      "sanName": "hendrikheymanlaan", 
      "numOfAddr": 21, 
      "lonmax": 4.198609416519644, 
      "latmin": 51.12916524220737
    }, 
    {
      "latmax": 51.128544162251615, 
      "name": "Henri Brialmontstraat", 
      "lonmin": 4.249507570212823, 
      "sanName": "henribrialmontstraat", 
      "numOfAddr": 10, 
      "lonmax": 4.250046350954471, 
      "latmin": 51.127924921124404
    }, 
    {
      "latmax": 51.12971097691466, 
      "name": "Herderstraat", 
      "lonmin": 4.196275723216966, 
      "sanName": "herderstraat", 
      "numOfAddr": 25, 
      "lonmax": 4.1977193372140515, 
      "latmin": 51.129142649703674
    }, 
    {
      "latmax": 51.12319907587173, 
      "name": "Hermelgem", 
      "lonmin": 4.195225733594797, 
      "sanName": "hermelgem", 
      "numOfAddr": 31, 
      "lonmax": 4.197332487886855, 
      "latmin": 51.12213833789432
    }, 
    {
      "latmax": 51.137642653372716, 
      "name": "Hofstraat", 
      "lonmin": 4.16152178832698, 
      "sanName": "hofstraat", 
      "numOfAddr": 35, 
      "lonmax": 4.171434896226164, 
      "latmin": 51.114577181255434
    }, 
    {
      "latmax": 51.11419183980871, 
      "name": "Hof ter Elstlaan", 
      "lonmin": 4.137659581999553, 
      "sanName": "hofterelstlaan", 
      "numOfAddr": 24, 
      "lonmax": 4.139493281567729, 
      "latmin": 51.11255757963831
    }, 
    {
      "latmax": 51.13527874637989, 
      "name": "Hogenakkerstraat", 
      "lonmin": 4.1540206906473705, 
      "sanName": "hogenakkerstraat", 
      "numOfAddr": 105, 
      "lonmax": 4.164371276730535, 
      "latmin": 51.114809486274105
    }, 
    {
      "latmax": 51.139622327197756, 
      "name": "Hollebeek", 
      "lonmin": 4.229650999919029, 
      "sanName": "hollebeek", 
      "numOfAddr": 161, 
      "lonmax": 4.243297948629712, 
      "latmin": 51.12971233581234
    }, 
    {
      "latmax": 51.142674836948295, 
      "name": "Hoogkamerstraat", 
      "lonmin": 4.182789044160356, 
      "sanName": "hoogkamerstraat", 
      "numOfAddr": 340, 
      "lonmax": 4.202820439575942, 
      "latmin": 51.12646681989891
    }, 
    {
      "latmax": 51.13591977279145, 
      "name": "Hospitaalstraat", 
      "lonmin": 4.266955002496606, 
      "sanName": "hospitaalstraat", 
      "numOfAddr": 54, 
      "lonmax": 4.269558547967633, 
      "latmin": 51.13066809712527
    }, 
    {
      "latmax": 51.146781603490105, 
      "name": "Houtbriel", 
      "lonmin": 4.219432352868618, 
      "sanName": "houtbriel", 
      "numOfAddr": 57, 
      "lonmax": 4.2247108890203116, 
      "latmin": 51.14134782104602
    }, 
    {
      "latmax": 51.126731296255855, 
      "name": "Houtkaai", 
      "lonmin": 4.206737536861076, 
      "sanName": "houtkaai", 
      "numOfAddr": 21, 
      "lonmax": 4.207395864834547, 
      "latmin": 51.12628557267306
    }, 
    {
      "latmax": 51.12022809375403, 
      "name": "Huis ten Halven", 
      "lonmin": 4.188410775540008, 
      "sanName": "huistenhalven", 
      "numOfAddr": 43, 
      "lonmax": 4.1924425758494, 
      "latmin": 51.11643004164704
    }, 
    {
      "latmax": 51.135609050215564, 
      "name": "Hyacintenlaan", 
      "lonmin": 4.270546659305209, 
      "sanName": "hyacintenlaan", 
      "numOfAddr": 11, 
      "lonmax": 4.271920228732912, 
      "latmin": 51.13475984613711
    }, 
    {
      "latmax": 51.124037528613, 
      "name": "Iepenlaan", 
      "lonmin": 4.184595679518697, 
      "sanName": "iepenlaan", 
      "numOfAddr": 40, 
      "lonmax": 4.186721858652522, 
      "latmin": 51.12076187494303
    }, 
    {
      "latmax": 51.14005053853969, 
      "name": "Itali\u0089straat", 
      "lonmin": 4.196274960521838, 
      "sanName": "italistraat", 
      "numOfAddr": 3, 
      "lonmax": 4.198257045003794, 
      "latmin": 51.139296542423224
    }, 
    {
      "latmax": 51.12547002434792, 
      "name": "Jagerstraat", 
      "lonmin": 4.173866908492301, 
      "sanName": "jagerstraat", 
      "numOfAddr": 3, 
      "lonmax": 4.180744567246053, 
      "latmin": 51.125116915488256
    }, 
    {
      "latmax": 51.135783486368965, 
      "name": "Jan Albert De Rooverstraat", 
      "lonmin": 4.227344876408607, 
      "sanName": "janalbertderooverstraat", 
      "numOfAddr": 23, 
      "lonmax": 4.232496360774982, 
      "latmin": 51.134694720250074
    }, 
    {
      "latmax": 51.13663485762276, 
      "name": "Jan de Malschelaan", 
      "lonmin": 4.196760988036283, 
      "sanName": "jandemalschelaan", 
      "numOfAddr": 17, 
      "lonmax": 4.202088185399732, 
      "latmin": 51.13461727620557
    }, 
    {
      "latmax": 51.1380075406631, 
      "name": "Jef De Pauwstraat", 
      "lonmin": 4.226402576525825, 
      "sanName": "jefdepauwstraat", 
      "numOfAddr": 35, 
      "lonmax": 4.231839746890321, 
      "latmin": 51.13573792110981
    }, 
    {
      "latmax": 51.133297055070855, 
      "name": "Jos Hostelaan", 
      "lonmin": 4.208001465177244, 
      "sanName": "joshostelaan", 
      "numOfAddr": 15, 
      "lonmax": 4.208665561602013, 
      "latmin": 51.132487212918114
    }, 
    {
      "latmax": 51.11276622426332, 
      "name": "Kaaistraat", 
      "lonmin": 4.170440163788259, 
      "sanName": "kaaistraat", 
      "numOfAddr": 46, 
      "lonmax": 4.174305803343947, 
      "latmin": 51.111515092765494
    }, 
    {
      "latmax": 51.125510963256716, 
      "name": "Kamiel Wautersstraat", 
      "lonmin": 4.213298354646694, 
      "sanName": "kamielwautersstraat", 
      "numOfAddr": 16, 
      "lonmax": 4.214142510346953, 
      "latmin": 51.12461156497541
    }, 
    {
      "latmax": 51.14155311578959, 
      "name": "Kapelanielaan", 
      "lonmin": 4.1756172251463735, 
      "sanName": "kapelanielaan", 
      "numOfAddr": 43, 
      "lonmax": 4.1860241617574685, 
      "latmin": 51.136089471265926
    }, 
    {
      "latmax": 51.133091837315746, 
      "name": "Kapelstraat", 
      "lonmin": 4.249539786260357, 
      "sanName": "kapelstraat", 
      "numOfAddr": 317, 
      "lonmax": 4.277624882669364, 
      "latmin": 51.12416874471131
    }, 
    {
      "latmax": 51.13067726341867, 
      "name": "Kardinaal Cardijnlaan", 
      "lonmin": 4.198087607950728, 
      "sanName": "kardinaalcardijnlaan", 
      "numOfAddr": 57, 
      "lonmax": 4.200255220178718, 
      "latmin": 51.12931943544628
    }, 
    {
      "latmax": 51.131919143531526, 
      "name": "Karel Aubroecklaan", 
      "lonmin": 4.216549239826452, 
      "sanName": "karelaubroecklaan", 
      "numOfAddr": 10, 
      "lonmax": 4.217870907785013, 
      "latmin": 51.131172187422656
    }, 
    {
      "latmax": 51.1272238057685, 
      "name": "Karel Nissensstraat", 
      "lonmin": 4.230350267590391, 
      "sanName": "karelnissensstraat", 
      "numOfAddr": 7, 
      "lonmax": 4.23147405949852, 
      "latmin": 51.12661082146531
    }, 
    {
      "latmax": 51.13376989897208, 
      "name": "Karel Suystraat", 
      "lonmin": 4.23311072084381, 
      "sanName": "karelsuystraat", 
      "numOfAddr": 7, 
      "lonmax": 4.234131097890762, 
      "latmin": 51.133179931907335
    }, 
    {
      "latmax": 51.13131597603644, 
      "name": "Karel Van Hoeylandtlaan", 
      "lonmin": 4.195554243809395, 
      "sanName": "karelvanhoeylandtlaan", 
      "numOfAddr": 43, 
      "lonmax": 4.199322988134427, 
      "latmin": 51.1302469225863
    }, 
    {
      "latmax": 51.12500730116668, 
      "name": "Kasteeldreef", 
      "lonmin": 4.221442334651769, 
      "sanName": "kasteeldreef", 
      "numOfAddr": 11, 
      "lonmax": 4.224221200105646, 
      "latmin": 51.124518269115434
    }, 
    {
      "latmax": 51.12494962442302, 
      "name": "Kasteelstraat", 
      "lonmin": 4.214506139564187, 
      "sanName": "kasteelstraat", 
      "numOfAddr": 95, 
      "lonmax": 4.222193699546143, 
      "latmin": 51.12377403451828
    }, 
    {
      "latmax": 51.1331843763613, 
      "name": "Kattebrug", 
      "lonmin": 4.221816010203658, 
      "sanName": "kattebrug", 
      "numOfAddr": 44, 
      "lonmax": 4.230138723681623, 
      "latmin": 51.1300807206858
    }, 
    {
      "latmax": 51.12968051583466, 
      "name": "Kerkhofstraat", 
      "lonmin": 4.2668444718908916, 
      "sanName": "kerkhofstraat", 
      "numOfAddr": 62, 
      "lonmax": 4.269638566710971, 
      "latmin": 51.127927071217414
    }, 
    {
      "latmax": 51.13866213223793, 
      "name": "Kerkstraat", 
      "lonmin": 4.166211927568403, 
      "sanName": "kerkstraat", 
      "numOfAddr": 107, 
      "lonmax": 4.176981530158888, 
      "latmin": 51.113551367675015
    }, 
    {
      "latmax": 51.13766466369772, 
      "name": "Kleine Dweersstraat", 
      "lonmin": 4.202398201611711, 
      "sanName": "kleinedweersstraat", 
      "numOfAddr": 76, 
      "lonmax": 4.209311000233422, 
      "latmin": 51.13448459554782
    }, 
    {
      "latmax": 51.12225422391589, 
      "name": "Klinknagelplein", 
      "lonmin": 4.203928144418012, 
      "sanName": "klinknagelplein", 
      "numOfAddr": 7, 
      "lonmax": 4.204873538896898, 
      "latmin": 51.12195130273744
    }, 
    {
      "latmax": 51.13451535159491, 
      "name": "Kloosterlaan", 
      "lonmin": 4.223347254413839, 
      "sanName": "kloosterlaan", 
      "numOfAddr": 24, 
      "lonmax": 4.225901824940002, 
      "latmin": 51.13177602571202
    }, 
    {
      "latmax": 51.13177602224969, 
      "name": "Koning Albertlaan", 
      "lonmin": 4.231260346852449, 
      "sanName": "koningalbertlaan", 
      "numOfAddr": 40, 
      "lonmax": 4.232795505049424, 
      "latmin": 51.13040577500083
    }, 
    {
      "latmax": 51.13282550490528, 
      "name": "Koning Boudewijnlaan", 
      "lonmin": 4.228298611142355, 
      "sanName": "koningboudewijnlaan", 
      "numOfAddr": 78, 
      "lonmax": 4.23042715801881, 
      "latmin": 51.13028211561787
    }, 
    {
      "latmax": 51.131064541522775, 
      "name": "Koningin Fabiolalaan", 
      "lonmin": 4.225896955561213, 
      "sanName": "koninginfabiolalaan", 
      "numOfAddr": 17, 
      "lonmax": 4.226934196380718, 
      "latmin": 51.12949678695227
    }, 
    {
      "latmax": 51.13144673117303, 
      "name": "Koningin Paolalaan", 
      "lonmin": 4.223829149608567, 
      "sanName": "koninginpaolalaan", 
      "numOfAddr": 20, 
      "lonmax": 4.22592866213436, 
      "latmin": 51.12962657805598
    }, 
    {
      "latmax": 51.13156209496079, 
      "name": "Koning Leopoldlaan", 
      "lonmin": 4.226440865611219, 
      "sanName": "koningleopoldlaan", 
      "numOfAddr": 48, 
      "lonmax": 4.228237085728563, 
      "latmin": 51.12943234524301
    }, 
    {
      "latmax": 51.112373491306606, 
      "name": "Korte Gewinde", 
      "lonmin": 4.175957632404842, 
      "sanName": "kortegewinde", 
      "numOfAddr": 4, 
      "lonmax": 4.176989839856208, 
      "latmin": 51.11149825827076
    }, 
    {
      "latmax": 51.15831617324947, 
      "name": "Korte Landmolenstraat", 
      "lonmin": 4.227262438731456, 
      "sanName": "kortelandmolenstraat", 
      "numOfAddr": 4, 
      "lonmax": 4.233343894066907, 
      "latmin": 51.15503455283313
    }, 
    {
      "latmax": 51.128100905700876, 
      "name": "Kouterstraat", 
      "lonmin": 4.213874644523937, 
      "sanName": "kouterstraat", 
      "numOfAddr": 61, 
      "lonmax": 4.217561955101514, 
      "latmin": 51.1272101804844
    }, 
    {
      "latmax": 51.143704326865524, 
      "name": "Kraakstraat", 
      "lonmin": 4.263733185319039, 
      "sanName": "kraakstraat", 
      "numOfAddr": 10, 
      "lonmax": 4.267389328397091, 
      "latmin": 51.14107987811646
    }, 
    {
      "latmax": 51.17489425344943, 
      "name": "Krekel", 
      "lonmin": 4.211720054979424, 
      "sanName": "krekel", 
      "numOfAddr": 28, 
      "lonmax": 4.221449105727666, 
      "latmin": 51.16988825650035
    }, 
    {
      "latmax": 51.12954951178092, 
      "name": "Krijgsbaan", 
      "lonmin": 4.224237855439026, 
      "sanName": "krijgsbaan", 
      "numOfAddr": 223, 
      "lonmax": 4.249223237395979, 
      "latmin": 51.128106326471816
    }, 
    {
      "latmax": 51.12008256428639, 
      "name": "Krimperslaan", 
      "lonmin": 4.199985328882305, 
      "sanName": "krimperslaan", 
      "numOfAddr": 6, 
      "lonmax": 4.201513175954981, 
      "latmin": 51.11865510154365
    }, 
    {
      "latmax": 51.135560895221666, 
      "name": "Kruisstraat", 
      "lonmin": 4.223101360370663, 
      "sanName": "kruisstraat", 
      "numOfAddr": 22, 
      "lonmax": 4.225652780167681, 
      "latmin": 51.134474960231664
    }, 
    {
      "latmax": 51.14592155013494, 
      "name": "Laagstraat", 
      "lonmin": 4.190404648739389, 
      "sanName": "laagstraat", 
      "numOfAddr": 38, 
      "lonmax": 4.196652320813133, 
      "latmin": 51.13473919285712
    }, 
    {
      "latmax": 51.126539197133404, 
      "name": "Landbouwstraat", 
      "lonmin": 4.146578786183123, 
      "sanName": "landbouwstraat", 
      "numOfAddr": 7, 
      "lonmax": 4.149547166450016, 
      "latmin": 51.11897889398621
    }, 
    {
      "latmax": 51.15826491224391, 
      "name": "Landmolenstraat", 
      "lonmin": 4.233868482649345, 
      "sanName": "landmolenstraat", 
      "numOfAddr": 39, 
      "lonmax": 4.243123884308461, 
      "latmin": 51.14263227099936
    }, 
    {
      "latmax": 51.12523104939945, 
      "name": "Land van Waaslaan", 
      "lonmin": 4.2686956488051875, 
      "sanName": "landvanwaaslaan", 
      "numOfAddr": 16, 
      "lonmax": 4.269723320943422, 
      "latmin": 51.12439733023527
    }, 
    {
      "latmax": 51.12061567971561, 
      "name": "Langebaan", 
      "lonmin": 4.185812534453697, 
      "sanName": "langebaan", 
      "numOfAddr": 57, 
      "lonmax": 4.188441151082034, 
      "latmin": 51.117468003283314
    }, 
    {
      "latmax": 51.12288144767009, 
      "name": "Lasserslaan", 
      "lonmin": 4.203849973153248, 
      "sanName": "lasserslaan", 
      "numOfAddr": 24, 
      "lonmax": 4.205811213827999, 
      "latmin": 51.12162708107226
    }, 
    {
      "latmax": 51.142450983578044, 
      "name": "Lauwershoek", 
      "lonmin": 4.237765775584022, 
      "sanName": "lauwershoek", 
      "numOfAddr": 26, 
      "lonmax": 4.241888422147613, 
      "latmin": 51.14123421402541
    }, 
    {
      "latmax": 51.119201681613006, 
      "name": "Leemstraat", 
      "lonmin": 4.187153943842178, 
      "sanName": "leemstraat", 
      "numOfAddr": 26, 
      "lonmax": 4.188741215132957, 
      "latmin": 51.117756060048855
    }, 
    {
      "latmax": 51.115282066868026, 
      "name": "Legen Heirweg", 
      "lonmin": 4.1435354290946265, 
      "sanName": "legenheirweg", 
      "numOfAddr": 151, 
      "lonmax": 4.159181145178495, 
      "latmin": 51.11263582891397
    }, 
    {
      "latmax": 51.12634093534981, 
      "name": "Leie", 
      "lonmin": 4.204364381404299, 
      "sanName": "leie", 
      "numOfAddr": 39, 
      "lonmax": 4.207018720558807, 
      "latmin": 51.125705728505054
    }, 
    {
      "latmax": 51.12655294862321, 
      "name": "Leiedam", 
      "lonmin": 4.205372811748202, 
      "sanName": "leiedam", 
      "numOfAddr": 5, 
      "lonmax": 4.205737272774384, 
      "latmin": 51.126338510961084
    }, 
    {
      "latmax": 51.13527355347857, 
      "name": "Leon Corthalsstraat", 
      "lonmin": 4.233610725822148, 
      "sanName": "leoncorthalsstraat", 
      "numOfAddr": 11, 
      "lonmax": 4.234815527532551, 
      "latmin": 51.13427503576561
    }, 
    {
      "latmax": 51.1260814266483, 
      "name": "Lepelstraat", 
      "lonmin": 4.272330831513262, 
      "sanName": "lepelstraat", 
      "numOfAddr": 55, 
      "lonmax": 4.282573096302677, 
      "latmin": 51.12418059922032
    }, 
    {
      "latmax": 51.12420626848557, 
      "name": "Lijsterbeslaan", 
      "lonmin": 4.183941802145898, 
      "sanName": "lijsterbeslaan", 
      "numOfAddr": 22, 
      "lonmax": 4.185121362787381, 
      "latmin": 51.122902651265534
    }, 
    {
      "latmax": 51.120563258273165, 
      "name": "Loodsdreef", 
      "lonmin": 4.186252813894653, 
      "sanName": "loodsdreef", 
      "numOfAddr": 21, 
      "lonmax": 4.187416490731481, 
      "latmin": 51.119302443098164
    }, 
    {
      "latmax": 51.16952879760523, 
      "name": "Luiseekdam", 
      "lonmin": 4.214814666447759, 
      "sanName": "luiseekdam", 
      "numOfAddr": 11, 
      "lonmax": 4.220235094519066, 
      "latmin": 51.167582960918594
    }, 
    {
      "latmax": 51.170948774226645, 
      "name": "Luiseekstraat", 
      "lonmin": 4.2142122725884885, 
      "sanName": "luiseekstraat", 
      "numOfAddr": 17, 
      "lonmax": 4.230993838734838, 
      "latmin": 51.16626931154766
    }, 
    {
      "latmax": 51.14353886427811, 
      "name": "Luxemburgstraat", 
      "lonmin": 4.186271930992082, 
      "sanName": "luxemburgstraat", 
      "numOfAddr": 11, 
      "lonmax": 4.189282734939544, 
      "latmin": 51.14110995715483
    }, 
    {
      "latmax": 51.135026847279455, 
      "name": "Magnolialaan", 
      "lonmin": 4.268288775257766, 
      "sanName": "magnolialaan", 
      "numOfAddr": 31, 
      "lonmax": 4.272739146671819, 
      "latmin": 51.13334616054383
    }, 
    {
      "latmax": 51.12960254171361, 
      "name": "Mariadal", 
      "lonmin": 4.213488010591513, 
      "sanName": "mariadal", 
      "numOfAddr": 32, 
      "lonmax": 4.214808086766465, 
      "latmin": 51.12871739722838
    }, 
    {
      "latmax": 51.12467465362842, 
      "name": "Markt", 
      "lonmin": 4.212788736881475, 
      "sanName": "markt", 
      "numOfAddr": 31, 
      "lonmax": 4.2149104383880065, 
      "latmin": 51.12344989125508
    }, 
    {
      "latmax": 51.11384951885268, 
      "name": "Meersstraat", 
      "lonmin": 4.133618904034523, 
      "sanName": "meersstraat", 
      "numOfAddr": 25, 
      "lonmax": 4.134530169971769, 
      "latmin": 51.11184430811252
    }, 
    {
      "latmax": 51.12445162788095, 
      "name": "Meidoornlaan", 
      "lonmin": 4.1868647890000465, 
      "sanName": "meidoornlaan", 
      "numOfAddr": 10, 
      "lonmax": 4.18872277436453, 
      "latmin": 51.12402794415625
    }, 
    {
      "latmax": 51.11337891951634, 
      "name": "Merenwegel", 
      "lonmin": 4.144433684145236, 
      "sanName": "merenwegel", 
      "numOfAddr": 4, 
      "lonmax": 4.145642586032071, 
      "latmin": 51.112706408316186
    }, 
    {
      "latmax": 51.135673794552666, 
      "name": "Molenstraat", 
      "lonmin": 4.171920039046585, 
      "sanName": "molenstraat", 
      "numOfAddr": 33, 
      "lonmax": 4.183665667233128, 
      "latmin": 51.114797107090446
    }, 
    {
      "latmax": 51.1362951490102, 
      "name": "Molstraat", 
      "lonmin": 4.269034844109649, 
      "sanName": "molstraat", 
      "numOfAddr": 35, 
      "lonmax": 4.27440349199253, 
      "latmin": 51.135642342910074
    }, 
    {
      "latmax": 51.123404842344534, 
      "name": "Monteerderslaan", 
      "lonmin": 4.208948810004399, 
      "sanName": "monteerderslaan", 
      "numOfAddr": 2, 
      "lonmax": 4.208959382971523, 
      "latmin": 51.12336383944394
    }, 
    {
      "latmax": 51.12121015957545, 
      "name": "Moortelstraat", 
      "lonmin": 4.157650027228483, 
      "sanName": "moortelstraat", 
      "numOfAddr": 36, 
      "lonmax": 4.160081583772641, 
      "latmin": 51.1148219822357
    }, 
    {
      "latmax": 51.12571764006373, 
      "name": "Muntstraat", 
      "lonmin": 4.2721817427311946, 
      "sanName": "muntstraat", 
      "numOfAddr": 24, 
      "lonmax": 4.273365657543211, 
      "latmin": 51.12482294369491
    }, 
    {
      "latmax": 51.124645086616894, 
      "name": "Nagelheetmakerslaan", 
      "lonmin": 4.211768073968834, 
      "sanName": "nagelheetmakerslaan", 
      "numOfAddr": 1, 
      "lonmax": 4.211768073968834, 
      "latmin": 51.124645086616894
    }, 
    {
      "latmax": 51.13488798608448, 
      "name": "Narcissenlaan", 
      "lonmin": 4.272699103361872, 
      "sanName": "narcissenlaan", 
      "numOfAddr": 26, 
      "lonmax": 4.275504415428316, 
      "latmin": 51.1339108465356
    }, 
    {
      "latmax": 51.14359947038408, 
      "name": "Nederlandstraat", 
      "lonmin": 4.189046872090763, 
      "sanName": "nederlandstraat", 
      "numOfAddr": 1, 
      "lonmax": 4.189046872090763, 
      "latmin": 51.14359947038408
    }, 
    {
      "latmax": 51.129202403323156, 
      "name": "Negenoogstraat", 
      "lonmin": 4.249510293831264, 
      "sanName": "negenoogstraat", 
      "numOfAddr": 45, 
      "lonmax": 4.253460584483203, 
      "latmin": 51.127280718939495
    }, 
    {
      "latmax": 51.13204727514558, 
      "name": "Nieuwe Steenweg", 
      "lonmin": 4.142103573368963, 
      "sanName": "nieuwesteenweg", 
      "numOfAddr": 103, 
      "lonmax": 4.146446614361257, 
      "latmin": 51.11446681403619
    }, 
    {
      "latmax": 51.123786563295724, 
      "name": "Nijsstraat", 
      "lonmin": 4.217313205660104, 
      "sanName": "nijsstraat", 
      "numOfAddr": 27, 
      "lonmax": 4.21861386699907, 
      "latmin": 51.12338854159936
    }, 
    {
      "latmax": 51.130827773210754, 
      "name": "Nijverheidstraat", 
      "lonmin": 4.2173258411557955, 
      "sanName": "nijverheidstraat", 
      "numOfAddr": 65, 
      "lonmax": 4.219560306606047, 
      "latmin": 51.13008366721007
    }, 
    {
      "latmax": 51.13245522466038, 
      "name": "Nini Bulterysstraat", 
      "lonmin": 4.203630508383745, 
      "sanName": "ninibulterysstraat", 
      "numOfAddr": 19, 
      "lonmax": 4.204983138700349, 
      "latmin": 51.13173427868554
    }, 
    {
      "latmax": 51.12814852706551, 
      "name": "Oeverdam", 
      "lonmin": 4.270025452472676, 
      "sanName": "oeverdam", 
      "numOfAddr": 6, 
      "lonmax": 4.270578139563078, 
      "latmin": 51.12808352119406
    }, 
    {
      "latmax": 51.12628963805137, 
      "name": "Oeverstraat", 
      "lonmin": 4.207543146995981, 
      "sanName": "oeverstraat", 
      "numOfAddr": 98, 
      "lonmax": 4.213163945763739, 
      "latmin": 51.12447801844095
    }, 
    {
      "latmax": 51.12682817854321, 
      "name": "Olmenlaan", 
      "lonmin": 4.27267290905193, 
      "sanName": "olmenlaan", 
      "numOfAddr": 14, 
      "lonmax": 4.273588576032736, 
      "latmin": 51.12600138206724
    }, 
    {
      "latmax": 51.12823927077497, 
      "name": "Oostberg", 
      "lonmin": 4.231093436837703, 
      "sanName": "oostberg", 
      "numOfAddr": 119, 
      "lonmax": 4.249027045291859, 
      "latmin": 51.12501081623284
    }, 
    {
      "latmax": 51.12703202393341, 
      "name": "Oostbergdreef", 
      "lonmin": 4.232702187509443, 
      "sanName": "oostbergdreef", 
      "numOfAddr": 13, 
      "lonmax": 4.234249964445007, 
      "latmin": 51.12589869272106
    }, 
    {
      "latmax": 51.12316485309905, 
      "name": "Orlaylaan", 
      "lonmin": 4.200014126159539, 
      "sanName": "orlaylaan", 
      "numOfAddr": 13, 
      "lonmax": 4.203856736914826, 
      "latmin": 51.12020136412215
    }, 
    {
      "latmax": 51.13307664039398, 
      "name": "Oscar Van Durmelaan", 
      "lonmin": 4.20848811554528, 
      "sanName": "oscarvandurmelaan", 
      "numOfAddr": 15, 
      "lonmax": 4.209376432598502, 
      "latmin": 51.13211465507457
    }, 
    {
      "latmax": 51.13812238382451, 
      "name": "Oude Heirbaan", 
      "lonmin": 4.154753598726388, 
      "sanName": "oudeheirbaan", 
      "numOfAddr": 20, 
      "lonmax": 4.161677835040411, 
      "latmin": 51.135150299090505
    }, 
    {
      "latmax": 51.1309116640597, 
      "name": "Oudestraat", 
      "lonmin": 4.136706588966495, 
      "sanName": "oudestraat", 
      "numOfAddr": 10, 
      "lonmax": 4.141268683094174, 
      "latmin": 51.12335270630097
    }, 
    {
      "latmax": 51.118988456379476, 
      "name": "Ovenvierdreef", 
      "lonmin": 4.190367568923142, 
      "sanName": "ovenvierdreef", 
      "numOfAddr": 29, 
      "lonmax": 4.191815227750287, 
      "latmin": 51.11812701633538
    }, 
    {
      "latmax": 51.11765524667809, 
      "name": "Ovenvijfweg", 
      "lonmin": 4.188727451731334, 
      "sanName": "ovenvijfweg", 
      "numOfAddr": 19, 
      "lonmax": 4.189755571784891, 
      "latmin": 51.11704949264083
    }, 
    {
      "latmax": 51.125237636500195, 
      "name": "Oversprongstraat", 
      "lonmin": 4.182861891191376, 
      "sanName": "oversprongstraat", 
      "numOfAddr": 10, 
      "lonmax": 4.189005375741892, 
      "latmin": 51.12375219467147
    }, 
    {
      "latmax": 51.1483965217084, 
      "name": "Pachtgoedstraat", 
      "lonmin": 4.190649899577557, 
      "sanName": "pachtgoedstraat", 
      "numOfAddr": 5, 
      "lonmax": 4.192454547530608, 
      "latmin": 51.146347012986254
    }, 
    {
      "latmax": 51.124715961557385, 
      "name": "Paneellaan", 
      "lonmin": 4.207251855302748, 
      "sanName": "paneellaan", 
      "numOfAddr": 29, 
      "lonmax": 4.209471579535612, 
      "latmin": 51.12366418675552
    }, 
    {
      "latmax": 51.12870391359632, 
      "name": "Parklaan", 
      "lonmin": 4.222292851715415, 
      "sanName": "parklaan", 
      "numOfAddr": 29, 
      "lonmax": 4.2251426017184, 
      "latmin": 51.1251317224608
    }, 
    {
      "latmax": 51.127706917553326, 
      "name": "Pastoor Boelstraat", 
      "lonmin": 4.210749295018007, 
      "sanName": "pastoorboelstraat", 
      "numOfAddr": 45, 
      "lonmax": 4.213418518444963, 
      "latmin": 51.127111760139435
    }, 
    {
      "latmax": 51.112713465932586, 
      "name": "Pastorijstraat", 
      "lonmin": 4.173308711507825, 
      "sanName": "pastorijstraat", 
      "numOfAddr": 13, 
      "lonmax": 4.173494353601572, 
      "latmin": 51.11206652673235
    }, 
    {
      "latmax": 51.12361301124752, 
      "name": "Paswerkerslaan", 
      "lonmin": 4.206772540611322, 
      "sanName": "paswerkerslaan", 
      "numOfAddr": 4, 
      "lonmax": 4.207829915845079, 
      "latmin": 51.1227185517906
    }, 
    {
      "latmax": 51.12718719772844, 
      "name": "Paterstraat", 
      "lonmin": 4.21055518704793, 
      "sanName": "paterstraat", 
      "numOfAddr": 64, 
      "lonmax": 4.212225710099992, 
      "latmin": 51.12540549887936
    }, 
    {
      "latmax": 51.12229818054288, 
      "name": "Peter Benoitlaan", 
      "lonmin": 4.198134021649564, 
      "sanName": "peterbenoitlaan", 
      "numOfAddr": 23, 
      "lonmax": 4.199545096337693, 
      "latmin": 51.12164208207212
    }, 
    {
      "latmax": 51.12706107063537, 
      "name": "Philemon Haumanstraat", 
      "lonmin": 4.219040031948438, 
      "sanName": "philemonhaumanstraat", 
      "numOfAddr": 99, 
      "lonmax": 4.219933032291993, 
      "latmin": 51.124446226069054
    }, 
    {
      "latmax": 51.123412067967244, 
      "name": "Philippe Saveryslaan", 
      "lonmin": 4.206604289656455, 
      "sanName": "philippesaveryslaan", 
      "numOfAddr": 15, 
      "lonmax": 4.209926233257199, 
      "latmin": 51.12117542457741
    }, 
    {
      "latmax": 51.13191639111527, 
      "name": "Pieter Dierckxlaan", 
      "lonmin": 4.2001084368100665, 
      "sanName": "pieterdierckxlaan", 
      "numOfAddr": 65, 
      "lonmax": 4.203680804407262, 
      "latmin": 51.12945533587245
    }, 
    {
      "latmax": 51.133645019855216, 
      "name": "Piet Nutenlaan", 
      "lonmin": 4.207396246627459, 
      "sanName": "pietnutenlaan", 
      "numOfAddr": 32, 
      "lonmax": 4.211202392840544, 
      "latmin": 51.132652310095494
    }, 
    {
      "latmax": 51.11653496373751, 
      "name": "Polderstraat", 
      "lonmin": 4.188091360900193, 
      "sanName": "polderstraat", 
      "numOfAddr": 23, 
      "lonmax": 4.189167104855665, 
      "latmin": 51.11571560286501
    }, 
    {
      "latmax": 51.11317979776471, 
      "name": "Pontweg", 
      "lonmin": 4.14226234232765, 
      "sanName": "pontweg", 
      "numOfAddr": 9, 
      "lonmax": 4.144150893568577, 
      "latmin": 51.11037630529707
    }, 
    {
      "latmax": 51.143072398944064, 
      "name": "Potaardestraat", 
      "lonmin": 4.223714702621435, 
      "sanName": "potaardestraat", 
      "numOfAddr": 99, 
      "lonmax": 4.227532674942994, 
      "latmin": 51.132509675407846
    }, 
    {
      "latmax": 51.115722642281995, 
      "name": "Priesterage", 
      "lonmin": 4.14020397985137, 
      "sanName": "priesterage", 
      "numOfAddr": 18, 
      "lonmax": 4.141908090363055, 
      "latmin": 51.11460325497065
    }, 
    {
      "latmax": 51.12434412056547, 
      "name": "Priester Poppestraat", 
      "lonmin": 4.215363575050444, 
      "sanName": "priesterpoppestraat", 
      "numOfAddr": 32, 
      "lonmax": 4.216135682455621, 
      "latmin": 51.123487481253136
    }, 
    {
      "latmax": 51.13191581359321, 
      "name": "Prinsenlaan", 
      "lonmin": 4.226597555592247, 
      "sanName": "prinsenlaan", 
      "numOfAddr": 51, 
      "lonmax": 4.230777242488154, 
      "latmin": 51.129018840665765
    }, 
    {
      "latmax": 51.11576188882389, 
      "name": "Reekstraat", 
      "lonmin": 4.185961813241224, 
      "sanName": "reekstraat", 
      "numOfAddr": 7, 
      "lonmax": 4.1863875982275385, 
      "latmin": 51.11453288149511
    }, 
    {
      "latmax": 51.127495782033336, 
      "name": "Roeland Lef\u008avrestraat", 
      "lonmin": 4.198566389758411, 
      "sanName": "roelandlefvrestraat", 
      "numOfAddr": 31, 
      "lonmax": 4.200440890621111, 
      "latmin": 51.125996679356696
    }, 
    {
      "latmax": 51.12056718445235, 
      "name": "Romeinseweg", 
      "lonmin": 4.190676355273215, 
      "sanName": "romeinseweg", 
      "numOfAddr": 19, 
      "lonmax": 4.192293137554808, 
      "latmin": 51.11974331811281
    }, 
    {
      "latmax": 51.11381293029565, 
      "name": "Roomakkerwegel", 
      "lonmin": 4.175735427602111, 
      "sanName": "roomakkerwegel", 
      "numOfAddr": 5, 
      "lonmax": 4.1758454806181415, 
      "latmin": 51.11352359066867
    }, 
    {
      "latmax": 51.12017913413054, 
      "name": "Rotstraat", 
      "lonmin": 4.15209280759494, 
      "sanName": "rotstraat", 
      "numOfAddr": 16, 
      "lonmax": 4.155721568676775, 
      "latmin": 51.1186481897651
    }, 
    {
      "latmax": 51.1272391399938, 
      "name": "Rozenlaan", 
      "lonmin": 4.196156496399504, 
      "sanName": "rozenlaan", 
      "numOfAddr": 88, 
      "lonmax": 4.20081167521169, 
      "latmin": 51.123143092100406
    }, 
    {
      "latmax": 51.13784675287351, 
      "name": "Ruisstraat", 
      "lonmin": 4.171395099648935, 
      "sanName": "ruisstraat", 
      "numOfAddr": 119, 
      "lonmax": 4.1886557883276225, 
      "latmin": 51.11683607253514
    }, 
    {
      "latmax": 51.1496197597806, 
      "name": "Rupelmondestraat", 
      "lonmin": 4.21662862423955, 
      "sanName": "rupelmondestraat", 
      "numOfAddr": 50, 
      "lonmax": 4.2313932139491, 
      "latmin": 51.14442545089094
    }, 
    {
      "latmax": 51.133899584354246, 
      "name": "Salvialaan", 
      "lonmin": 4.270936958300753, 
      "sanName": "salvialaan", 
      "numOfAddr": 51, 
      "lonmax": 4.276223025337469, 
      "latmin": 51.1324621953476
    }, 
    {
      "latmax": 51.14161723320347, 
      "name": "Schauselhoekstraat", 
      "lonmin": 4.240896621726377, 
      "sanName": "schauselhoekstraat", 
      "numOfAddr": 32, 
      "lonmax": 4.24683503795774, 
      "latmin": 51.13332699301018
    }, 
    {
      "latmax": 51.127669467317865, 
      "name": "Scheldestraat", 
      "lonmin": 4.214499956367199, 
      "sanName": "scheldestraat", 
      "numOfAddr": 106, 
      "lonmax": 4.2176772359444215, 
      "latmin": 51.12480488871291
    }, 
    {
      "latmax": 51.152172970828204, 
      "name": "Schoenstraat", 
      "lonmin": 4.193700206765057, 
      "sanName": "schoenstraat", 
      "numOfAddr": 41, 
      "lonmax": 4.206902463432029, 
      "latmin": 51.137150116763834
    }, 
    {
      "latmax": 51.127677634646965, 
      "name": "Schoolstraat", 
      "lonmin": 4.204287783933191, 
      "sanName": "schoolstraat", 
      "numOfAddr": 134, 
      "lonmax": 4.210585358555883, 
      "latmin": 51.1264488780181
    }, 
    {
      "latmax": 51.133699801505415, 
      "name": "Schrijnstraat", 
      "lonmin": 4.177517501112444, 
      "sanName": "schrijnstraat", 
      "numOfAddr": 3, 
      "lonmax": 4.184558809795075, 
      "latmin": 51.13318267911037
    }, 
    {
      "latmax": 51.11916769764391, 
      "name": "Schrijnwerkerslaan", 
      "lonmin": 4.198171357598647, 
      "sanName": "schrijnwerkerslaan", 
      "numOfAddr": 2, 
      "lonmax": 4.19928079442791, 
      "latmin": 51.118495762620945
    }, 
    {
      "latmax": 51.11359600481099, 
      "name": "Schuttershof", 
      "lonmin": 4.134922073592097, 
      "sanName": "schuttershof", 
      "numOfAddr": 53, 
      "lonmax": 4.137367279099739, 
      "latmin": 51.1122997921696
    }, 
    {
      "latmax": 51.12290615254257, 
      "name": "Scouselestraat", 
      "lonmin": 4.256025916471296, 
      "sanName": "scouselestraat", 
      "numOfAddr": 24, 
      "lonmax": 4.262246121577733, 
      "latmin": 51.122166029406095
    }, 
    {
      "latmax": 51.135582627602574, 
      "name": "S.G. Boereboomstraat", 
      "lonmin": 4.1748485764502945, 
      "sanName": "sgboereboomstraat", 
      "numOfAddr": 3, 
      "lonmax": 4.1755074831234475, 
      "latmin": 51.13540546195413
    }, 
    {
      "latmax": 51.12657293431299, 
      "name": "Sint-Amelbergalaan", 
      "lonmin": 4.196931453468318, 
      "sanName": "sintamelbergalaan", 
      "numOfAddr": 93, 
      "lonmax": 4.202816064511076, 
      "latmin": 51.12275620556155
    }, 
    {
      "latmax": 51.1284948142311, 
      "name": "Sint-Jorisstraat", 
      "lonmin": 4.224655498817997, 
      "sanName": "sintjorisstraat", 
      "numOfAddr": 138, 
      "lonmax": 4.229738816444664, 
      "latmin": 51.12479253613651
    }, 
    {
      "latmax": 51.12645456896699, 
      "name": "Sint-Sebastiaanstraat", 
      "lonmin": 4.216307540773451, 
      "sanName": "sintsebastiaanstraat", 
      "numOfAddr": 7, 
      "lonmax": 4.217194084606114, 
      "latmin": 51.12537208822557
    }, 
    {
      "latmax": 51.12317916051142, 
      "name": "Smederijplein", 
      "lonmin": 4.205487930487491, 
      "sanName": "smederijplein", 
      "numOfAddr": 12, 
      "lonmax": 4.20637442555713, 
      "latmin": 51.12262596880686
    }, 
    {
      "latmax": 51.13500460593708, 
      "name": "Smesstraat", 
      "lonmin": 4.185232682969963, 
      "sanName": "smesstraat", 
      "numOfAddr": 95, 
      "lonmax": 4.195991673758239, 
      "latmin": 51.12049075541735
    }, 
    {
      "latmax": 51.12684245059989, 
      "name": "Sparrenlaan", 
      "lonmin": 4.274571218921591, 
      "sanName": "sparrenlaan", 
      "numOfAddr": 16, 
      "lonmax": 4.2763816004483415, 
      "latmin": 51.12555831099306
    }, 
    {
      "latmax": 51.12022316232355, 
      "name": "Speeltuinweg", 
      "lonmin": 4.187170294420658, 
      "sanName": "speeltuinweg", 
      "numOfAddr": 20, 
      "lonmax": 4.188235040525181, 
      "latmin": 51.11947347046751
    }, 
    {
      "latmax": 51.131081324926754, 
      "name": "Spoorweglaan", 
      "lonmin": 4.220602162372981, 
      "sanName": "spoorweglaan", 
      "numOfAddr": 43, 
      "lonmax": 4.223264121040609, 
      "latmin": 51.12945991217029
    }, 
    {
      "latmax": 51.126410544179365, 
      "name": "Stationsplein", 
      "lonmin": 4.221416684402242, 
      "sanName": "stationsplein", 
      "numOfAddr": 4, 
      "lonmax": 4.221752339551365, 
      "latmin": 51.12546130194446
    }, 
    {
      "latmax": 51.1268242628376, 
      "name": "Stationsstraat", 
      "lonmin": 4.219887567070098, 
      "sanName": "stationsstraat", 
      "numOfAddr": 34, 
      "lonmax": 4.220525462299493, 
      "latmin": 51.12453244715357
    }, 
    {
      "latmax": 51.11930897152901, 
      "name": "Steenbakkersweg", 
      "lonmin": 4.1875988803647335, 
      "sanName": "steenbakkersweg", 
      "numOfAddr": 27, 
      "lonmax": 4.189097240856395, 
      "latmin": 51.11790810821731
    }, 
    {
      "latmax": 51.16298547549339, 
      "name": "Steendonkstraat", 
      "lonmin": 4.209338987279402, 
      "sanName": "steendonkstraat", 
      "numOfAddr": 54, 
      "lonmax": 4.2363144082638, 
      "latmin": 51.15907066143153
    }, 
    {
      "latmax": 51.135039525175635, 
      "name": "Steenweg Hulst-Lessen", 
      "lonmin": 4.1312816168108375, 
      "sanName": "steenweghulstlessen", 
      "numOfAddr": 83, 
      "lonmax": 4.153858018970444, 
      "latmin": 51.129040184703896
    }, 
    {
      "latmax": 51.12235822338725, 
      "name": "Stellingmakerslaan", 
      "lonmin": 4.203060007603133, 
      "sanName": "stellingmakerslaan", 
      "numOfAddr": 27, 
      "lonmax": 4.205040711605422, 
      "latmin": 51.12114985481044
    }, 
    {
      "latmax": 51.13014260503821, 
      "name": "Sterstraat", 
      "lonmin": 4.268428565222195, 
      "sanName": "sterstraat", 
      "numOfAddr": 9, 
      "lonmax": 4.269030388142787, 
      "latmin": 51.129834935759774
    }, 
    {
      "latmax": 51.112582609750625, 
      "name": "St.-Jozefstraat", 
      "lonmin": 4.174058797608506, 
      "sanName": "stjozefstraat", 
      "numOfAddr": 36, 
      "lonmax": 4.17565012882554, 
      "latmin": 51.11034882515741
    }, 
    {
      "latmax": 51.11682557363515, 
      "name": "St. Margrietstraat", 
      "lonmin": 4.132643418306071, 
      "sanName": "stmargrietstraat", 
      "numOfAddr": 19, 
      "lonmax": 4.134581190040675, 
      "latmin": 51.11441261161181
    }, 
    {
      "latmax": 51.12931617978784, 
      "name": "Stokthoekstraat", 
      "lonmin": 4.131479275766693, 
      "sanName": "stokthoekstraat", 
      "numOfAddr": 54, 
      "lonmax": 4.135519435546623, 
      "latmin": 51.123446702652316
    }, 
    {
      "latmax": 51.15611990568911, 
      "name": "Sweigers-Noord", 
      "lonmin": 4.203465622124047, 
      "sanName": "sweigersnoord", 
      "numOfAddr": 22, 
      "lonmax": 4.211619220269726, 
      "latmin": 51.15379570365555
    }, 
    {
      "latmax": 51.150472662122354, 
      "name": "Sweigers-Zuid", 
      "lonmin": 4.207493409929199, 
      "sanName": "sweigerszuid", 
      "numOfAddr": 15, 
      "lonmax": 4.213032327603208, 
      "latmin": 51.14309910811967
    }, 
    {
      "latmax": 51.123213392235556, 
      "name": "Tekenaarslaan", 
      "lonmin": 4.204006590169883, 
      "sanName": "tekenaarslaan", 
      "numOfAddr": 2, 
      "lonmax": 4.204043263277933, 
      "latmin": 51.12320336374932
    }, 
    {
      "latmax": 51.13281885307537, 
      "name": "Temsestraat", 
      "lonmin": 4.277827215966911, 
      "sanName": "temsestraat", 
      "numOfAddr": 4, 
      "lonmax": 4.279243608649452, 
      "latmin": 51.13219215720004
    }, 
    {
      "latmax": 51.12582343622494, 
      "name": "'t Foort", 
      "lonmin": 4.218283382762608, 
      "sanName": "tfoort", 
      "numOfAddr": 20, 
      "lonmax": 4.219315052155146, 
      "latmin": 51.12510051119319
    }, 
    {
      "latmax": 51.13373321543953, 
      "name": "Theo De Deckerlaan", 
      "lonmin": 4.206113862423953, 
      "sanName": "theodedeckerlaan", 
      "numOfAddr": 45, 
      "lonmax": 4.208792408524084, 
      "latmin": 51.130650199072626
    }, 
    {
      "latmax": 51.131631747681496, 
      "name": "Tony Van Oslaan", 
      "lonmin": 4.214408681775383, 
      "sanName": "tonyvanoslaan", 
      "numOfAddr": 21, 
      "lonmax": 4.215674836519581, 
      "latmin": 51.131036395469614
    }, 
    {
      "latmax": 51.127684734605296, 
      "name": "Triphon De Smetstraat", 
      "lonmin": 4.230792153146985, 
      "sanName": "triphondesmetstraat", 
      "numOfAddr": 11, 
      "lonmax": 4.233362735170054, 
      "latmin": 51.125989788813555
    }, 
    {
      "latmax": 51.126178383335116, 
      "name": "Tulpenlaan", 
      "lonmin": 4.193799504771849, 
      "sanName": "tulpenlaan", 
      "numOfAddr": 54, 
      "lonmax": 4.195818106833878, 
      "latmin": 51.124249459066114
    }, 
    {
      "latmax": 51.126967658365224, 
      "name": "Uilenberg", 
      "lonmin": 4.225953378537044, 
      "sanName": "uilenberg", 
      "numOfAddr": 47, 
      "lonmax": 4.2294871373532565, 
      "latmin": 51.1252319339888
    }, 
    {
      "latmax": 51.12435594544547, 
      "name": "Veerstraat", 
      "lonmin": 4.216351911993732, 
      "sanName": "veerstraat", 
      "numOfAddr": 22, 
      "lonmax": 4.216799979111566, 
      "latmin": 51.12371899505018
    }, 
    {
      "latmax": 51.161196097118975, 
      "name": "Veldstraat", 
      "lonmin": 4.208756762903513, 
      "sanName": "veldstraat", 
      "numOfAddr": 236, 
      "lonmax": 4.2233827940507735, 
      "latmin": 51.131045566269755
    }, 
    {
      "latmax": 51.161471898129186, 
      "name": "Velle", 
      "lonmin": 4.201448917955739, 
      "sanName": "velle", 
      "numOfAddr": 136, 
      "lonmax": 4.209106130185461, 
      "latmin": 51.154925956317896
    }, 
    {
      "latmax": 51.130814750098786, 
      "name": "Verbindingsstraat", 
      "lonmin": 4.21724538821801, 
      "sanName": "verbindingsstraat", 
      "numOfAddr": 2, 
      "lonmax": 4.217635004746507, 
      "latmin": 51.13051897363159
    }, 
    {
      "latmax": 51.12690680357139, 
      "name": "Verzusteringslaan", 
      "lonmin": 4.225172538117026, 
      "sanName": "verzusteringslaan", 
      "numOfAddr": 7, 
      "lonmax": 4.225986082841364, 
      "latmin": 51.12646364273246
    }, 
    {
      "latmax": 51.11390540173534, 
      "name": "Vestwegel", 
      "lonmin": 4.1342721803041895, 
      "sanName": "vestwegel", 
      "numOfAddr": 7, 
      "lonmax": 4.137711438583112, 
      "latmin": 51.112930137559516
    }, 
    {
      "latmax": 51.12870657263323, 
      "name": "Viadukt", 
      "lonmin": 4.220062639246538, 
      "sanName": "viadukt", 
      "numOfAddr": 12, 
      "lonmax": 4.220251830902354, 
      "latmin": 51.12797951044034
    }, 
    {
      "latmax": 51.128358838051504, 
      "name": "Vijfhuizenstraat", 
      "lonmin": 4.239264802555294, 
      "sanName": "vijfhuizenstraat", 
      "numOfAddr": 24, 
      "lonmax": 4.240937916395697, 
      "latmin": 51.12590681046487
    }, 
    {
      "latmax": 51.12598338400438, 
      "name": "Vlaanderenlaan", 
      "lonmin": 4.26838934026604, 
      "sanName": "vlaanderenlaan", 
      "numOfAddr": 8, 
      "lonmax": 4.268686157720451, 
      "latmin": 51.125298324393114
    }, 
    {
      "latmax": 51.1257180247511, 
      "name": "Vlietdam", 
      "lonmin": 4.21566696192081, 
      "sanName": "vlietdam", 
      "numOfAddr": 10, 
      "lonmax": 4.218246062232648, 
      "latmin": 51.124955675701024
    }, 
    {
      "latmax": 51.13382035906128, 
      "name": "Vogelzang", 
      "lonmin": 4.199580699111758, 
      "sanName": "vogelzang", 
      "numOfAddr": 9, 
      "lonmax": 4.2003767464950315, 
      "latmin": 51.1331599583078
    }, 
    {
      "latmax": 51.130201087235186, 
      "name": "Volksplaats", 
      "lonmin": 4.216612251201046, 
      "sanName": "volksplaats", 
      "numOfAddr": 43, 
      "lonmax": 4.217821935967663, 
      "latmin": 51.12942518597062
    }, 
    {
      "latmax": 51.13054448321048, 
      "name": "Vooruitgangstraat", 
      "lonmin": 4.213120990899411, 
      "sanName": "vooruitgangstraat", 
      "numOfAddr": 114, 
      "lonmax": 4.216983790244827, 
      "latmin": 51.12948545202764
    }, 
    {
      "latmax": 51.13006195035835, 
      "name": "Vredestraat", 
      "lonmin": 4.195852371139396, 
      "sanName": "vredestraat", 
      "numOfAddr": 27, 
      "lonmax": 4.197321075755063, 
      "latmin": 51.129600223380315
    }, 
    {
      "latmax": 51.13003461408851, 
      "name": "Vrijheidstraat", 
      "lonmin": 4.217484115677632, 
      "sanName": "vrijheidstraat", 
      "numOfAddr": 60, 
      "lonmax": 4.219957884217692, 
      "latmin": 51.12769230272499
    }, 
    {
      "latmax": 51.13205590615476, 
      "name": "Vroonhoflaan", 
      "lonmin": 4.213048407590406, 
      "sanName": "vroonhoflaan", 
      "numOfAddr": 26, 
      "lonmax": 4.216520383391768, 
      "latmin": 51.13127066961522
    }, 
    {
      "latmax": 51.125594421174014, 
      "name": "Vuurkouterplein", 
      "lonmin": 4.273655078279511, 
      "sanName": "vuurkouterplein", 
      "numOfAddr": 11, 
      "lonmax": 4.274214601158038, 
      "latmin": 51.12525396833538
    }, 
    {
      "latmax": 51.134015992430605, 
      "name": "Walbogaard", 
      "lonmin": 4.231666607033532, 
      "sanName": "walbogaard", 
      "numOfAddr": 20, 
      "lonmax": 4.232763837158367, 
      "latmin": 51.132639074987594
    }, 
    {
      "latmax": 51.14243256394002, 
      "name": "Walgoedstraat", 
      "lonmin": 4.185179379127123, 
      "sanName": "walgoedstraat", 
      "numOfAddr": 13, 
      "lonmax": 4.190592615132157, 
      "latmin": 51.13908906639842
    }, 
    {
      "latmax": 51.12472301328745, 
      "name": "Warandestraat", 
      "lonmin": 4.266289992642469, 
      "sanName": "warandestraat", 
      "numOfAddr": 90, 
      "lonmax": 4.272058036881026, 
      "latmin": 51.12261092556954
    }, 
    {
      "latmax": 51.11747832729324, 
      "name": "Weelstraat", 
      "lonmin": 4.189947875347605, 
      "sanName": "weelstraat", 
      "numOfAddr": 26, 
      "lonmax": 4.192156305744379, 
      "latmin": 51.11618597460856
    }, 
    {
      "latmax": 51.12945964884578, 
      "name": "Welvaartlaan", 
      "lonmin": 4.197450202659568, 
      "sanName": "welvaartlaan", 
      "numOfAddr": 35, 
      "lonmax": 4.20007359230799, 
      "latmin": 51.12834041139732
    }, 
    {
      "latmax": 51.12375092732653, 
      "name": "Wilfordkaai", 
      "lonmin": 4.214410618217687, 
      "sanName": "wilfordkaai", 
      "numOfAddr": 52, 
      "lonmax": 4.221644444572122, 
      "latmin": 51.12269668355632
    }, 
    {
      "latmax": 51.12381385739484, 
      "name": "Wilgenweg", 
      "lonmin": 4.184917267983488, 
      "sanName": "wilgenweg", 
      "numOfAddr": 20, 
      "lonmax": 4.185865910058991, 
      "latmin": 51.122277147467834
    }, 
    {
      "latmax": 51.1365614601308, 
      "name": "Winninglaan", 
      "lonmin": 4.192710706442036, 
      "sanName": "winninglaan", 
      "numOfAddr": 15, 
      "lonmax": 4.194481803443225, 
      "latmin": 51.134838807934536
    }
  ]
}