{
  "streets": [
    {
      "latmax": 51.01669893448526, 
      "name": "Acacialaan", 
      "lonmin": 4.114203091064513, 
      "sanName": "acacialaan", 
      "numOfAddr": 13, 
      "lonmax": 4.11580997134499, 
      "latmin": 51.015675717073364
    }, 
    {
      "latmax": 51.01718512394065, 
      "name": "Achthoek", 
      "lonmin": 4.10423963518738, 
      "sanName": "achthoek", 
      "numOfAddr": 61, 
      "lonmax": 4.107908396187725, 
      "latmin": 51.01487242256662
    }, 
    {
      "latmax": 51.04931624679465, 
      "name": "Akkerlaan", 
      "lonmin": 4.093856285077944, 
      "sanName": "akkerlaan", 
      "numOfAddr": 10, 
      "lonmax": 4.09486755631758, 
      "latmin": 51.04871598944294
    }, 
    {
      "latmax": 51.03364588726018, 
      "name": "A. Van Stappenstraat", 
      "lonmin": 4.08290385392921, 
      "sanName": "avanstappenstraat", 
      "numOfAddr": 17, 
      "lonmax": 4.084234910171111, 
      "latmin": 51.03313118953441
    }, 
    {
      "latmax": 51.014724885688764, 
      "name": "Azalealaan", 
      "lonmin": 4.1125109496779775, 
      "sanName": "azalealaan", 
      "numOfAddr": 6, 
      "lonmax": 4.113082268432246, 
      "latmin": 51.014702792002616
    }, 
    {
      "latmax": 51.03990133280325, 
      "name": "Baasrodestraat", 
      "lonmin": 4.139292523437125, 
      "sanName": "baasrodestraat", 
      "numOfAddr": 223, 
      "lonmax": 4.161048689733279, 
      "latmin": 51.03730117915526
    }, 
    {
      "latmax": 51.062820117485586, 
      "name": "Bakkerstraat", 
      "lonmin": 4.092059209965982, 
      "sanName": "bakkerstraat", 
      "numOfAddr": 227, 
      "lonmax": 4.103624395663088, 
      "latmin": 51.042211820814735
    }, 
    {
      "latmax": 51.02471126412545, 
      "name": "Baleunisstraat", 
      "lonmin": 4.110908269450653, 
      "sanName": "baleunisstraat", 
      "numOfAddr": 47, 
      "lonmax": 4.116420119634602, 
      "latmin": 51.02368191018868
    }, 
    {
      "latmax": 51.05727830094684, 
      "name": "Bankveldstraat", 
      "lonmin": 4.116960345655645, 
      "sanName": "bankveldstraat", 
      "numOfAddr": 39, 
      "lonmax": 4.120763459902211, 
      "latmin": 51.054346241793766
    }, 
    {
      "latmax": 51.02296913361884, 
      "name": "Bareelstraat", 
      "lonmin": 4.113862248617705, 
      "sanName": "bareelstraat", 
      "numOfAddr": 30, 
      "lonmax": 4.1152096888132865, 
      "latmin": 51.02198307692921
    }, 
    {
      "latmax": 51.01621463015969, 
      "name": "Basiel De Cockplein", 
      "lonmin": 4.109887590072262, 
      "sanName": "basieldecockplein", 
      "numOfAddr": 27, 
      "lonmax": 4.111111223041531, 
      "latmin": 51.015398803391825
    }, 
    {
      "latmax": 51.018684819000796, 
      "name": "Beekakkerstraat", 
      "lonmin": 4.088518223491553, 
      "sanName": "beekakkerstraat", 
      "numOfAddr": 20, 
      "lonmax": 4.091136178294379, 
      "latmin": 51.01764289388907
    }, 
    {
      "latmax": 51.014209740766674, 
      "name": "Beekstraat", 
      "lonmin": 4.12397795505956, 
      "sanName": "beekstraat", 
      "numOfAddr": 8, 
      "lonmax": 4.124349625434155, 
      "latmin": 51.01387488418579
    }, 
    {
      "latmax": 51.02110841368067, 
      "name": "Beekweidestraat", 
      "lonmin": 4.095132231883616, 
      "sanName": "beekweidestraat", 
      "numOfAddr": 53, 
      "lonmax": 4.100287248093511, 
      "latmin": 51.01917105754508
    }, 
    {
      "latmax": 51.027756262388166, 
      "name": "Begijnhof", 
      "lonmin": 4.096434236462583, 
      "sanName": "begijnhof", 
      "numOfAddr": 44, 
      "lonmax": 4.098978721030022, 
      "latmin": 51.02664273952405
    }, 
    {
      "latmax": 51.028237572383695, 
      "name": "Begijnhoflaan", 
      "lonmin": 4.095677642613062, 
      "sanName": "begijnhoflaan", 
      "numOfAddr": 56, 
      "lonmax": 4.097559519804305, 
      "latmin": 51.02519574169947
    }, 
    {
      "latmax": 51.01494871525088, 
      "name": "Begonialaan", 
      "lonmin": 4.111345633155982, 
      "sanName": "begonialaan", 
      "numOfAddr": 25, 
      "lonmax": 4.111919521147684, 
      "latmin": 51.01395424187978
    }, 
    {
      "latmax": 50.99560072632065, 
      "name": "Benedenstraat", 
      "lonmin": 4.0676624434592314, 
      "sanName": "benedenstraat", 
      "numOfAddr": 12, 
      "lonmax": 4.068679584707912, 
      "latmin": 50.99495412594752
    }, 
    {
      "latmax": 51.01567245683354, 
      "name": "Berkenlaan", 
      "lonmin": 4.1131795519472325, 
      "sanName": "berkenlaan", 
      "numOfAddr": 8, 
      "lonmax": 4.11396487901953, 
      "latmin": 51.01475668937212
    }, 
    {
      "latmax": 51.01699948262299, 
      "name": "Berkestraat", 
      "lonmin": 4.055932674709104, 
      "sanName": "berkestraat", 
      "numOfAddr": 17, 
      "lonmax": 4.064462525184797, 
      "latmin": 51.016268364001085
    }, 
    {
      "latmax": 51.02521293686768, 
      "name": "Bertbaan", 
      "lonmin": 4.133444735821, 
      "sanName": "bertbaan", 
      "numOfAddr": 2, 
      "lonmax": 4.133685097998106, 
      "latmin": 51.025165535202845
    }, 
    {
      "latmax": 51.03181338790681, 
      "name": "Beukenlaan", 
      "lonmin": 4.114508239887846, 
      "sanName": "beukenlaan", 
      "numOfAddr": 58, 
      "lonmax": 4.11898744233516, 
      "latmin": 51.027539660662725
    }, 
    {
      "latmax": 51.03142628967712, 
      "name": "Beurzestraat", 
      "lonmin": 4.094609006549005, 
      "sanName": "beurzestraat", 
      "numOfAddr": 14, 
      "lonmax": 4.095171055973519, 
      "latmin": 51.03106185870441
    }, 
    {
      "latmax": 51.02907044966168, 
      "name": "Bevrijdingslaan", 
      "lonmin": 4.042094032624719, 
      "sanName": "bevrijdingslaan", 
      "numOfAddr": 198, 
      "lonmax": 4.065818937227619, 
      "latmin": 51.01926450840624
    }, 
    {
      "latmax": 51.03819449954506, 
      "name": "Bijlokestraat", 
      "lonmin": 4.0785643926617485, 
      "sanName": "bijlokestraat", 
      "numOfAddr": 36, 
      "lonmax": 4.086664998355094, 
      "latmin": 51.036569097369295
    }, 
    {
      "latmax": 51.01823126082061, 
      "name": "Binnestraat", 
      "lonmin": 4.1067269949227905, 
      "sanName": "binnestraat", 
      "numOfAddr": 12, 
      "lonmax": 4.107407969852536, 
      "latmin": 51.0173314729057
    }, 
    {
      "latmax": 51.03305938563943, 
      "name": "Blauwe Steenstraat", 
      "lonmin": 4.1167945134031205, 
      "sanName": "blauwesteenstraat", 
      "numOfAddr": 46, 
      "lonmax": 4.119561773020961, 
      "latmin": 51.030112351539316
    }, 
    {
      "latmax": 51.0099325893297, 
      "name": "Bleienpark", 
      "lonmin": 4.0537850430770375, 
      "sanName": "bleienpark", 
      "numOfAddr": 58, 
      "lonmax": 4.05781287672798, 
      "latmin": 51.0066779000661
    }, 
    {
      "latmax": 51.047247176309035, 
      "name": "Bloemstestraat", 
      "lonmin": 4.097395063680541, 
      "sanName": "bloemstestraat", 
      "numOfAddr": 12, 
      "lonmax": 4.098183673216061, 
      "latmin": 51.04650352878792
    }, 
    {
      "latmax": 51.02929284713749, 
      "name": "Boerderijstraat", 
      "lonmin": 4.150330357346698, 
      "sanName": "boerderijstraat", 
      "numOfAddr": 11, 
      "lonmax": 4.151994172132614, 
      "latmin": 51.0287585975477
    }, 
    {
      "latmax": 51.03178326271843, 
      "name": "Bogaerdstraat", 
      "lonmin": 4.102196309597684, 
      "sanName": "bogaerdstraat", 
      "numOfAddr": 24, 
      "lonmax": 4.103136055855824, 
      "latmin": 51.03090941500185
    }, 
    {
      "latmax": 51.03750238685501, 
      "name": "Bookmolenstraat", 
      "lonmin": 4.1517174665155245, 
      "sanName": "bookmolenstraat", 
      "numOfAddr": 134, 
      "lonmax": 4.158139257317305, 
      "latmin": 51.026758987701065
    }, 
    {
      "latmax": 51.02140045726749, 
      "name": "Boonwijkstraat", 
      "lonmin": 4.093525725615776, 
      "sanName": "boonwijkstraat", 
      "numOfAddr": 65, 
      "lonmax": 4.094930255315454, 
      "latmin": 51.018229970103334
    }, 
    {
      "latmax": 51.01032000395348, 
      "name": "Bosstraat", 
      "lonmin": 4.046195174679247, 
      "sanName": "bosstraat", 
      "numOfAddr": 50, 
      "lonmax": 4.052980064266699, 
      "latmin": 51.00525934736227
    }, 
    {
      "latmax": 51.03064406147034, 
      "name": "Bosveld", 
      "lonmin": 4.1261414342852865, 
      "sanName": "bosveld", 
      "numOfAddr": 1, 
      "lonmax": 4.1261414342852865, 
      "latmin": 51.03064406147034
    }, 
    {
      "latmax": 51.01959763761716, 
      "name": "Botermelkstraat", 
      "lonmin": 4.086171079301537, 
      "sanName": "botermelkstraat", 
      "numOfAddr": 56, 
      "lonmax": 4.089465381415828, 
      "latmin": 51.01762714645171
    }, 
    {
      "latmax": 51.01744817737015, 
      "name": "Breestraat", 
      "lonmin": 4.1055857503863535, 
      "sanName": "breestraat", 
      "numOfAddr": 124, 
      "lonmax": 4.112256559410754, 
      "latmin": 51.01202479802408
    }, 
    {
      "latmax": 51.03180732892963, 
      "name": "Briel", 
      "lonmin": 4.18058112939735, 
      "sanName": "briel", 
      "numOfAddr": 47, 
      "lonmax": 4.1868791099830895, 
      "latmin": 51.02949582119504
    }, 
    {
      "latmax": 51.04178916264221, 
      "name": "Broekkantstraat", 
      "lonmin": 4.150306564058324, 
      "sanName": "broekkantstraat", 
      "numOfAddr": 199, 
      "lonmax": 4.162263700669192, 
      "latmin": 51.03802794744413
    }, 
    {
      "latmax": 51.04133438134539, 
      "name": "Broekkouter", 
      "lonmin": 4.14728650901043, 
      "sanName": "broekkouter", 
      "numOfAddr": 118, 
      "lonmax": 4.15571427633526, 
      "latmin": 51.0388923653423
    }, 
    {
      "latmax": 51.041612752351064, 
      "name": "Broekstraat", 
      "lonmin": 4.145353704207122, 
      "sanName": "broekstraat", 
      "numOfAddr": 69, 
      "lonmax": 4.150645568891983, 
      "latmin": 51.039056046017144
    }, 
    {
      "latmax": 51.01958681524748, 
      "name": "Brugstraat", 
      "lonmin": 4.080624667954559, 
      "sanName": "brugstraat", 
      "numOfAddr": 27, 
      "lonmax": 4.08503182414065, 
      "latmin": 51.01805075726599
    }, 
    {
      "latmax": 50.99630752409938, 
      "name": "Brukkelen", 
      "lonmin": 3.998677244858548, 
      "sanName": "brukkelen", 
      "numOfAddr": 3, 
      "lonmax": 3.9993586111595842, 
      "latmin": 50.99619057970785
    }, 
    {
      "latmax": 51.028903803792296, 
      "name": "Brusselsestraat", 
      "lonmin": 4.098465298150693, 
      "sanName": "brusselsestraat", 
      "numOfAddr": 120, 
      "lonmax": 4.101995425832219, 
      "latmin": 51.0256660138057
    }, 
    {
      "latmax": 51.021735716393685, 
      "name": "Buisstraat", 
      "lonmin": 4.118396858005036, 
      "sanName": "buisstraat", 
      "numOfAddr": 76, 
      "lonmax": 4.123085913463103, 
      "latmin": 51.01985189665854
    }, 
    {
      "latmax": 51.023700068520725, 
      "name": "Burgemeester Portmanslaan", 
      "lonmin": 4.09441379749709, 
      "sanName": "burgemeesterportmanslaan", 
      "numOfAddr": 51, 
      "lonmax": 4.098279506005819, 
      "latmin": 51.0224271012764
    }, 
    {
      "latmax": 51.021713753676785, 
      "name": "Burgemeester Potiaulaan", 
      "lonmin": 4.110989136280077, 
      "sanName": "burgemeesterpotiaulaan", 
      "numOfAddr": 95, 
      "lonmax": 4.114580133687821, 
      "latmin": 51.01941500763845
    }, 
    {
      "latmax": 51.01468466291129, 
      "name": "Burgem. Paul Hendrickxplein", 
      "lonmin": 4.109487929395595, 
      "sanName": "burgempaulhendrickxplein", 
      "numOfAddr": 17, 
      "lonmax": 4.110344279234495, 
      "latmin": 51.013830798857825
    }, 
    {
      "latmax": 51.017341394516485, 
      "name": "Camille Marchantplein", 
      "lonmin": 4.106450335999798, 
      "sanName": "camillemarchantplein", 
      "numOfAddr": 19, 
      "lonmax": 4.108677283418404, 
      "latmin": 51.016382021529665
    }, 
    {
      "latmax": 51.033686546157696, 
      "name": "Clement Leybaertstraat", 
      "lonmin": 4.115513761226131, 
      "sanName": "clementleybaertstraat", 
      "numOfAddr": 26, 
      "lonmax": 4.116474212036085, 
      "latmin": 51.032841176913436
    }, 
    {
      "latmax": 51.022200548792576, 
      "name": "Cleophas Heyvaertstraat", 
      "lonmin": 4.108505269528725, 
      "sanName": "cleophasheyvaertstraat", 
      "numOfAddr": 12, 
      "lonmax": 4.109298808851368, 
      "latmin": 51.021423267277264
    }, 
    {
      "latmax": 51.008971105359784, 
      "name": "Coensbroekwegel", 
      "lonmin": 4.102837763660846, 
      "sanName": "coensbroekwegel", 
      "numOfAddr": 9, 
      "lonmax": 4.103557444693035, 
      "latmin": 51.00844793171508
    }, 
    {
      "latmax": 51.008314225576626, 
      "name": "Constabelstraat", 
      "lonmin": 4.022071039039311, 
      "sanName": "constabelstraat", 
      "numOfAddr": 58, 
      "lonmax": 4.026143608849439, 
      "latmin": 51.00660160333016
    }, 
    {
      "latmax": 51.02605227065022, 
      "name": "Cooremannekens", 
      "lonmin": 4.149432854117186, 
      "sanName": "cooremannekens", 
      "numOfAddr": 6, 
      "lonmax": 4.154469601754212, 
      "latmin": 51.02377060655573
    }, 
    {
      "latmax": 51.03986025487065, 
      "name": "Cyriel De Baerestraat", 
      "lonmin": 4.1599322064677695, 
      "sanName": "cyrieldebaerestraat", 
      "numOfAddr": 25, 
      "lonmax": 4.161900859047502, 
      "latmin": 51.03843650583157
    }, 
    {
      "latmax": 51.01542434412319, 
      "name": "Dalialaan", 
      "lonmin": 4.110513964719167, 
      "sanName": "dalialaan", 
      "numOfAddr": 38, 
      "lonmax": 4.111057991951345, 
      "latmin": 51.01384469804521
    }, 
    {
      "latmax": 51.036323722635395, 
      "name": "Damhof", 
      "lonmin": 4.084940406419193, 
      "sanName": "damhof", 
      "numOfAddr": 15, 
      "lonmax": 4.085608234694727, 
      "latmin": 51.03547927741442
    }, 
    {
      "latmax": 51.03378300681875, 
      "name": "De Bruynlaan", 
      "lonmin": 4.099961337931889, 
      "sanName": "debruynlaan", 
      "numOfAddr": 5, 
      "lonmax": 4.100251857585358, 
      "latmin": 51.033530382499116
    }, 
    {
      "latmax": 51.03684720866794, 
      "name": "De Dammenlaan", 
      "lonmin": 4.07898462460569, 
      "sanName": "dedammenlaan", 
      "numOfAddr": 167, 
      "lonmax": 4.082550068734154, 
      "latmin": 51.03230846869435
    }, 
    {
      "latmax": 51.03085501598337, 
      "name": "De Leksstraat", 
      "lonmin": 4.168499982759716, 
      "sanName": "deleksstraat", 
      "numOfAddr": 26, 
      "lonmax": 4.169796711514128, 
      "latmin": 51.03004889503218
    }, 
    {
      "latmax": 51.017884685806045, 
      "name": "Denderbellestraat", 
      "lonmin": 4.093088421188866, 
      "sanName": "denderbellestraat", 
      "numOfAddr": 69, 
      "lonmax": 4.096493060495623, 
      "latmin": 51.01132886270276
    }, 
    {
      "latmax": 51.028509939089936, 
      "name": "Denderstraat", 
      "lonmin": 4.06570284589488, 
      "sanName": "denderstraat", 
      "numOfAddr": 33, 
      "lonmax": 4.068593713516985, 
      "latmin": 51.02545801546004
    }, 
    {
      "latmax": 51.03162482724721, 
      "name": "Dennenlaan", 
      "lonmin": 4.116384181743802, 
      "sanName": "dennenlaan", 
      "numOfAddr": 22, 
      "lonmax": 4.118012241098031, 
      "latmin": 51.030458297673015
    }, 
    {
      "latmax": 51.06232678239843, 
      "name": "Denstraat", 
      "lonmin": 4.116544741092844, 
      "sanName": "denstraat", 
      "numOfAddr": 81, 
      "lonmax": 4.130593726395948, 
      "latmin": 51.05736494971269
    }, 
    {
      "latmax": 51.02128992323005, 
      "name": "Diepestraat", 
      "lonmin": 4.086156031387919, 
      "sanName": "diepestraat", 
      "numOfAddr": 26, 
      "lonmax": 4.09339479889867, 
      "latmin": 51.01952002944362
    }, 
    {
      "latmax": 51.03086180843821, 
      "name": "Dijkstraat", 
      "lonmin": 4.099343387658096, 
      "sanName": "dijkstraat", 
      "numOfAddr": 77, 
      "lonmax": 4.103268107151555, 
      "latmin": 51.03003147117765
    }, 
    {
      "latmax": 51.038560244697, 
      "name": "Distelstraat", 
      "lonmin": 4.139082070037218, 
      "sanName": "distelstraat", 
      "numOfAddr": 17, 
      "lonmax": 4.14344910408736, 
      "latmin": 51.03448253312191
    }, 
    {
      "latmax": 51.01543797224782, 
      "name": "Dokter De Witteplein", 
      "lonmin": 4.111295212086893, 
      "sanName": "dokterdewitteplein", 
      "numOfAddr": 17, 
      "lonmax": 4.112757425480012, 
      "latmin": 51.015000506730246
    }, 
    {
      "latmax": 51.05505069395289, 
      "name": "Dokter Haekstraat", 
      "lonmin": 4.105583334377795, 
      "sanName": "dokterhaekstraat", 
      "numOfAddr": 85, 
      "lonmax": 4.108362581553443, 
      "latmin": 51.04890501918226
    }, 
    {
      "latmax": 51.014425713716086, 
      "name": "Donaustraat", 
      "lonmin": 4.096184830752378, 
      "sanName": "donaustraat", 
      "numOfAddr": 3, 
      "lonmax": 4.099201379279217, 
      "latmin": 51.01167832968378
    }, 
    {
      "latmax": 51.0367504155764, 
      "name": "Donckstraat", 
      "lonmin": 4.086408610841708, 
      "sanName": "donckstraat", 
      "numOfAddr": 117, 
      "lonmax": 4.088563626582339, 
      "latmin": 51.03212407100255
    }, 
    {
      "latmax": 51.03630180699428, 
      "name": "Dorpsplein", 
      "lonmin": 4.162918426168734, 
      "sanName": "dorpsplein", 
      "numOfAddr": 26, 
      "lonmax": 4.164697635916595, 
      "latmin": 51.035350058354375
    }, 
    {
      "latmax": 51.02956920359457, 
      "name": "Dreefstraat", 
      "lonmin": 4.122605651199343, 
      "sanName": "dreefstraat", 
      "numOfAddr": 1, 
      "lonmax": 4.122605651199343, 
      "latmin": 51.02956920359457
    }, 
    {
      "latmax": 51.0111026212449, 
      "name": "Dr Frans De Hovrestraat", 
      "lonmin": 4.063165571639843, 
      "sanName": "drfransdehovrestraat", 
      "numOfAddr": 26, 
      "lonmax": 4.0651091702870525, 
      "latmin": 51.010338909079096
    }, 
    {
      "latmax": 51.02412346687526, 
      "name": "Driebek", 
      "lonmin": 4.140277521913591, 
      "sanName": "driebek", 
      "numOfAddr": 4, 
      "lonmax": 4.142664936138936, 
      "latmin": 51.02177664888019
    }, 
    {
      "latmax": 51.035029893159276, 
      "name": "Driehuizen", 
      "lonmin": 4.169219639954615, 
      "sanName": "driehuizen", 
      "numOfAddr": 34, 
      "lonmax": 4.171907727021536, 
      "latmin": 51.03345907425658
    }, 
    {
      "latmax": 51.01880956142428, 
      "name": "Duivenstraat", 
      "lonmin": 4.09515513332285, 
      "sanName": "duivenstraat", 
      "numOfAddr": 4, 
      "lonmax": 4.09544461831959, 
      "latmin": 51.01845186791858
    }, 
    {
      "latmax": 51.04871630867527, 
      "name": "Dwarslaan", 
      "lonmin": 4.0915688225987665, 
      "sanName": "dwarslaan", 
      "numOfAddr": 21, 
      "lonmax": 4.094371958892187, 
      "latmin": 51.04827716598083
    }, 
    {
      "latmax": 51.02688212442991, 
      "name": "Echostraat", 
      "lonmin": 4.063848779895463, 
      "sanName": "echostraat", 
      "numOfAddr": 6, 
      "lonmax": 4.064681778791968, 
      "latmin": 51.025981678745524
    }, 
    {
      "latmax": 51.02123985247308, 
      "name": "Eegene", 
      "lonmin": 2.306689562140502, 
      "sanName": "eegene", 
      "numOfAddr": 127, 
      "lonmax": 4.047092016919087, 
      "latmin": 49.293335165093566
    }, 
    {
      "latmax": 51.01996915573647, 
      "name": "Eilandstraat", 
      "lonmin": 4.129861948957219, 
      "sanName": "eilandstraat", 
      "numOfAddr": 5, 
      "lonmax": 4.130666042339675, 
      "latmin": 51.019050183558605
    }, 
    {
      "latmax": 51.01725881903811, 
      "name": "Eksterstraat", 
      "lonmin": 4.127301786586892, 
      "sanName": "eksterstraat", 
      "numOfAddr": 7, 
      "lonmax": 4.1282644451239205, 
      "latmin": 51.015709118458936
    }, 
    {
      "latmax": 51.02564646070525, 
      "name": "Elsbosstraat", 
      "lonmin": 4.118324115656795, 
      "sanName": "elsbosstraat", 
      "numOfAddr": 26, 
      "lonmax": 4.120002048190081, 
      "latmin": 51.024716752220904
    }, 
    {
      "latmax": 51.02208838723939, 
      "name": "Emanuel Hielstraat", 
      "lonmin": 4.105177918177353, 
      "sanName": "emanuelhielstraat", 
      "numOfAddr": 98, 
      "lonmax": 4.107089130286806, 
      "latmin": 51.018474415843265
    }, 
    {
      "latmax": 51.03104920063008, 
      "name": "Emiel Van Winckellaan", 
      "lonmin": 4.095201590824371, 
      "sanName": "emielvanwinckellaan", 
      "numOfAddr": 51, 
      "lonmax": 4.097517493853713, 
      "latmin": 51.029673739822734
    }, 
    {
      "latmax": 51.033164612776574, 
      "name": "Fabriekstraat", 
      "lonmin": 4.171919224973648, 
      "sanName": "fabriekstraat", 
      "numOfAddr": 60, 
      "lonmax": 4.180082320217482, 
      "latmin": 51.029302548193016
    }, 
    {
      "latmax": 51.0609163263691, 
      "name": "Fernand Khnopffstraat", 
      "lonmin": 4.1083667595765965, 
      "sanName": "fernandkhnopffstraat", 
      "numOfAddr": 85, 
      "lonmax": 4.113470506963827, 
      "latmin": 51.05677772794388
    }, 
    {
      "latmax": 51.01211682749061, 
      "name": "Fortstraat", 
      "lonmin": 4.117889419701307, 
      "sanName": "fortstraat", 
      "numOfAddr": 14, 
      "lonmax": 4.124066690718316, 
      "latmin": 51.01116166955672
    }, 
    {
      "latmax": 51.04038236677851, 
      "name": "Frans Bonduelstraat", 
      "lonmin": 4.153656987463466, 
      "sanName": "fransbonduelstraat", 
      "numOfAddr": 20, 
      "lonmax": 4.15470141122395, 
      "latmin": 51.03942339959335
    }, 
    {
      "latmax": 51.019558610451206, 
      "name": "Frans Van Schoorstraat", 
      "lonmin": 4.10953149283778, 
      "sanName": "fransvanschoorstraat", 
      "numOfAddr": 21, 
      "lonmax": 4.111062956491137, 
      "latmin": 51.018351383931225
    }, 
    {
      "latmax": 51.015773283555305, 
      "name": "Frans Vertongenstraat", 
      "lonmin": 4.061018488027545, 
      "sanName": "fransvertongenstraat", 
      "numOfAddr": 15, 
      "lonmax": 4.064267043688339, 
      "latmin": 51.01510163679967
    }, 
    {
      "latmax": 51.032546494660494, 
      "name": "Franz Courtensstraat", 
      "lonmin": 4.099026852424514, 
      "sanName": "franzcourtensstraat", 
      "numOfAddr": 30, 
      "lonmax": 4.101881623312706, 
      "latmin": 51.03185702026087
    }, 
    {
      "latmax": 51.02472745726254, 
      "name": "Galeidestraat", 
      "lonmin": 4.090028212618615, 
      "sanName": "galeidestraat", 
      "numOfAddr": 23, 
      "lonmax": 4.093655253818133, 
      "latmin": 51.02266541257544
    }, 
    {
      "latmax": 51.05677970774152, 
      "name": "Ganzegavers", 
      "lonmin": 4.10650068681223, 
      "sanName": "ganzegavers", 
      "numOfAddr": 62, 
      "lonmax": 4.109019708917069, 
      "latmin": 51.05473818909191
    }, 
    {
      "latmax": 51.022955408655555, 
      "name": "Gasthuisstraat", 
      "lonmin": 4.083415523485626, 
      "sanName": "gasthuisstraat", 
      "numOfAddr": 125, 
      "lonmax": 4.09303802953495, 
      "latmin": 51.01999151028159
    }, 
    {
      "latmax": 51.057105562111616, 
      "name": "Gaverstraat", 
      "lonmin": 4.1071025334714735, 
      "sanName": "gaverstraat", 
      "numOfAddr": 54, 
      "lonmax": 4.111969459291059, 
      "latmin": 51.056276830307084
    }, 
    {
      "latmax": 51.03834993410092, 
      "name": "Geerstraat", 
      "lonmin": 4.1487355722470305, 
      "sanName": "geerstraat", 
      "numOfAddr": 85, 
      "lonmax": 4.15263439521599, 
      "latmin": 51.02386224997441
    }, 
    {
      "latmax": 51.02495705941753, 
      "name": "Geldroplaan", 
      "lonmin": 4.100399693980595, 
      "sanName": "geldroplaan", 
      "numOfAddr": 7, 
      "lonmax": 4.101347541657866, 
      "latmin": 51.024332820115916
    }, 
    {
      "latmax": 51.03285566813499, 
      "name": "Gentsesteenweg", 
      "lonmin": 4.073077169051532, 
      "sanName": "gentsesteenweg", 
      "numOfAddr": 168, 
      "lonmax": 4.091757802048008, 
      "latmin": 51.02846880342824
    }, 
    {
      "latmax": 51.02860710975588, 
      "name": "Gildenhof", 
      "lonmin": 4.097003991829348, 
      "sanName": "gildenhof", 
      "numOfAddr": 7, 
      "lonmax": 4.097342027742345, 
      "latmin": 51.02821167215001
    }, 
    {
      "latmax": 51.059704146552235, 
      "name": "Gravenhuisstraat", 
      "lonmin": 4.111236681711679, 
      "sanName": "gravenhuisstraat", 
      "numOfAddr": 46, 
      "lonmax": 4.114695776714813, 
      "latmin": 51.05725400418337
    }, 
    {
      "latmax": 51.02963769144954, 
      "name": "Greffelinck", 
      "lonmin": 4.096527660220655, 
      "sanName": "greffelinck", 
      "numOfAddr": 23, 
      "lonmax": 4.097687173209614, 
      "latmin": 51.02916326687616
    }, 
    {
      "latmax": 51.06047944413046, 
      "name": "Groeneweg", 
      "lonmin": 4.101383561387795, 
      "sanName": "groeneweg", 
      "numOfAddr": 53, 
      "lonmax": 4.105558749784154, 
      "latmin": 51.055222885828805
    }, 
    {
      "latmax": 51.0456285113939, 
      "name": "Grootbroekstraat", 
      "lonmin": 4.10727518265691, 
      "sanName": "grootbroekstraat", 
      "numOfAddr": 33, 
      "lonmax": 4.112783782266745, 
      "latmin": 51.0405464182592
    }, 
    {
      "latmax": 51.035028667318315, 
      "name": "Grootveld", 
      "lonmin": 4.156842384575505, 
      "sanName": "grootveld", 
      "numOfAddr": 47, 
      "lonmax": 4.158869705606067, 
      "latmin": 51.03338251811181
    }, 
    {
      "latmax": 51.048923559423145, 
      "name": "Grootzand", 
      "lonmin": 4.10302565106144, 
      "sanName": "grootzand", 
      "numOfAddr": 158, 
      "lonmax": 4.108432723305282, 
      "latmin": 51.041336935875066
    }, 
    {
      "latmax": 51.031436693134935, 
      "name": "Grote Markt", 
      "lonmin": 4.096907587073225, 
      "sanName": "grotemarkt", 
      "numOfAddr": 34, 
      "lonmax": 4.098918878923646, 
      "latmin": 51.03051754146346
    }, 
    {
      "latmax": 51.030765906653166, 
      "name": "Guldenhoofdstraat", 
      "lonmin": 4.097134763461747, 
      "sanName": "guldenhoofdstraat", 
      "numOfAddr": 3, 
      "lonmax": 4.09756584548101, 
      "latmin": 51.03070062857907
    }, 
    {
      "latmax": 51.0149542012612, 
      "name": "Haagstraat", 
      "lonmin": 4.116115719029023, 
      "sanName": "haagstraat", 
      "numOfAddr": 39, 
      "lonmax": 4.124060105871474, 
      "latmin": 51.01314177619396
    }, 
    {
      "latmax": 51.0529102211853, 
      "name": "Hagewijkpark", 
      "lonmin": 4.100167385784034, 
      "sanName": "hagewijkpark", 
      "numOfAddr": 104, 
      "lonmax": 4.10516274118073, 
      "latmin": 51.0498892302211
    }, 
    {
      "latmax": 51.06691529483628, 
      "name": "Hamsesteenweg", 
      "lonmin": 4.1054929239104165, 
      "sanName": "hamsesteenweg", 
      "numOfAddr": 81, 
      "lonmax": 4.114631899833463, 
      "latmin": 51.055063124674014
    }, 
    {
      "latmax": 51.01536406253988, 
      "name": "Hauweg", 
      "lonmin": 4.096721073525651, 
      "sanName": "hauweg", 
      "numOfAddr": 7, 
      "lonmax": 4.097699251154407, 
      "latmin": 51.0150769104645
    }, 
    {
      "latmax": 51.00724859754339, 
      "name": "Heerlijkheidstraat", 
      "lonmin": 4.01832993053353, 
      "sanName": "heerlijkheidstraat", 
      "numOfAddr": 54, 
      "lonmax": 4.023949918873571, 
      "latmin": 51.00535983921608
    }, 
    {
      "latmax": 51.028237727532414, 
      "name": "Heidepark", 
      "lonmin": 4.056105379427419, 
      "sanName": "heidepark", 
      "numOfAddr": 66, 
      "lonmax": 4.060524435808388, 
      "latmin": 51.02599602540769
    }, 
    {
      "latmax": 51.0292402579386, 
      "name": "Heidestraat", 
      "lonmin": 4.055144345079737, 
      "sanName": "heidestraat", 
      "numOfAddr": 73, 
      "lonmax": 4.06465995272949, 
      "latmin": 51.02677933825597
    }, 
    {
      "latmax": 51.01731694651609, 
      "name": "Heirbaan", 
      "lonmin": 4.112324245993162, 
      "sanName": "heirbaan", 
      "numOfAddr": 157, 
      "lonmax": 4.119235196813173, 
      "latmin": 51.00941346119838
    }, 
    {
      "latmax": 51.02999067935404, 
      "name": "Heirstraat", 
      "lonmin": 4.056862915774202, 
      "sanName": "heirstraat", 
      "numOfAddr": 104, 
      "lonmax": 4.065153217620843, 
      "latmin": 51.02870150798275
    }, 
    {
      "latmax": 51.05754845119621, 
      "name": "Hekkenhoek", 
      "lonmin": 4.084986770434373, 
      "sanName": "hekkenhoek", 
      "numOfAddr": 59, 
      "lonmax": 4.088919813056997, 
      "latmin": 51.05016875368603
    }, 
    {
      "latmax": 51.057917756494334, 
      "name": "Hekkestraat", 
      "lonmin": 4.086777203377726, 
      "sanName": "hekkestraat", 
      "numOfAddr": 59, 
      "lonmax": 4.09594116069929, 
      "latmin": 51.05470782740289
    }, 
    {
      "latmax": 51.027339565665834, 
      "name": "Heldenplein", 
      "lonmin": 4.100988970051409, 
      "sanName": "heldenplein", 
      "numOfAddr": 2, 
      "lonmax": 4.101087943379243, 
      "latmin": 51.02687334752199
    }, 
    {
      "latmax": 51.022915390396854, 
      "name": "Hemelstraat", 
      "lonmin": 4.100021490156659, 
      "sanName": "hemelstraat", 
      "numOfAddr": 136, 
      "lonmax": 4.105705944456178, 
      "latmin": 51.01773967004517
    }, 
    {
      "latmax": 51.0133877355586, 
      "name": "Hertsgaard", 
      "lonmin": 4.107682338070457, 
      "sanName": "hertsgaard", 
      "numOfAddr": 12, 
      "lonmax": 4.108685713352085, 
      "latmin": 51.01196072652466
    }, 
    {
      "latmax": 51.00962825987421, 
      "name": "Hertstraat", 
      "lonmin": 4.109303299551521, 
      "sanName": "hertstraat", 
      "numOfAddr": 10, 
      "lonmax": 4.1105454281903535, 
      "latmin": 51.00791552303779
    }, 
    {
      "latmax": 51.027667289798394, 
      "name": "Hoeksken", 
      "lonmin": 4.131270930216345, 
      "sanName": "hoeksken", 
      "numOfAddr": 39, 
      "lonmax": 4.1346063111905496, 
      "latmin": 51.02311555840256
    }, 
    {
      "latmax": 51.00113648999014, 
      "name": "Hoekstraat", 
      "lonmin": 4.035247083622327, 
      "sanName": "hoekstraat", 
      "numOfAddr": 18, 
      "lonmax": 4.04375481498391, 
      "latmin": 50.99632339951349
    }, 
    {
      "latmax": 51.02283964354749, 
      "name": "Hofstraat", 
      "lonmin": 4.051370727560045, 
      "sanName": "hofstraat", 
      "numOfAddr": 142, 
      "lonmax": 4.061103219251309, 
      "latmin": 51.00915405887358
    }, 
    {
      "latmax": 51.0100556324644, 
      "name": "Hof ten Bos", 
      "lonmin": 4.065468845409413, 
      "sanName": "hoftenbos", 
      "numOfAddr": 67, 
      "lonmax": 4.070625181970922, 
      "latmin": 51.00443568664684
    }, 
    {
      "latmax": 51.031544343840416, 
      "name": "Hof ten Rode", 
      "lonmin": 4.167284926578692, 
      "sanName": "hoftenrode", 
      "numOfAddr": 91, 
      "lonmax": 4.171411095429462, 
      "latmin": 51.028348055645665
    }, 
    {
      "latmax": 51.03719299416435, 
      "name": "Hof ter Bremptstraat", 
      "lonmin": 4.0868472014109125, 
      "sanName": "hofterbremptstraat", 
      "numOfAddr": 29, 
      "lonmax": 4.093386185450072, 
      "latmin": 51.03513321669465
    }, 
    {
      "latmax": 51.010265675261365, 
      "name": "Hof ter Hertwinckelstraat", 
      "lonmin": 4.113781380573928, 
      "sanName": "hofterhertwinckelstraat", 
      "numOfAddr": 4, 
      "lonmax": 4.114255723372554, 
      "latmin": 51.00895205981011
    }, 
    {
      "latmax": 51.01955762957254, 
      "name": "Hof ter Heydenstraat", 
      "lonmin": 4.143597173564471, 
      "sanName": "hofterheydenstraat", 
      "numOfAddr": 1, 
      "lonmax": 4.143597173564471, 
      "latmin": 51.01955762957254
    }, 
    {
      "latmax": 51.020033483184264, 
      "name": "Hoge Weg", 
      "lonmin": 4.1170691096748895, 
      "sanName": "hogeweg", 
      "numOfAddr": 33, 
      "lonmax": 4.120783770239265, 
      "latmin": 51.0171487249675
    }, 
    {
      "latmax": 50.991985105615484, 
      "name": "Holstraat", 
      "lonmin": 4.0015595542529105, 
      "sanName": "holstraat", 
      "numOfAddr": 4, 
      "lonmax": 4.002363705372651, 
      "latmin": 50.9909517829425
    }, 
    {
      "latmax": 51.020862042008545, 
      "name": "Hondstraat", 
      "lonmin": 4.126830465146468, 
      "sanName": "hondstraat", 
      "numOfAddr": 4, 
      "lonmax": 4.128169537263293, 
      "latmin": 51.01767527013423
    }, 
    {
      "latmax": 51.034992374822906, 
      "name": "Hoofdstraat", 
      "lonmin": 4.041571923310988, 
      "sanName": "hoofdstraat", 
      "numOfAddr": 100, 
      "lonmax": 4.05669813030398, 
      "latmin": 51.02798131913459
    }, 
    {
      "latmax": 51.01532479364504, 
      "name": "Hoogtestraat", 
      "lonmin": 4.0660813133361735, 
      "sanName": "hoogtestraat", 
      "numOfAddr": 9, 
      "lonmax": 4.067467277563713, 
      "latmin": 51.01516945560994
    }, 
    {
      "latmax": 51.03752807089643, 
      "name": "Hoogveld", 
      "lonmin": 4.130142806898006, 
      "sanName": "hoogveld", 
      "numOfAddr": 57, 
      "lonmax": 4.156990130556457, 
      "latmin": 51.02240599020509
    }, 
    {
      "latmax": 51.01934635592244, 
      "name": "Hooistraat", 
      "lonmin": 4.083102328776098, 
      "sanName": "hooistraat", 
      "numOfAddr": 26, 
      "lonmax": 4.085591522792258, 
      "latmin": 51.01786880876642
    }, 
    {
      "latmax": 51.05323227373733, 
      "name": "Huiveldestraat", 
      "lonmin": 4.074331718845629, 
      "sanName": "huiveldestraat", 
      "numOfAddr": 4, 
      "lonmax": 4.076396324795972, 
      "latmin": 51.052130137090636
    }, 
    {
      "latmax": 51.02914255229069, 
      "name": "Hullekenstraat", 
      "lonmin": 4.114972686568993, 
      "sanName": "hullekenstraat", 
      "numOfAddr": 156, 
      "lonmax": 4.1218590863826865, 
      "latmin": 51.023223859489974
    }, 
    {
      "latmax": 51.01150093812487, 
      "name": "Hunnenbergstraat", 
      "lonmin": 4.068464001130688, 
      "sanName": "hunnenbergstraat", 
      "numOfAddr": 15, 
      "lonmax": 4.069674905418071, 
      "latmin": 51.01035199064235
    }, 
    {
      "latmax": 51.016709809422245, 
      "name": "H. Vandemeulebrouckeplein", 
      "lonmin": 4.1108831011443305, 
      "sanName": "hvandemeulebrouckeplein", 
      "numOfAddr": 28, 
      "lonmax": 4.112323807930372, 
      "latmin": 51.01604024762796
    }, 
    {
      "latmax": 51.032203071986025, 
      "name": "Industrieweg", 
      "lonmin": 4.140787863762787, 
      "sanName": "industrieweg", 
      "numOfAddr": 12, 
      "lonmax": 4.143929622591256, 
      "latmin": 51.03036356901112
    }, 
    {
      "latmax": 51.012360400613574, 
      "name": "Jasmijnenlaan", 
      "lonmin": 4.112016035808274, 
      "sanName": "jasmijnenlaan", 
      "numOfAddr": 19, 
      "lonmax": 4.113452955571846, 
      "latmin": 51.01129103065645
    }, 
    {
      "latmax": 51.014643766018054, 
      "name": "Jef Scheirsstraat", 
      "lonmin": 4.060505278395771, 
      "sanName": "jefscheirsstraat", 
      "numOfAddr": 31, 
      "lonmax": 4.063797735352927, 
      "latmin": 51.01229456297195
    }, 
    {
      "latmax": 51.023832851050415, 
      "name": "Joseph Heirbautstraat", 
      "lonmin": 4.121367127155722, 
      "sanName": "josephheirbautstraat", 
      "numOfAddr": 20, 
      "lonmax": 4.123552314229334, 
      "latmin": 51.022932165158224
    }, 
    {
      "latmax": 50.999354153274446, 
      "name": "Jozef De Troetselstraat", 
      "lonmin": 4.01209943462348, 
      "sanName": "jozefdetroetselstraat", 
      "numOfAddr": 23, 
      "lonmax": 4.017758617462364, 
      "latmin": 50.99646977466562
    }, 
    {
      "latmax": 51.02029862177148, 
      "name": "Jozef Van Bogaertstraat", 
      "lonmin": 4.107611002984586, 
      "sanName": "jozefvanbogaertstraat", 
      "numOfAddr": 32, 
      "lonmax": 4.1092312218691704, 
      "latmin": 51.019205881940906
    }, 
    {
      "latmax": 51.031818093938966, 
      "name": "Justitieplein", 
      "lonmin": 4.098753979333012, 
      "sanName": "justitieplein", 
      "numOfAddr": 6, 
      "lonmax": 4.099507621599001, 
      "latmin": 51.031482809312294
    }, 
    {
      "latmax": 51.02590616236231, 
      "name": "Kalendijk", 
      "lonmin": 4.104552745426037, 
      "sanName": "kalendijk", 
      "numOfAddr": 31, 
      "lonmax": 4.1058456129563385, 
      "latmin": 51.02397490108989
    }, 
    {
      "latmax": 51.02556772116282, 
      "name": "Kapelaansveld", 
      "lonmin": 4.1165574211935265, 
      "sanName": "kapelaansveld", 
      "numOfAddr": 4, 
      "lonmax": 4.117302693626844, 
      "latmin": 51.02510314168326
    }, 
    {
      "latmax": 51.029104764577504, 
      "name": "Kapellestraat", 
      "lonmin": 4.054684477596996, 
      "sanName": "kapellestraat", 
      "numOfAddr": 40, 
      "lonmax": 4.056770744742019, 
      "latmin": 51.02569522113387
    }, 
    {
      "latmax": 50.99767952374536, 
      "name": "Kapelweg", 
      "lonmin": 4.065274312702988, 
      "sanName": "kapelweg", 
      "numOfAddr": 23, 
      "lonmax": 4.068354650235453, 
      "latmin": 50.99673924945562
    }, 
    {
      "latmax": 51.03273686334985, 
      "name": "Kapittelstraat", 
      "lonmin": 4.092588070754126, 
      "sanName": "kapittelstraat", 
      "numOfAddr": 16, 
      "lonmax": 4.093176376062903, 
      "latmin": 51.032243141776505
    }, 
    {
      "latmax": 51.02019970970768, 
      "name": "Kapucijnenlaan", 
      "lonmin": 4.103563133635554, 
      "sanName": "kapucijnenlaan", 
      "numOfAddr": 33, 
      "lonmax": 4.104637631200548, 
      "latmin": 51.018913608953945
    }, 
    {
      "latmax": 51.04276725672946, 
      "name": "Karel Eeckhoutstraat", 
      "lonmin": 4.104469025380058, 
      "sanName": "kareleeckhoutstraat", 
      "numOfAddr": 18, 
      "lonmax": 4.107987167247178, 
      "latmin": 51.038392039021126
    }, 
    {
      "latmax": 51.01170631784392, 
      "name": "Karel Hofmanstraat", 
      "lonmin": 4.1063005618829145, 
      "sanName": "karelhofmanstraat", 
      "numOfAddr": 21, 
      "lonmax": 4.109374265575279, 
      "latmin": 51.0097632993873
    }, 
    {
      "latmax": 51.0328940465615, 
      "name": "Kasteelstraat", 
      "lonmin": 4.1023482348281615, 
      "sanName": "kasteelstraat", 
      "numOfAddr": 21, 
      "lonmax": 4.103927230844673, 
      "latmin": 51.03234977629523
    }, 
    {
      "latmax": 51.032408666595614, 
      "name": "Kazernestraat", 
      "lonmin": 4.098731386556971, 
      "sanName": "kazernestraat", 
      "numOfAddr": 14, 
      "lonmax": 4.099459413148345, 
      "latmin": 51.03204829950299
    }, 
    {
      "latmax": 51.06037078786859, 
      "name": "Keefstraat", 
      "lonmin": 4.109727331668747, 
      "sanName": "keefstraat", 
      "numOfAddr": 44, 
      "lonmax": 4.112471929553129, 
      "latmin": 51.05746402964586
    }, 
    {
      "latmax": 51.02869029553439, 
      "name": "Kerkhofweg", 
      "lonmin": 4.069988225273978, 
      "sanName": "kerkhofweg", 
      "numOfAddr": 20, 
      "lonmax": 4.071790062680518, 
      "latmin": 51.02417054300737
    }, 
    {
      "latmax": 51.032672646339805, 
      "name": "Kerkstraat", 
      "lonmin": 4.091396387445575, 
      "sanName": "kerkstraat", 
      "numOfAddr": 87, 
      "lonmax": 4.098642044039557, 
      "latmin": 51.03086106407773
    }, 
    {
      "latmax": 51.00957386119124, 
      "name": "Kerselarenbrugwegel", 
      "lonmin": 4.104998469624999, 
      "sanName": "kerselarenbrugwegel", 
      "numOfAddr": 5, 
      "lonmax": 4.105279750595741, 
      "latmin": 51.008860932648226
    }, 
    {
      "latmax": 51.02546596245005, 
      "name": "Ketserbaan", 
      "lonmin": 4.1327990570172295, 
      "sanName": "ketserbaan", 
      "numOfAddr": 3, 
      "lonmax": 4.133135495098609, 
      "latmin": 51.0253629950718
    }, 
    {
      "latmax": 51.03610728707268, 
      "name": "Kier", 
      "lonmin": 4.165184899667605, 
      "sanName": "kier", 
      "numOfAddr": 10, 
      "lonmax": 4.1678325394325935, 
      "latmin": 51.03501648636476
    }, 
    {
      "latmax": 51.03790618787073, 
      "name": "Killeweg", 
      "lonmin": 4.11572552111378, 
      "sanName": "killeweg", 
      "numOfAddr": 25, 
      "lonmax": 4.119373672774359, 
      "latmin": 51.03643001784739
    }, 
    {
      "latmax": 51.05158491361128, 
      "name": "Kleemputstraat", 
      "lonmin": 4.10906176921955, 
      "sanName": "kleemputstraat", 
      "numOfAddr": 13, 
      "lonmax": 4.11129041757172, 
      "latmin": 51.05032103445911
    }, 
    {
      "latmax": 51.02249092206671, 
      "name": "Klein Gent", 
      "lonmin": 4.09251024075057, 
      "sanName": "kleingent", 
      "numOfAddr": 9, 
      "lonmax": 4.0936327960900005, 
      "latmin": 51.021808145036935
    }, 
    {
      "latmax": 51.03235521995707, 
      "name": "Klein Kwartier", 
      "lonmin": 4.0918956961837125, 
      "sanName": "kleinkwartier", 
      "numOfAddr": 14, 
      "lonmax": 4.0921681848253675, 
      "latmin": 51.03192063344182
    }, 
    {
      "latmax": 51.049042462436155, 
      "name": "Kleinzand", 
      "lonmin": 4.091924333283211, 
      "sanName": "kleinzand", 
      "numOfAddr": 87, 
      "lonmax": 4.101036566792247, 
      "latmin": 51.04578338087106
    }, 
    {
      "latmax": 51.004117486437316, 
      "name": "Klinkaertstraat", 
      "lonmin": 4.019301943911213, 
      "sanName": "klinkaertstraat", 
      "numOfAddr": 41, 
      "lonmax": 4.028770629410369, 
      "latmin": 50.99969152555407
    }, 
    {
      "latmax": 50.99995925349224, 
      "name": "Kloostergoedstraat", 
      "lonmin": 4.042269516365431, 
      "sanName": "kloostergoedstraat", 
      "numOfAddr": 52, 
      "lonmax": 4.054128839584433, 
      "latmin": 50.996260773075186
    }, 
    {
      "latmax": 51.03677942524357, 
      "name": "Kloosterstraat", 
      "lonmin": 4.162369540548413, 
      "sanName": "kloosterstraat", 
      "numOfAddr": 95, 
      "lonmax": 4.163910649952609, 
      "latmin": 51.02979912954219
    }, 
    {
      "latmax": 51.035734117142916, 
      "name": "Knaptandstraat", 
      "lonmin": 4.117552452379424, 
      "sanName": "knaptandstraat", 
      "numOfAddr": 48, 
      "lonmax": 4.12038320770513, 
      "latmin": 51.03457741309476
    }, 
    {
      "latmax": 51.03520100828511, 
      "name": "Koebosstraat", 
      "lonmin": 4.0571922637857645, 
      "sanName": "koebosstraat", 
      "numOfAddr": 83, 
      "lonmax": 4.069514909021962, 
      "latmin": 51.02985150432551
    }, 
    {
      "latmax": 51.03178228326919, 
      "name": "Kolvenierslaan", 
      "lonmin": 4.111540785383548, 
      "sanName": "kolvenierslaan", 
      "numOfAddr": 56, 
      "lonmax": 4.11431798194982, 
      "latmin": 51.0305368286608
    }, 
    {
      "latmax": 51.020939888077265, 
      "name": "Koning Albertstraat", 
      "lonmin": 4.113034987724734, 
      "sanName": "koningalbertstraat", 
      "numOfAddr": 114, 
      "lonmax": 4.117510055161815, 
      "latmin": 51.017315669495524
    }, 
    {
      "latmax": 51.03524654791015, 
      "name": "Koning Boudewijnlaan", 
      "lonmin": 4.083590473311429, 
      "sanName": "koningboudewijnlaan", 
      "numOfAddr": 68, 
      "lonmax": 4.08578992239392, 
      "latmin": 51.033450165395124
    }, 
    {
      "latmax": 51.03162019909128, 
      "name": "Koningin Astridlaan", 
      "lonmin": 4.09963482555718, 
      "sanName": "koninginastridlaan", 
      "numOfAddr": 28, 
      "lonmax": 4.101303455134204, 
      "latmin": 51.03050517900515
    }, 
    {
      "latmax": 51.035875605362946, 
      "name": "Korte Dijkstraat", 
      "lonmin": 4.119561789807067, 
      "sanName": "kortedijkstraat", 
      "numOfAddr": 97, 
      "lonmax": 4.121901718310709, 
      "latmin": 51.02930518797446
    }, 
    {
      "latmax": 51.01654930929096, 
      "name": "Korte Haagstraat", 
      "lonmin": 4.124480970405999, 
      "sanName": "kortehaagstraat", 
      "numOfAddr": 41, 
      "lonmax": 4.127187315179044, 
      "latmin": 51.014216838330604
    }, 
    {
      "latmax": 50.99651232483749, 
      "name": "Korte Kasteelstraat", 
      "lonmin": 4.039294025858841, 
      "sanName": "kortekasteelstraat", 
      "numOfAddr": 3, 
      "lonmax": 4.040796476035338, 
      "latmin": 50.995229367929355
    }, 
    {
      "latmax": 51.011526705293434, 
      "name": "Korte Moerstraat", 
      "lonmin": 4.105180438989594, 
      "sanName": "kortemoerstraat", 
      "numOfAddr": 9, 
      "lonmax": 4.106020568992505, 
      "latmin": 51.01058145290379
    }, 
    {
      "latmax": 51.05236601149698, 
      "name": "Kouterlaan", 
      "lonmin": 4.113541284151943, 
      "sanName": "kouterlaan", 
      "numOfAddr": 21, 
      "lonmax": 4.1161547703544255, 
      "latmin": 51.05101878548736
    }, 
    {
      "latmax": 51.01988022407958, 
      "name": "Krekeldries", 
      "lonmin": 4.092951619128572, 
      "sanName": "krekeldries", 
      "numOfAddr": 15, 
      "lonmax": 4.094016478294175, 
      "latmin": 51.01895328894992
    }, 
    {
      "latmax": 51.0458881439672, 
      "name": "Krekelhoek", 
      "lonmin": 4.102836631674141, 
      "sanName": "krekelhoek", 
      "numOfAddr": 21, 
      "lonmax": 4.104959082223225, 
      "latmin": 51.045422589498685
    }, 
    {
      "latmax": 51.031321291511794, 
      "name": "Krijgem", 
      "lonmin": 4.0798573594518395, 
      "sanName": "krijgem", 
      "numOfAddr": 20, 
      "lonmax": 4.086197594168199, 
      "latmin": 51.02760740572678
    }, 
    {
      "latmax": 51.02416123159576, 
      "name": "Krijgshof", 
      "lonmin": 4.098346955757341, 
      "sanName": "krijgshof", 
      "numOfAddr": 3, 
      "lonmax": 4.09959664576367, 
      "latmin": 51.023942303370355
    }, 
    {
      "latmax": 51.015136926948614, 
      "name": "Krizantenlaan", 
      "lonmin": 4.109809652570528, 
      "sanName": "krizantenlaan", 
      "numOfAddr": 10, 
      "lonmax": 4.110639140931072, 
      "latmin": 51.01484690904664
    }, 
    {
      "latmax": 51.032708253875576, 
      "name": "Kroonveldlaan", 
      "lonmin": 4.1096155356024715, 
      "sanName": "kroonveldlaan", 
      "numOfAddr": 41, 
      "lonmax": 4.117575186258344, 
      "latmin": 51.02584975611567
    }, 
    {
      "latmax": 51.01175156953948, 
      "name": "Kruisstraat", 
      "lonmin": 4.10973317239367, 
      "sanName": "kruisstraat", 
      "numOfAddr": 42, 
      "lonmax": 4.116437353031155, 
      "latmin": 51.00968241978199
    }, 
    {
      "latmax": 51.032423791342296, 
      "name": "Kuitelgem", 
      "lonmin": 4.191913244792489, 
      "sanName": "kuitelgem", 
      "numOfAddr": 6, 
      "lonmax": 4.192780524349944, 
      "latmin": 51.03174830160399
    }, 
    {
      "latmax": 51.03553147668558, 
      "name": "Kwintijnpoort", 
      "lonmin": 4.091160764473478, 
      "sanName": "kwintijnpoort", 
      "numOfAddr": 31, 
      "lonmax": 4.09832942062434, 
      "latmin": 51.03412820347889
    }, 
    {
      "latmax": 51.04686386353501, 
      "name": "Lageweg", 
      "lonmin": 4.096097678319804, 
      "sanName": "lageweg", 
      "numOfAddr": 4, 
      "lonmax": 4.096955928606274, 
      "latmin": 51.04645156309882
    }, 
    {
      "latmax": 51.00913858056401, 
      "name": "Lambroeckstraat", 
      "lonmin": 4.0430596750763526, 
      "sanName": "lambroeckstraat", 
      "numOfAddr": 170, 
      "lonmax": 4.060813803393668, 
      "latmin": 51.00092919165551
    }, 
    {
      "latmax": 51.029393049513146, 
      "name": "Lange Dijkstraat", 
      "lonmin": 4.122020628482657, 
      "sanName": "langedijkstraat", 
      "numOfAddr": 119, 
      "lonmax": 4.131802289833725, 
      "latmin": 51.02536431242472
    }, 
    {
      "latmax": 50.99335909540552, 
      "name": "Langestraat", 
      "lonmin": 4.0018947767520405, 
      "sanName": "langestraat", 
      "numOfAddr": 57, 
      "lonmax": 4.014500136256814, 
      "latmin": 50.98932935783628
    }, 
    {
      "latmax": 51.019612565729155, 
      "name": "Langveldstraat", 
      "lonmin": 4.095024377033238, 
      "sanName": "langveldstraat", 
      "numOfAddr": 25, 
      "lonmax": 4.097513161307653, 
      "latmin": 51.01852873483518
    }, 
    {
      "latmax": 51.02229062690242, 
      "name": "Lazarijstraat", 
      "lonmin": 4.105184295111391, 
      "sanName": "lazarijstraat", 
      "numOfAddr": 10, 
      "lonmax": 4.10604514270615, 
      "latmin": 51.02204639475259
    }, 
    {
      "latmax": 51.03097859660795, 
      "name": "Leeuwerikenlaan", 
      "lonmin": 4.113122580331474, 
      "sanName": "leeuwerikenlaan", 
      "numOfAddr": 29, 
      "lonmax": 4.115653191076855, 
      "latmin": 51.02897703413432
    }, 
    {
      "latmax": 51.01424502986735, 
      "name": "Leli\u0089nlaan", 
      "lonmin": 4.111003319428221, 
      "sanName": "lelinlaan", 
      "numOfAddr": 6, 
      "lonmax": 4.111461069151457, 
      "latmin": 51.01372846353913
    }, 
    {
      "latmax": 51.0283844440925, 
      "name": "Leo Bruynincxstraat", 
      "lonmin": 4.1018602205219725, 
      "sanName": "leobruynincxstraat", 
      "numOfAddr": 49, 
      "lonmax": 4.103230173815316, 
      "latmin": 51.0276325901351
    }, 
    {
      "latmax": 51.03186146544747, 
      "name": "Leopold II-laan", 
      "lonmin": 4.10182511954351, 
      "sanName": "leopoldiilaan", 
      "numOfAddr": 77, 
      "lonmax": 4.1077775237191805, 
      "latmin": 51.025869453305035
    }, 
    {
      "latmax": 51.05002123991563, 
      "name": "Leugestraat", 
      "lonmin": 4.101689581535327, 
      "sanName": "leugestraat", 
      "numOfAddr": 24, 
      "lonmax": 4.106612947336131, 
      "latmin": 51.04891583274202
    }, 
    {
      "latmax": 51.04985691022725, 
      "name": "Lijsterlaan", 
      "lonmin": 4.090688328706476, 
      "sanName": "lijsterlaan", 
      "numOfAddr": 62, 
      "lonmax": 4.096704274773026, 
      "latmin": 51.04821646673689
    }, 
    {
      "latmax": 51.0292537783484, 
      "name": "Lindanusstraat", 
      "lonmin": 4.10211620287721, 
      "sanName": "lindanusstraat", 
      "numOfAddr": 71, 
      "lonmax": 4.104243930773839, 
      "latmin": 51.02761295611996
    }, 
    {
      "latmax": 51.027406105099516, 
      "name": "Lindestraat", 
      "lonmin": 4.053340014674497, 
      "sanName": "lindestraat", 
      "numOfAddr": 54, 
      "lonmax": 4.064229735122931, 
      "latmin": 51.02008579180992
    }, 
    {
      "latmax": 51.0331937093634, 
      "name": "Lodewijk Dosfelstraat", 
      "lonmin": 4.091119474691199, 
      "sanName": "lodewijkdosfelstraat", 
      "numOfAddr": 43, 
      "lonmax": 4.093473457445569, 
      "latmin": 51.031952711472535
    }, 
    {
      "latmax": 51.050928237730965, 
      "name": "Lomeersstraat", 
      "lonmin": 4.108529471979709, 
      "sanName": "lomeersstraat", 
      "numOfAddr": 15, 
      "lonmax": 4.116252115643274, 
      "latmin": 51.049403684355255
    }, 
    {
      "latmax": 51.01021321954681, 
      "name": "Losweg", 
      "lonmin": 4.0264297453365, 
      "sanName": "losweg", 
      "numOfAddr": 12, 
      "lonmax": 4.027541490440787, 
      "latmin": 51.007326587656756
    }, 
    {
      "latmax": 51.040974110849525, 
      "name": "Maaistraat", 
      "lonmin": 4.057679500679958, 
      "sanName": "maaistraat", 
      "numOfAddr": 5, 
      "lonmax": 4.063446084252877, 
      "latmin": 51.036911579952964
    }, 
    {
      "latmax": 51.02876384769526, 
      "name": "Mandekensstraat", 
      "lonmin": 4.152144599223761, 
      "sanName": "mandekensstraat", 
      "numOfAddr": 150, 
      "lonmax": 4.179848816015416, 
      "latmin": 51.021550251240306
    }, 
    {
      "latmax": 51.02493807121908, 
      "name": "Marcel Bovynstraat", 
      "lonmin": 4.122707848587161, 
      "sanName": "marcelbovynstraat", 
      "numOfAddr": 18, 
      "lonmax": 4.12494263450488, 
      "latmin": 51.023924466177796
    }, 
    {
      "latmax": 51.042346474610696, 
      "name": "Martelarenlaan", 
      "lonmin": 4.10183382978865, 
      "sanName": "martelarenlaan", 
      "numOfAddr": 28, 
      "lonmax": 4.102811828471411, 
      "latmin": 51.03740854431114
    }, 
    {
      "latmax": 51.03889908369603, 
      "name": "Mechelsesteenweg", 
      "lonmin": 4.106804518145673, 
      "sanName": "mechelsesteenweg", 
      "numOfAddr": 156, 
      "lonmax": 4.137858955564205, 
      "latmin": 51.03218515451937
    }, 
    {
      "latmax": 51.0254269445441, 
      "name": "Meerken", 
      "lonmin": 4.121711080990334, 
      "sanName": "meerken", 
      "numOfAddr": 16, 
      "lonmax": 4.123536245256163, 
      "latmin": 51.024485241201084
    }, 
    {
      "latmax": 51.02000610749862, 
      "name": "Meersstraat", 
      "lonmin": 4.082561693075094, 
      "sanName": "meersstraat", 
      "numOfAddr": 6, 
      "lonmax": 4.083907911110393, 
      "latmin": 51.01953995017544
    }, 
    {
      "latmax": 51.04053995113386, 
      "name": "Meibosstraat", 
      "lonmin": 4.15596998131177, 
      "sanName": "meibosstraat", 
      "numOfAddr": 68, 
      "lonmax": 4.158476558748844, 
      "latmin": 51.0383650383008
    }, 
    {
      "latmax": 51.03108233385771, 
      "name": "Meirgatstraat", 
      "lonmin": 4.169630563690539, 
      "sanName": "meirgatstraat", 
      "numOfAddr": 12, 
      "lonmax": 4.170224500269965, 
      "latmin": 51.03042695364504
    }, 
    {
      "latmax": 51.05129442352003, 
      "name": "Melkerijstraat", 
      "lonmin": 4.107741049809048, 
      "sanName": "melkerijstraat", 
      "numOfAddr": 10, 
      "lonmax": 4.108308643528139, 
      "latmin": 51.05083347642553
    }, 
    {
      "latmax": 51.024139639119696, 
      "name": "Merelstraat", 
      "lonmin": 4.117314221229139, 
      "sanName": "merelstraat", 
      "numOfAddr": 22, 
      "lonmax": 4.119050342006781, 
      "latmin": 51.023078462084186
    }, 
    {
      "latmax": 51.00084800008943, 
      "name": "Mespelarestraat", 
      "lonmin": 4.058330965842629, 
      "sanName": "mespelarestraat", 
      "numOfAddr": 79, 
      "lonmax": 4.077589005407376, 
      "latmin": 50.99511261571512
    }, 
    {
      "latmax": 51.00720342333205, 
      "name": "Mevrouw Courtmanspark", 
      "lonmin": 4.055510471266167, 
      "sanName": "mevrouwcourtmanspark", 
      "numOfAddr": 168, 
      "lonmax": 4.060690067333786, 
      "latmin": 51.00480368793252
    }, 
    {
      "latmax": 51.010834097308766, 
      "name": "Mevrouw Courtmansstraat", 
      "lonmin": 4.057143826197687, 
      "sanName": "mevrouwcourtmansstraat", 
      "numOfAddr": 50, 
      "lonmax": 4.061463189688191, 
      "latmin": 51.00676285410044
    }, 
    {
      "latmax": 50.99581061151635, 
      "name": "Migrodriesstraat", 
      "lonmin": 4.024968469616013, 
      "sanName": "migrodriesstraat", 
      "numOfAddr": 7, 
      "lonmax": 4.02986220139779, 
      "latmin": 50.99508913500698
    }, 
    {
      "latmax": 50.996255540636824, 
      "name": "Migrostraat", 
      "lonmin": 4.025094904775664, 
      "sanName": "migrostraat", 
      "numOfAddr": 60, 
      "lonmax": 4.034456400760915, 
      "latmin": 50.989967077652665
    }, 
    {
      "latmax": 51.011244921510354, 
      "name": "Moerstraat", 
      "lonmin": 4.099406040468881, 
      "sanName": "moerstraat", 
      "numOfAddr": 79, 
      "lonmax": 4.106438345184111, 
      "latmin": 51.008485182265886
    }, 
    {
      "latmax": 51.013580297728666, 
      "name": "Moeskouterlaan", 
      "lonmin": 4.1094132793712035, 
      "sanName": "moeskouterlaan", 
      "numOfAddr": 43, 
      "lonmax": 4.111824460563906, 
      "latmin": 51.010670661152496
    }, 
    {
      "latmax": 51.01404730515872, 
      "name": "Moesweide", 
      "lonmin": 4.106737656676391, 
      "sanName": "moesweide", 
      "numOfAddr": 1, 
      "lonmax": 4.106737656676391, 
      "latmin": 51.01404730515872
    }, 
    {
      "latmax": 51.03493326345197, 
      "name": "Molenberg", 
      "lonmin": 4.163863037001658, 
      "sanName": "molenberg", 
      "numOfAddr": 24, 
      "lonmax": 4.16759878393062, 
      "latmin": 51.03055496184535
    }, 
    {
      "latmax": 51.004565264869655, 
      "name": "Moleneinde", 
      "lonmin": 4.014900661400226, 
      "sanName": "moleneinde", 
      "numOfAddr": 35, 
      "lonmax": 4.018280649222097, 
      "latmin": 51.001182238016234
    }, 
    {
      "latmax": 51.00360351645948, 
      "name": "Molenkouterstraat", 
      "lonmin": 4.008603482726277, 
      "sanName": "molenkouterstraat", 
      "numOfAddr": 54, 
      "lonmax": 4.014818765804266, 
      "latmin": 51.000317789709634
    }, 
    {
      "latmax": 51.026955540494306, 
      "name": "Molenstraat", 
      "lonmin": 4.096985820200413, 
      "sanName": "molenstraat", 
      "numOfAddr": 74, 
      "lonmax": 4.100241554124219, 
      "latmin": 51.0257925873046
    }, 
    {
      "latmax": 51.033345187277824, 
      "name": "Nachtegaalstraat", 
      "lonmin": 4.093674315736426, 
      "sanName": "nachtegaalstraat", 
      "numOfAddr": 15, 
      "lonmax": 4.09419543931103, 
      "latmin": 51.03255651528374
    }, 
    {
      "latmax": 51.012323744361765, 
      "name": "Narcissenlaan", 
      "lonmin": 4.111431167597617, 
      "sanName": "narcissenlaan", 
      "numOfAddr": 18, 
      "lonmax": 4.112529387150912, 
      "latmin": 51.01111454008374
    }, 
    {
      "latmax": 51.01081045186585, 
      "name": "Nederstraat", 
      "lonmin": 4.060838919524243, 
      "sanName": "nederstraat", 
      "numOfAddr": 30, 
      "lonmax": 4.061949571203564, 
      "latmin": 51.009568560755156
    }, 
    {
      "latmax": 51.03565416394694, 
      "name": "Nieuwburcht", 
      "lonmin": 4.087414874030807, 
      "sanName": "nieuwburcht", 
      "numOfAddr": 27, 
      "lonmax": 4.090089919135531, 
      "latmin": 51.03483922360698
    }, 
    {
      "latmax": 51.04324506980031, 
      "name": "Nieuwe Tijsluis", 
      "lonmin": 4.085558883096521, 
      "sanName": "nieuwetijsluis", 
      "numOfAddr": 2, 
      "lonmax": 4.086010819891659, 
      "latmin": 51.04311445471229
    }, 
    {
      "latmax": 51.02707395725939, 
      "name": "Nieuw Kwartier", 
      "lonmin": 4.093089044726397, 
      "sanName": "nieuwkwartier", 
      "numOfAddr": 5, 
      "lonmax": 4.094125365977491, 
      "latmin": 51.025531059969104
    }, 
    {
      "latmax": 50.99877116568777, 
      "name": "Nieuwstraat", 
      "lonmin": 4.008782363983673, 
      "sanName": "nieuwstraat", 
      "numOfAddr": 39, 
      "lonmax": 4.014841802753573, 
      "latmin": 50.99416118509623
    }, 
    {
      "latmax": 51.028740731238216, 
      "name": "Nijverheidsstraat", 
      "lonmin": 4.1014956972894705, 
      "sanName": "nijverheidsstraat", 
      "numOfAddr": 41, 
      "lonmax": 4.102702142088308, 
      "latmin": 51.02775338691906
    }, 
    {
      "latmax": 51.03401658522984, 
      "name": "Noordlaan", 
      "lonmin": 4.084045494252564, 
      "sanName": "noordlaan", 
      "numOfAddr": 97, 
      "lonmax": 4.103902716329182, 
      "latmin": 51.03236431426057
    }, 
    {
      "latmax": 51.033392060609394, 
      "name": "Oeverstraat", 
      "lonmin": 4.188262594343361, 
      "sanName": "oeverstraat", 
      "numOfAddr": 8, 
      "lonmax": 4.190721043556823, 
      "latmin": 51.03093028341087
    }, 
    {
      "latmax": 51.019609616384656, 
      "name": "Olieslagerstraat", 
      "lonmin": 4.123304816040676, 
      "sanName": "olieslagerstraat", 
      "numOfAddr": 58, 
      "lonmax": 4.126802645162858, 
      "latmin": 51.01676311545583
    }, 
    {
      "latmax": 51.01703324004037, 
      "name": "Oliestraat", 
      "lonmin": 4.096383479023283, 
      "sanName": "oliestraat", 
      "numOfAddr": 24, 
      "lonmax": 4.098888895585693, 
      "latmin": 51.0157412973191
    }, 
    {
      "latmax": 51.033724148580674, 
      "name": "Ommegancklaan", 
      "lonmin": 4.110866611051799, 
      "sanName": "ommegancklaan", 
      "numOfAddr": 117, 
      "lonmax": 4.115555851464743, 
      "latmin": 51.03130986875152
    }, 
    {
      "latmax": 51.03281810123837, 
      "name": "Onze-Lieve-Vrouwkerkplein", 
      "lonmin": 4.092829281763799, 
      "sanName": "onzelievevrouwkerkplein", 
      "numOfAddr": 23, 
      "lonmax": 4.095233847069363, 
      "latmin": 51.03193302252422
    }, 
    {
      "latmax": 51.01119142699877, 
      "name": "Onze-Lieve-Vrouwstraat", 
      "lonmin": 4.05039496085709, 
      "sanName": "onzelievevrouwstraat", 
      "numOfAddr": 70, 
      "lonmax": 4.059081264531869, 
      "latmin": 51.00837510334866
    }, 
    {
      "latmax": 51.00361473060313, 
      "name": "Opstalplein", 
      "lonmin": 4.028946767275866, 
      "sanName": "opstalplein", 
      "numOfAddr": 10, 
      "lonmax": 4.0308894752751385, 
      "latmin": 51.00234000862215
    }, 
    {
      "latmax": 51.00665400916526, 
      "name": "Opstalstraat", 
      "lonmin": 4.027091537065687, 
      "sanName": "opstalstraat", 
      "numOfAddr": 42, 
      "lonmax": 4.034531629496134, 
      "latmin": 51.00261531986214
    }, 
    {
      "latmax": 51.012544671315766, 
      "name": "Orchidee\u0089nlaan", 
      "lonmin": 4.112036661655039, 
      "sanName": "orchideenlaan", 
      "numOfAddr": 30, 
      "lonmax": 4.114349103870596, 
      "latmin": 51.01072075254521
    }, 
    {
      "latmax": 51.0233492554339, 
      "name": "Otterstraat", 
      "lonmin": 4.1062144163468295, 
      "sanName": "otterstraat", 
      "numOfAddr": 119, 
      "lonmax": 4.113927084865388, 
      "latmin": 51.02155327257625
    }, 
    {
      "latmax": 51.00892857229082, 
      "name": "Ouburg", 
      "lonmin": 4.053145414774987, 
      "sanName": "ouburg", 
      "numOfAddr": 121, 
      "lonmax": 4.062613120183291, 
      "latmin": 50.9948432817995
    }, 
    {
      "latmax": 51.01568219777547, 
      "name": "Oude baan", 
      "lonmin": 4.064226567145088, 
      "sanName": "oudebaan", 
      "numOfAddr": 110, 
      "lonmax": 4.069824689378898, 
      "latmin": 51.00989640989655
    }, 
    {
      "latmax": 51.00482050194709, 
      "name": "Oude Brugstraat", 
      "lonmin": 4.010717014011383, 
      "sanName": "oudebrugstraat", 
      "numOfAddr": 13, 
      "lonmax": 4.011649814864399, 
      "latmin": 51.00322836386058
    }, 
    {
      "latmax": 51.01921415224645, 
      "name": "Oudegemse baan", 
      "lonmin": 4.061556575136396, 
      "sanName": "oudegemsebaan", 
      "numOfAddr": 180, 
      "lonmax": 4.066587489956247, 
      "latmin": 51.009026211539535
    }, 
    {
      "latmax": 50.99563888263256, 
      "name": "Oudegemstraat", 
      "lonmin": 4.0282940868893125, 
      "sanName": "oudegemstraat", 
      "numOfAddr": 22, 
      "lonmax": 4.031661883868262, 
      "latmin": 50.99435159300383
    }, 
    {
      "latmax": 51.020449879156885, 
      "name": "Oude Heirbaan", 
      "lonmin": 4.065473871113044, 
      "sanName": "oudeheirbaan", 
      "numOfAddr": 42, 
      "lonmax": 4.071106255170183, 
      "latmin": 51.01587002801349
    }, 
    {
      "latmax": 51.06245667635107, 
      "name": "Oude Molenstraat", 
      "lonmin": 4.109334530657421, 
      "sanName": "oudemolenstraat", 
      "numOfAddr": 100, 
      "lonmax": 4.116453127963977, 
      "latmin": 51.05742105037364
    }, 
    {
      "latmax": 51.032090365147916, 
      "name": "Oude Vest", 
      "lonmin": 4.099358175964057, 
      "sanName": "oudevest", 
      "numOfAddr": 131, 
      "lonmax": 4.105831655207496, 
      "latmin": 51.027958168515205
    }, 
    {
      "latmax": 51.04106962320194, 
      "name": "Oud Kerkhofstraat", 
      "lonmin": 4.103154706801793, 
      "sanName": "oudkerkhofstraat", 
      "numOfAddr": 11, 
      "lonmax": 4.104223351884262, 
      "latmin": 51.04019150870612
    }, 
    {
      "latmax": 51.02628919149493, 
      "name": "Oud Klooster", 
      "lonmin": 4.0797384377429395, 
      "sanName": "oudklooster", 
      "numOfAddr": 7, 
      "lonmax": 4.082507286533041, 
      "latmin": 51.025358268322904
    }, 
    {
      "latmax": 51.016231874260896, 
      "name": "Oud Strijdersplein", 
      "lonmin": 4.1121568622284626, 
      "sanName": "oudstrijdersplein", 
      "numOfAddr": 22, 
      "lonmax": 4.112986803379193, 
      "latmin": 51.015507630013154
    }, 
    {
      "latmax": 51.016233015478576, 
      "name": "Paalstraat", 
      "lonmin": 4.042419529652382, 
      "sanName": "paalstraat", 
      "numOfAddr": 1, 
      "lonmax": 4.042419529652382, 
      "latmin": 51.016233015478576
    }, 
    {
      "latmax": 51.02264170358309, 
      "name": "Paardentrapstraat", 
      "lonmin": 4.093640145007582, 
      "sanName": "paardentrapstraat", 
      "numOfAddr": 18, 
      "lonmax": 4.094611911922756, 
      "latmin": 51.02197054691779
    }, 
    {
      "latmax": 51.00367684164155, 
      "name": "Paddenhoek", 
      "lonmin": 4.033809874273087, 
      "sanName": "paddenhoek", 
      "numOfAddr": 6, 
      "lonmax": 4.034798011817931, 
      "latmin": 51.002901552731814
    }, 
    {
      "latmax": 51.03590940079929, 
      "name": "Palingbotterstraat", 
      "lonmin": 4.160893223876361, 
      "sanName": "palingbotterstraat", 
      "numOfAddr": 37, 
      "lonmax": 4.162685019117648, 
      "latmin": 51.035384951664426
    }, 
    {
      "latmax": 51.032182455407764, 
      "name": "Papiermolenstraat", 
      "lonmin": 4.102774576187635, 
      "sanName": "papiermolenstraat", 
      "numOfAddr": 21, 
      "lonmax": 4.104676670709002, 
      "latmin": 51.031758403501165
    }, 
    {
      "latmax": 51.02203230602741, 
      "name": "Pastoor Claeysstraat", 
      "lonmin": 4.114380375096213, 
      "sanName": "pastoorclaeysstraat", 
      "numOfAddr": 62, 
      "lonmax": 4.117831650834499, 
      "latmin": 51.02110294804783
    }, 
    {
      "latmax": 51.01238601196484, 
      "name": "Pastoor J. De Harduynstraat", 
      "lonmin": 4.05981129772589, 
      "sanName": "pastoorjdeharduynstraat", 
      "numOfAddr": 46, 
      "lonmax": 4.063398733084421, 
      "latmin": 51.01110492977522
    }, 
    {
      "latmax": 51.0340568310729, 
      "name": "Pater De Smetlaan", 
      "lonmin": 4.085526216790069, 
      "sanName": "paterdesmetlaan", 
      "numOfAddr": 40, 
      "lonmax": 4.0871489585887435, 
      "latmin": 51.03341244648997
    }, 
    {
      "latmax": 51.03458516236394, 
      "name": "Pater Ruttenplein", 
      "lonmin": 4.0850074325975205, 
      "sanName": "paterruttenplein", 
      "numOfAddr": 10, 
      "lonmax": 4.08528075631197, 
      "latmin": 51.03401624113749
    }, 
    {
      "latmax": 51.028527183999415, 
      "name": "Patrijzenlaan", 
      "lonmin": 4.115609482098234, 
      "sanName": "patrijzenlaan", 
      "numOfAddr": 22, 
      "lonmax": 4.117630686601163, 
      "latmin": 51.026589972406924
    }, 
    {
      "latmax": 51.019316190971786, 
      "name": "Perrebroekstraat", 
      "lonmin": 4.097533301884187, 
      "sanName": "perrebroekstraat", 
      "numOfAddr": 27, 
      "lonmax": 4.099435560397397, 
      "latmin": 51.01810736799412
    }, 
    {
      "latmax": 51.035264790240234, 
      "name": "Petrus Van Bavegemstraat", 
      "lonmin": 4.160904876082077, 
      "sanName": "petrusvanbavegemstraat", 
      "numOfAddr": 8, 
      "lonmax": 4.162217379789464, 
      "latmin": 51.034780742828836
    }, 
    {
      "latmax": 51.03440272536422, 
      "name": "Pieter Goruslaan", 
      "lonmin": 4.079179140162384, 
      "sanName": "pietergoruslaan", 
      "numOfAddr": 24, 
      "lonmax": 4.080633824767176, 
      "latmin": 51.03235736829936
    }, 
    {
      "latmax": 51.03245668966926, 
      "name": "Pijnderslaan", 
      "lonmin": 4.111403814029561, 
      "sanName": "pijnderslaan", 
      "numOfAddr": 68, 
      "lonmax": 4.116101976934699, 
      "latmin": 51.03098698530134
    }, 
    {
      "latmax": 51.02977647813931, 
      "name": "Platanenlaan", 
      "lonmin": 4.117888062568019, 
      "sanName": "platanenlaan", 
      "numOfAddr": 32, 
      "lonmax": 4.120272782510055, 
      "latmin": 51.02807583202929
    }, 
    {
      "latmax": 51.01860447854148, 
      "name": "Plattenakker", 
      "lonmin": 4.107604357246889, 
      "sanName": "plattenakker", 
      "numOfAddr": 38, 
      "lonmax": 4.110403932063201, 
      "latmin": 51.01678165593263
    }, 
    {
      "latmax": 50.99421912342675, 
      "name": "Plesbosstraat", 
      "lonmin": 4.026920438068777, 
      "sanName": "plesbosstraat", 
      "numOfAddr": 9, 
      "lonmax": 4.027838817863251, 
      "latmin": 50.993289626195576
    }, 
    {
      "latmax": 51.018882248289, 
      "name": "Populierenlaan", 
      "lonmin": 4.10239092456028, 
      "sanName": "populierenlaan", 
      "numOfAddr": 10, 
      "lonmax": 4.102995080189885, 
      "latmin": 51.018407674036354
    }, 
    {
      "latmax": 51.03381120252409, 
      "name": "Posthoornstraat", 
      "lonmin": 4.116664693963338, 
      "sanName": "posthoornstraat", 
      "numOfAddr": 52, 
      "lonmax": 4.120216335540048, 
      "latmin": 51.03263492920828
    }, 
    {
      "latmax": 51.02567206870553, 
      "name": "Prateveld", 
      "lonmin": 4.122900177527278, 
      "sanName": "prateveld", 
      "numOfAddr": 14, 
      "lonmax": 4.125325369273704, 
      "latmin": 51.024311114239936
    }, 
    {
      "latmax": 51.03727103582447, 
      "name": "Prinsenmeers", 
      "lonmin": 4.093547756337864, 
      "sanName": "prinsenmeers", 
      "numOfAddr": 47, 
      "lonmax": 4.098334531929216, 
      "latmin": 51.034626748181594
    }, 
    {
      "latmax": 51.0200028269901, 
      "name": "Prinskouterstraat", 
      "lonmin": 4.106012279914429, 
      "sanName": "prinskouterstraat", 
      "numOfAddr": 29, 
      "lonmax": 4.107378487938755, 
      "latmin": 51.01939363543324
    }, 
    {
      "latmax": 51.021741675318026, 
      "name": "Processiestraat", 
      "lonmin": 4.110717422403289, 
      "sanName": "processiestraat", 
      "numOfAddr": 40, 
      "lonmax": 4.112281672778256, 
      "latmin": 51.01973740715848
    }, 
    {
      "latmax": 51.031688136075346, 
      "name": "Provinciale baan", 
      "lonmin": 4.179671137425639, 
      "sanName": "provincialebaan", 
      "numOfAddr": 81, 
      "lonmax": 4.193480369927804, 
      "latmin": 51.028768244068516
    }, 
    {
      "latmax": 51.03135312682984, 
      "name": "Prudens Van Duysestraat", 
      "lonmin": 4.094034669503325, 
      "sanName": "prudensvanduysestraat", 
      "numOfAddr": 7, 
      "lonmax": 4.094404564393004, 
      "latmin": 51.030134548559836
    }, 
    {
      "latmax": 51.027820943401835, 
      "name": "Putteveld", 
      "lonmin": 4.1267439219213005, 
      "sanName": "putteveld", 
      "numOfAddr": 25, 
      "lonmax": 4.129647640144939, 
      "latmin": 51.02683090279756
    }, 
    {
      "latmax": 51.0408723767781, 
      "name": "Rebbroekstraat", 
      "lonmin": 4.044914051487606, 
      "sanName": "rebbroekstraat", 
      "numOfAddr": 3, 
      "lonmax": 4.048413158729729, 
      "latmin": 51.03243931284669
    }, 
    {
      "latmax": 51.05143892761371, 
      "name": "Reigerslaan", 
      "lonmin": 4.097877941517472, 
      "sanName": "reigerslaan", 
      "numOfAddr": 31, 
      "lonmax": 4.100283609137003, 
      "latmin": 51.04913192179189
    }, 
    {
      "latmax": 51.02966578265239, 
      "name": "Reihagenstraat", 
      "lonmin": 4.171532279974947, 
      "sanName": "reihagenstraat", 
      "numOfAddr": 11, 
      "lonmax": 4.176924925555139, 
      "latmin": 51.02789381633667
    }, 
    {
      "latmax": 51.013869998236984, 
      "name": "Resedalaan", 
      "lonmin": 4.110307706705329, 
      "sanName": "resedalaan", 
      "numOfAddr": 42, 
      "lonmax": 4.114656384380789, 
      "latmin": 51.013001474831015
    }, 
    {
      "latmax": 51.04755086967856, 
      "name": "Reynoutstraat", 
      "lonmin": 4.098719397572433, 
      "sanName": "reynoutstraat", 
      "numOfAddr": 34, 
      "lonmax": 4.1022386910529445, 
      "latmin": 51.04532311413689
    }, 
    {
      "latmax": 51.03051317791541, 
      "name": "Ridderstraat", 
      "lonmin": 4.097611203315079, 
      "sanName": "ridderstraat", 
      "numOfAddr": 37, 
      "lonmax": 4.09869859581121, 
      "latmin": 51.0296159216118
    }, 
    {
      "latmax": 51.0349342011378, 
      "name": "Rijckelstraat", 
      "lonmin": 4.04815390512179, 
      "sanName": "rijckelstraat", 
      "numOfAddr": 65, 
      "lonmax": 4.053683515565149, 
      "latmin": 51.02919918808229
    }, 
    {
      "latmax": 50.99354680852206, 
      "name": "Rimeirstraat", 
      "lonmin": 3.997722438071181, 
      "sanName": "rimeirstraat", 
      "numOfAddr": 13, 
      "lonmax": 4.004300586611724, 
      "latmin": 50.987897731568346
    }, 
    {
      "latmax": 50.9920785285814, 
      "name": "Rimeirweg", 
      "lonmin": 4.000573268128917, 
      "sanName": "rimeirweg", 
      "numOfAddr": 8, 
      "lonmax": 4.001267546493046, 
      "latmin": 50.99067272134731
    }, 
    {
      "latmax": 51.053343731354964, 
      "name": "Ringstraat", 
      "lonmin": 4.107453628447381, 
      "sanName": "ringstraat", 
      "numOfAddr": 53, 
      "lonmax": 4.110725269088751, 
      "latmin": 51.050967748806734
    }, 
    {
      "latmax": 51.01857058785178, 
      "name": "Robert Ramlotstraat", 
      "lonmin": 4.087989865812142, 
      "sanName": "robertramlotstraat", 
      "numOfAddr": 55, 
      "lonmax": 4.094186743382407, 
      "latmin": 51.01640563278647
    }, 
    {
      "latmax": 51.01591002012885, 
      "name": "Rode Kruislaan", 
      "lonmin": 4.111391533924896, 
      "sanName": "rodekruislaan", 
      "numOfAddr": 15, 
      "lonmax": 4.1118745572408635, 
      "latmin": 51.015557274045264
    }, 
    {
      "latmax": 51.01674931496024, 
      "name": "Rodeweg", 
      "lonmin": 4.0905558558454995, 
      "sanName": "rodeweg", 
      "numOfAddr": 9, 
      "lonmax": 4.0922354068821205, 
      "latmin": 51.01472570400966
    }, 
    {
      "latmax": 51.05652064624017, 
      "name": "Rootjensweg", 
      "lonmin": 4.09965493395236, 
      "sanName": "rootjensweg", 
      "numOfAddr": 76, 
      "lonmax": 4.10514517519618, 
      "latmin": 51.0530265317707
    }, 
    {
      "latmax": 51.03676067832177, 
      "name": "Ros Beiaardstraat", 
      "lonmin": 4.085500418825764, 
      "sanName": "rosbeiaardstraat", 
      "numOfAddr": 72, 
      "lonmax": 4.086843314302834, 
      "latmin": 51.034164388696624
    }, 
    {
      "latmax": 51.037623989305835, 
      "name": "Rosstraat", 
      "lonmin": 4.157528941535586, 
      "sanName": "rosstraat", 
      "numOfAddr": 174, 
      "lonmax": 4.162190059102945, 
      "latmin": 51.02418094344631
    }, 
    {
      "latmax": 51.01220250861954, 
      "name": "Rozebroekstraat", 
      "lonmin": 4.117385074172705, 
      "sanName": "rozebroekstraat", 
      "numOfAddr": 10, 
      "lonmax": 4.1202384695948915, 
      "latmin": 51.01157835491378
    }, 
    {
      "latmax": 51.01526439405543, 
      "name": "Rozenlaan", 
      "lonmin": 4.112967604623204, 
      "sanName": "rozenlaan", 
      "numOfAddr": 34, 
      "lonmax": 4.113546976721942, 
      "latmin": 51.01381726047709
    }, 
    {
      "latmax": 51.03027036589554, 
      "name": "Sas", 
      "lonmin": 4.091910113407366, 
      "sanName": "sas", 
      "numOfAddr": 25, 
      "lonmax": 4.096410099329018, 
      "latmin": 51.02943518581284
    }, 
    {
      "latmax": 51.02734228970387, 
      "name": "Schaapveld", 
      "lonmin": 4.138201410772718, 
      "sanName": "schaapveld", 
      "numOfAddr": 12, 
      "lonmax": 4.141812285072551, 
      "latmin": 51.0231770736698
    }, 
    {
      "latmax": 51.03746137025961, 
      "name": "Scheepswerfstraat", 
      "lonmin": 4.162281431410631, 
      "sanName": "scheepswerfstraat", 
      "numOfAddr": 70, 
      "lonmax": 4.166233849171028, 
      "latmin": 51.03584699239403
    }, 
    {
      "latmax": 51.04451292774962, 
      "name": "Scheldedijk", 
      "lonmin": 4.09164150603665, 
      "sanName": "scheldedijk", 
      "numOfAddr": 29, 
      "lonmax": 4.100386209097392, 
      "latmin": 51.035737832385344
    }, 
    {
      "latmax": 51.04071403997737, 
      "name": "Scheldedreef", 
      "lonmin": 4.097201797312698, 
      "sanName": "scheldedreef", 
      "numOfAddr": 34, 
      "lonmax": 4.101482116645024, 
      "latmin": 51.03943429517958
    }, 
    {
      "latmax": 50.99444159976979, 
      "name": "Scheutlagestraat", 
      "lonmin": 4.0624273958069175, 
      "sanName": "scheutlagestraat", 
      "numOfAddr": 51, 
      "lonmax": 4.069352067656122, 
      "latmin": 50.991782658620366
    }, 
    {
      "latmax": 51.03511996564496, 
      "name": "Schippersdijk", 
      "lonmin": 4.14124453740842, 
      "sanName": "schippersdijk", 
      "numOfAddr": 61, 
      "lonmax": 4.150100580813947, 
      "latmin": 51.03013264456082
    }, 
    {
      "latmax": 51.03715758561509, 
      "name": "Schoolstraat", 
      "lonmin": 4.070860078511947, 
      "sanName": "schoolstraat", 
      "numOfAddr": 25, 
      "lonmax": 4.076495421197732, 
      "latmin": 51.03139404180043
    }, 
    {
      "latmax": 51.00644626433254, 
      "name": "Schoonaardebaan", 
      "lonmin": 4.01139047839368, 
      "sanName": "schoonaardebaan", 
      "numOfAddr": 97, 
      "lonmax": 4.01877855470077, 
      "latmin": 51.00357081633082
    }, 
    {
      "latmax": 50.99608845290196, 
      "name": "Schuiteplasstraat", 
      "lonmin": 4.014276571147585, 
      "sanName": "schuiteplasstraat", 
      "numOfAddr": 45, 
      "lonmax": 4.02188881893912, 
      "latmin": 50.99198401749538
    }, 
    {
      "latmax": 51.03294105956963, 
      "name": "Schuurkouter", 
      "lonmin": 4.16079602157595, 
      "sanName": "schuurkouter", 
      "numOfAddr": 43, 
      "lonmax": 4.169003529269977, 
      "latmin": 51.03174394744786
    }, 
    {
      "latmax": 51.02071994948556, 
      "name": "Serbosstraat", 
      "lonmin": 4.091927329914496, 
      "sanName": "serbosstraat", 
      "numOfAddr": 6, 
      "lonmax": 4.093201415323878, 
      "latmin": 51.018193236543375
    }, 
    {
      "latmax": 51.02021165724441, 
      "name": "Serscampveldstraat", 
      "lonmin": 4.094856417767456, 
      "sanName": "serscampveldstraat", 
      "numOfAddr": 24, 
      "lonmax": 4.099264171096798, 
      "latmin": 51.01950852788546
    }, 
    {
      "latmax": 51.02087629142642, 
      "name": "Serwouterstraat", 
      "lonmin": 4.1192823858742855, 
      "sanName": "serwouterstraat", 
      "numOfAddr": 14, 
      "lonmax": 4.121020536135047, 
      "latmin": 51.019135324926445
    }, 
    {
      "latmax": 50.99731276424645, 
      "name": "Singelweg", 
      "lonmin": 4.056795518165368, 
      "sanName": "singelweg", 
      "numOfAddr": 60, 
      "lonmax": 4.071313425685493, 
      "latmin": 50.994235669863855
    }, 
    {
      "latmax": 51.028762939813404, 
      "name": "Sint-Apolloniastraat", 
      "lonmin": 4.056533743340411, 
      "sanName": "sintapolloniastraat", 
      "numOfAddr": 18, 
      "lonmax": 4.0577560912537205, 
      "latmin": 51.027686173863465
    }, 
    {
      "latmax": 51.03315855925428, 
      "name": "Sint-Christianastraat", 
      "lonmin": 4.089427517834607, 
      "sanName": "sintchristianastraat", 
      "numOfAddr": 24, 
      "lonmax": 4.090670279379617, 
      "latmin": 51.032108207146614
    }, 
    {
      "latmax": 51.04418582417264, 
      "name": "Sint-Elooistraat", 
      "lonmin": 4.1055692071681, 
      "sanName": "sintelooistraat", 
      "numOfAddr": 30, 
      "lonmax": 4.107209806505477, 
      "latmin": 51.043322080179834
    }, 
    {
      "latmax": 51.02339268414441, 
      "name": "Sint-Gillislaan", 
      "lonmin": 4.105625367751073, 
      "sanName": "sintgillislaan", 
      "numOfAddr": 154, 
      "lonmax": 4.112909802994291, 
      "latmin": 51.017481146554836
    }, 
    {
      "latmax": 51.03045035378126, 
      "name": "Sint-Jacobstraat", 
      "lonmin": 4.103896758435538, 
      "sanName": "sintjacobstraat", 
      "numOfAddr": 32, 
      "lonmax": 4.1059911799434, 
      "latmin": 51.029360402083284
    }, 
    {
      "latmax": 51.02914238349332, 
      "name": "Sint-Jorisgilde", 
      "lonmin": 4.095880797152374, 
      "sanName": "sintjorisgilde", 
      "numOfAddr": 24, 
      "lonmax": 4.098579734078995, 
      "latmin": 51.02837127377951
    }, 
    {
      "latmax": 51.04666914903193, 
      "name": "Sint-Margrietstraat", 
      "lonmin": 4.092473671314304, 
      "sanName": "sintmargrietstraat", 
      "numOfAddr": 48, 
      "lonmax": 4.098910403890339, 
      "latmin": 51.04570781034249
    }, 
    {
      "latmax": 51.04945118353625, 
      "name": "Sint-Onolfsdijk", 
      "lonmin": 4.05906203343804, 
      "sanName": "sintonolfsdijk", 
      "numOfAddr": 85, 
      "lonmax": 4.096254162937387, 
      "latmin": 51.03711921319835
    }, 
    {
      "latmax": 51.028581885809, 
      "name": "Sint-Rochusstraat", 
      "lonmin": 4.093633124825202, 
      "sanName": "sintrochusstraat", 
      "numOfAddr": 46, 
      "lonmax": 4.098812982720627, 
      "latmin": 51.0277591508225
    }, 
    {
      "latmax": 51.010765250260356, 
      "name": "Sint-Sebastiaanstraat", 
      "lonmin": 4.061361981087592, 
      "sanName": "sintsebastiaanstraat", 
      "numOfAddr": 10, 
      "lonmax": 4.06242274359852, 
      "latmin": 51.01025380015702
    }, 
    {
      "latmax": 51.039575278100074, 
      "name": "Sint-Ursmarusstraat", 
      "lonmin": 4.160862815239543, 
      "sanName": "sintursmarusstraat", 
      "numOfAddr": 141, 
      "lonmax": 4.168922550763437, 
      "latmin": 51.03519002342545
    }, 
    {
      "latmax": 51.03768214898834, 
      "name": "Sint-Ursulastraat", 
      "lonmin": 4.058452118392936, 
      "sanName": "sintursulastraat", 
      "numOfAddr": 17, 
      "lonmax": 4.162956115103562, 
      "latmin": 51.02814373345093
    }, 
    {
      "latmax": 51.01269294585465, 
      "name": "Sleutelbloemlaan", 
      "lonmin": 4.109034128800677, 
      "sanName": "sleutelbloemlaan", 
      "numOfAddr": 15, 
      "lonmax": 4.11045557303535, 
      "latmin": 51.011115527161785
    }, 
    {
      "latmax": 51.034919450993584, 
      "name": "Smeyskensstraat", 
      "lonmin": 4.150404154620463, 
      "sanName": "smeyskensstraat", 
      "numOfAddr": 75, 
      "lonmax": 4.159082247385561, 
      "latmin": 51.032580113567
    }, 
    {
      "latmax": 51.057343806795814, 
      "name": "Smidsestraat", 
      "lonmin": 4.106820729940134, 
      "sanName": "smidsestraat", 
      "numOfAddr": 118, 
      "lonmax": 4.116620360779182, 
      "latmin": 51.053493178264056
    }, 
    {
      "latmax": 51.020341855677906, 
      "name": "Smisstraat", 
      "lonmin": 4.1250949345729095, 
      "sanName": "smisstraat", 
      "numOfAddr": 28, 
      "lonmax": 4.127536406014465, 
      "latmin": 51.01696180364886
    }, 
    {
      "latmax": 51.021920158295494, 
      "name": "Snuifmolenstraat", 
      "lonmin": 4.100492642144367, 
      "sanName": "snuifmolenstraat", 
      "numOfAddr": 20, 
      "lonmax": 4.102607802975481, 
      "latmin": 51.02039862065849
    }, 
    {
      "latmax": 51.03028263434187, 
      "name": "Sparrenlaan", 
      "lonmin": 4.114593660879396, 
      "sanName": "sparrenlaan", 
      "numOfAddr": 34, 
      "lonmax": 4.119317641620361, 
      "latmin": 51.0283213613562
    }, 
    {
      "latmax": 51.02686215806554, 
      "name": "Spoorwegstraat", 
      "lonmin": 4.117904759501853, 
      "sanName": "spoorwegstraat", 
      "numOfAddr": 125, 
      "lonmax": 4.124303675285122, 
      "latmin": 51.021766167825
    }, 
    {
      "latmax": 51.04666397178072, 
      "name": "Sportpleinstraat", 
      "lonmin": 4.102609172770893, 
      "sanName": "sportpleinstraat", 
      "numOfAddr": 33, 
      "lonmax": 4.105459219568613, 
      "latmin": 51.04537072539915
    }, 
    {
      "latmax": 51.02382033766803, 
      "name": "Statieplein", 
      "lonmin": 4.099334968000212, 
      "sanName": "statieplein", 
      "numOfAddr": 21, 
      "lonmax": 4.102548271364941, 
      "latmin": 51.02289233455002
    }, 
    {
      "latmax": 51.004202277259566, 
      "name": "Statiewegel", 
      "lonmin": 4.014743300753569, 
      "sanName": "statiewegel", 
      "numOfAddr": 3, 
      "lonmax": 4.014890342424103, 
      "latmin": 51.0041097925928
    }, 
    {
      "latmax": 51.02496385938215, 
      "name": "Stationsstraat", 
      "lonmin": 4.101135369112427, 
      "sanName": "stationsstraat", 
      "numOfAddr": 19, 
      "lonmax": 4.101571710169966, 
      "latmin": 51.023788327067045
    }, 
    {
      "latmax": 51.03245663407926, 
      "name": "Steenkaaistraat", 
      "lonmin": 4.171239167589162, 
      "sanName": "steenkaaistraat", 
      "numOfAddr": 21, 
      "lonmax": 4.174402808952418, 
      "latmin": 51.02902305373863
    }, 
    {
      "latmax": 51.0039788159016, 
      "name": "Steenweg naar Wetteren", 
      "lonmin": 3.9971885065718644, 
      "sanName": "steenwegnaarwetteren", 
      "numOfAddr": 92, 
      "lonmax": 4.010800506385931, 
      "latmin": 51.000865344440655
    }, 
    {
      "latmax": 51.030610963092975, 
      "name": "Steenweg van Aalst", 
      "lonmin": 4.067709349224673, 
      "sanName": "steenwegvanaalst", 
      "numOfAddr": 76, 
      "lonmax": 4.07236708179736, 
      "latmin": 51.024351222265544
    }, 
    {
      "latmax": 51.040261590295934, 
      "name": "Steenweg van Grembergen", 
      "lonmin": 4.100281389878414, 
      "sanName": "steenwegvangrembergen", 
      "numOfAddr": 45, 
      "lonmax": 4.103404180404064, 
      "latmin": 51.03494315952519
    }, 
    {
      "latmax": 51.021131644043564, 
      "name": "Stenen Stichel", 
      "lonmin": 4.1172897268985125, 
      "sanName": "stenenstichel", 
      "numOfAddr": 23, 
      "lonmax": 4.119709557382577, 
      "latmin": 51.019370687535194
    }, 
    {
      "latmax": 51.02746959543071, 
      "name": "Stuifstraat", 
      "lonmin": 4.05026453240727, 
      "sanName": "stuifstraat", 
      "numOfAddr": 20, 
      "lonmax": 4.053511624652561, 
      "latmin": 51.02386575192103
    }, 
    {
      "latmax": 51.04752184127919, 
      "name": "Stuivenbergstraat", 
      "lonmin": 4.102895490263683, 
      "sanName": "stuivenbergstraat", 
      "numOfAddr": 65, 
      "lonmax": 4.107415931129371, 
      "latmin": 51.04634106595102
    }, 
    {
      "latmax": 51.03337266152559, 
      "name": "Theodoor Vermylenstraat", 
      "lonmin": 2.306689562140502, 
      "sanName": "theodoorvermylenstraat", 
      "numOfAddr": 178, 
      "lonmax": 4.171083094451134, 
      "latmin": 49.293335165093566
    }, 
    {
      "latmax": 51.03497381615578, 
      "name": "Tinnenpotstraat", 
      "lonmin": 4.1178172329565585, 
      "sanName": "tinnenpotstraat", 
      "numOfAddr": 72, 
      "lonmax": 4.119696257110229, 
      "latmin": 51.03367495974916
    }, 
    {
      "latmax": 51.047553845846934, 
      "name": "'t Lammeken", 
      "lonmin": 4.092931988002793, 
      "sanName": "tlammeken", 
      "numOfAddr": 17, 
      "lonmax": 4.095286213681978, 
      "latmin": 51.04694978567942
    }, 
    {
      "latmax": 51.02163977647902, 
      "name": "Torrestraat", 
      "lonmin": 4.123192490385104, 
      "sanName": "torrestraat", 
      "numOfAddr": 75, 
      "lonmax": 4.129122872379219, 
      "latmin": 51.01978060092361
    }, 
    {
      "latmax": 51.02935620645242, 
      "name": "Tragel", 
      "lonmin": 4.074049326630646, 
      "sanName": "tragel", 
      "numOfAddr": 6, 
      "lonmax": 4.091100065921153, 
      "latmin": 51.0239478399307
    }, 
    {
      "latmax": 51.03025360705513, 
      "name": "Tragelweg", 
      "lonmin": 4.079064876933221, 
      "sanName": "tragelweg", 
      "numOfAddr": 3, 
      "lonmax": 4.079961380161603, 
      "latmin": 51.02874779621567
    }, 
    {
      "latmax": 51.05942414624328, 
      "name": "Tuinlaan", 
      "lonmin": 4.10770038952958, 
      "sanName": "tuinlaan", 
      "numOfAddr": 37, 
      "lonmax": 4.109811379665332, 
      "latmin": 51.05708573247968
    }, 
    {
      "latmax": 51.03526847768945, 
      "name": "Tuinwijk", 
      "lonmin": 4.087932350175473, 
      "sanName": "tuinwijk", 
      "numOfAddr": 30, 
      "lonmax": 4.088876287590191, 
      "latmin": 51.033760736588405
    }, 
    {
      "latmax": 51.014877266985785, 
      "name": "Tulpenlaan", 
      "lonmin": 4.112136922165979, 
      "sanName": "tulpenlaan", 
      "numOfAddr": 25, 
      "lonmax": 4.112702671690789, 
      "latmin": 51.013969805907166
    }, 
    {
      "latmax": 50.999682674555956, 
      "name": "Tweebokstraat", 
      "lonmin": 4.005431133331453, 
      "sanName": "tweebokstraat", 
      "numOfAddr": 15, 
      "lonmax": 4.008564905496973, 
      "latmin": 50.99713498876998
    }, 
    {
      "latmax": 51.019353980071756, 
      "name": "Van Langenhovestraat", 
      "lonmin": 4.094839888887331, 
      "sanName": "vanlangenhovestraat", 
      "numOfAddr": 231, 
      "lonmax": 4.109638490909979, 
      "latmin": 51.01623196903685
    }, 
    {
      "latmax": 51.01166006223452, 
      "name": "Varenbergstraat", 
      "lonmin": 4.062876620354591, 
      "sanName": "varenbergstraat", 
      "numOfAddr": 87, 
      "lonmax": 4.070501679451248, 
      "latmin": 51.00897917107587
    }, 
    {
      "latmax": 51.03300361872697, 
      "name": "Veerstraat", 
      "lonmin": 4.101365607418344, 
      "sanName": "veerstraat", 
      "numOfAddr": 26, 
      "lonmax": 4.102364681907871, 
      "latmin": 51.0323389439135
    }, 
    {
      "latmax": 51.04827516168908, 
      "name": "Veldlaan", 
      "lonmin": 4.0914367509703355, 
      "sanName": "veldlaan", 
      "numOfAddr": 23, 
      "lonmax": 4.096513488237961, 
      "latmin": 51.04760751788491
    }, 
    {
      "latmax": 51.02179728507207, 
      "name": "Veldschansstraat", 
      "lonmin": 4.101644191487972, 
      "sanName": "veldschansstraat", 
      "numOfAddr": 21, 
      "lonmax": 4.1033272341071125, 
      "latmin": 51.020786658492575
    }, 
    {
      "latmax": 51.019026133814606, 
      "name": "Veldstraat", 
      "lonmin": 4.115945699946291, 
      "sanName": "veldstraat", 
      "numOfAddr": 61, 
      "lonmax": 4.1196218235734445, 
      "latmin": 51.01729156385776
    }, 
    {
      "latmax": 51.00561120305321, 
      "name": "Veldweg", 
      "lonmin": 4.030689905062486, 
      "sanName": "veldweg", 
      "numOfAddr": 1, 
      "lonmax": 4.030689905062486, 
      "latmin": 51.00561120305321
    }, 
    {
      "latmax": 51.048777829458984, 
      "name": "Verbindingsstraat", 
      "lonmin": 4.102837188614153, 
      "sanName": "verbindingsstraat", 
      "numOfAddr": 35, 
      "lonmax": 4.104827871595101, 
      "latmin": 51.046896348871016
    }, 
    {
      "latmax": 50.99452101919229, 
      "name": "Vier Uitersten", 
      "lonmin": 4.009107899389888, 
      "sanName": "vieruitersten", 
      "numOfAddr": 10, 
      "lonmax": 4.011166186288431, 
      "latmin": 50.99296315871635
    }, 
    {
      "latmax": 51.0625172113403, 
      "name": "Vijfbunderstraat", 
      "lonmin": 4.0953414512352175, 
      "sanName": "vijfbunderstraat", 
      "numOfAddr": 64, 
      "lonmax": 4.107516560420687, 
      "latmin": 51.05942327791803
    }, 
    {
      "latmax": 51.0206627293053, 
      "name": "Vijfde Januaristraat", 
      "lonmin": 4.112930320818982, 
      "sanName": "vijfdejanuaristraat", 
      "numOfAddr": 72, 
      "lonmax": 4.115588360937376, 
      "latmin": 51.0192937837988
    }, 
    {
      "latmax": 51.03610569354986, 
      "name": "Vijverstraat", 
      "lonmin": 4.084366023681767, 
      "sanName": "vijverstraat", 
      "numOfAddr": 9, 
      "lonmax": 4.0848745971195815, 
      "latmin": 51.03528281050111
    }, 
    {
      "latmax": 51.04580066290409, 
      "name": "Vlasbloemstraat", 
      "lonmin": 4.094049809849563, 
      "sanName": "vlasbloemstraat", 
      "numOfAddr": 20, 
      "lonmax": 4.097663818873099, 
      "latmin": 51.0441618381374
    }, 
    {
      "latmax": 51.030090730240914, 
      "name": "Vlasmarkt", 
      "lonmin": 4.098308914439, 
      "sanName": "vlasmarkt", 
      "numOfAddr": 35, 
      "lonmax": 4.100344152407609, 
      "latmin": 51.028695112375594
    }, 
    {
      "latmax": 51.05259113420098, 
      "name": "Vlassenbroek", 
      "lonmin": 4.12825269809152, 
      "sanName": "vlassenbroek", 
      "numOfAddr": 75, 
      "lonmax": 4.138339453715271, 
      "latmin": 51.03895440552076
    }, 
    {
      "latmax": 51.03301333413822, 
      "name": "Vlassenhout", 
      "lonmin": 4.128564826150046, 
      "sanName": "vlassenhout", 
      "numOfAddr": 17, 
      "lonmax": 4.133984000178892, 
      "latmin": 51.031445620067366
    }, 
    {
      "latmax": 51.01955878105051, 
      "name": "Vlietbergstraat", 
      "lonmin": 4.117216794715967, 
      "sanName": "vlietbergstraat", 
      "numOfAddr": 22, 
      "lonmax": 4.123032512349118, 
      "latmin": 51.013886815483154
    }, 
    {
      "latmax": 51.03675138918, 
      "name": "Vlotgraslaan", 
      "lonmin": 4.081272508682988, 
      "sanName": "vlotgraslaan", 
      "numOfAddr": 68, 
      "lonmax": 4.083670798579089, 
      "latmin": 51.03382584934733
    }, 
    {
      "latmax": 51.02141565462915, 
      "name": "Volaardestraat", 
      "lonmin": 4.129388423927803, 
      "sanName": "volaardestraat", 
      "numOfAddr": 94, 
      "lonmax": 4.143945695277471, 
      "latmin": 51.01534483873336
    }, 
    {
      "latmax": 51.046981389322845, 
      "name": "Volkaertwegel", 
      "lonmin": 4.108530601869654, 
      "sanName": "volkaertwegel", 
      "numOfAddr": 35, 
      "lonmax": 4.110522880618007, 
      "latmin": 51.044571784036144
    }, 
    {
      "latmax": 51.01833344171459, 
      "name": "Volkswelzijnstraat", 
      "lonmin": 4.105484981931459, 
      "sanName": "volkswelzijnstraat", 
      "numOfAddr": 28, 
      "lonmax": 4.106615804009137, 
      "latmin": 51.01733943523051
    }, 
    {
      "latmax": 51.02077972303701, 
      "name": "Vondelparklaan", 
      "lonmin": 4.10285185075117, 
      "sanName": "vondelparklaan", 
      "numOfAddr": 32, 
      "lonmax": 4.105355295071413, 
      "latmin": 51.01991035345127
    }, 
    {
      "latmax": 51.0481703323648, 
      "name": "Voortweg", 
      "lonmin": 4.108466997752509, 
      "sanName": "voortweg", 
      "numOfAddr": 27, 
      "lonmax": 4.110529245698833, 
      "latmin": 51.046928946446535
    }, 
    {
      "latmax": 51.05205232023614, 
      "name": "Vosakkerslaan", 
      "lonmin": 4.096590106852115, 
      "sanName": "vosakkerslaan", 
      "numOfAddr": 59, 
      "lonmax": 4.099405248669878, 
      "latmin": 51.048865010819284
    }, 
    {
      "latmax": 51.03125683337706, 
      "name": "Vosmeer", 
      "lonmin": 4.131451075233127, 
      "sanName": "vosmeer", 
      "numOfAddr": 14, 
      "lonmax": 4.135109602556265, 
      "latmin": 51.0272679031392
    }, 
    {
      "latmax": 51.04497007989529, 
      "name": "Vossenhoek", 
      "lonmin": 4.103310355808641, 
      "sanName": "vossenhoek", 
      "numOfAddr": 97, 
      "lonmax": 4.108341110456769, 
      "latmin": 51.040978018502344
    }, 
    {
      "latmax": 50.9997096268949, 
      "name": "Vrankrijkstraat", 
      "lonmin": 4.0183490000937505, 
      "sanName": "vrankrijkstraat", 
      "numOfAddr": 86, 
      "lonmax": 4.0251781599825405, 
      "latmin": 50.99572947649785
    }, 
    {
      "latmax": 51.03669343905632, 
      "name": "Vriesenrot", 
      "lonmin": 4.12693993340865, 
      "sanName": "vriesenrot", 
      "numOfAddr": 21, 
      "lonmax": 4.132075235974212, 
      "latmin": 51.03326682119135
    }, 
    {
      "latmax": 51.02917702414756, 
      "name": "Vrijstraat", 
      "lonmin": 4.053626956903521, 
      "sanName": "vrijstraat", 
      "numOfAddr": 58, 
      "lonmax": 4.054727242957163, 
      "latmin": 51.02491282143986
    }, 
    {
      "latmax": 51.019792657605294, 
      "name": "Warmen Haard", 
      "lonmin": 4.085171682020079, 
      "sanName": "warmenhaard", 
      "numOfAddr": 11, 
      "lonmax": 4.085949425985808, 
      "latmin": 51.01906259498835
    }, 
    {
      "latmax": 51.02013744234107, 
      "name": "Wastijnestraat", 
      "lonmin": 4.087436433512038, 
      "sanName": "wastijnestraat", 
      "numOfAddr": 15, 
      "lonmax": 4.088776635575817, 
      "latmin": 51.019009898092456
    }, 
    {
      "latmax": 51.01520449790291, 
      "name": "Watertorenstraat", 
      "lonmin": 4.1148897685741055, 
      "sanName": "watertorenstraat", 
      "numOfAddr": 43, 
      "lonmax": 4.117035485707204, 
      "latmin": 51.01450824406634
    }, 
    {
      "latmax": 51.020972317157955, 
      "name": "Weggevoerdenstraat", 
      "lonmin": 4.106299947472586, 
      "sanName": "weggevoerdenstraat", 
      "numOfAddr": 40, 
      "lonmax": 4.108241892332979, 
      "latmin": 51.01868257000831
    }, 
    {
      "latmax": 51.00555236357417, 
      "name": "Weidekouter", 
      "lonmin": 4.056037256136147, 
      "sanName": "weidekouter", 
      "numOfAddr": 40, 
      "lonmax": 4.060093270801397, 
      "latmin": 51.003950489759305
    }, 
    {
      "latmax": 51.01796194429756, 
      "name": "Weidestraat", 
      "lonmin": 4.1035495907028015, 
      "sanName": "weidestraat", 
      "numOfAddr": 16, 
      "lonmax": 4.105560567905015, 
      "latmin": 51.01719888111339
    }, 
    {
      "latmax": 51.027624900984215, 
      "name": "Weldadigheidstraat", 
      "lonmin": 4.10263633314232, 
      "sanName": "weldadigheidstraat", 
      "numOfAddr": 32, 
      "lonmax": 4.103555327105685, 
      "latmin": 51.02719491543864
    }, 
    {
      "latmax": 51.03175424066109, 
      "name": "Werf", 
      "lonmin": 4.101468209774037, 
      "sanName": "werf", 
      "numOfAddr": 12, 
      "lonmax": 4.102343631482805, 
      "latmin": 51.03148563870367
    }, 
    {
      "latmax": 51.02286685008081, 
      "name": "Werkplaatsstraat", 
      "lonmin": 4.10992189304983, 
      "sanName": "werkplaatsstraat", 
      "numOfAddr": 6, 
      "lonmax": 4.112653366675963, 
      "latmin": 51.02245463442302
    }, 
    {
      "latmax": 51.045965215419024, 
      "name": "Westbroek", 
      "lonmin": 4.096462496251188, 
      "sanName": "westbroek", 
      "numOfAddr": 27, 
      "lonmax": 4.099052381050531, 
      "latmin": 51.0440730385696
    }, 
    {
      "latmax": 51.02002875060774, 
      "name": "Wilgenlaan", 
      "lonmin": 4.101248596259227, 
      "sanName": "wilgenlaan", 
      "numOfAddr": 47, 
      "lonmax": 4.103776662679888, 
      "latmin": 51.018357802735196
    }, 
    {
      "latmax": 51.02299161328494, 
      "name": "Winningstraat", 
      "lonmin": 4.120136511423621, 
      "sanName": "winningstraat", 
      "numOfAddr": 24, 
      "lonmax": 4.136093641663464, 
      "latmin": 51.02190566509229
    },