{
  "streets": [
    {
      "latmax": 51.074401435413776, 
      "name": "Acacialaan", 
      "lonmin": 4.029263269026262, 
      "sanName": "acacialaan", 
      "numOfAddr": 77, 
      "lonmax": 4.035550022024536, 
      "latmin": 51.07201384301191
    }, 
    {
      "latmax": 51.06060026679332, 
      "name": "Albrecht Rodenbachstraat", 
      "lonmin": 4.034766558131991, 
      "sanName": "albrechtrodenbachstraat", 
      "numOfAddr": 23, 
      "lonmax": 4.035851575174514, 
      "latmin": 51.05882523312403
    }, 
    {
      "latmax": 51.057699589521704, 
      "name": "Alice Nahonstraat", 
      "lonmin": 4.036090917249913, 
      "sanName": "alicenahonstraat", 
      "numOfAddr": 11, 
      "lonmax": 4.036746943831716, 
      "latmin": 51.05645648086825
    }, 
    {
      "latmax": 51.07256962997552, 
      "name": "Alois De Beulelaan", 
      "lonmin": 4.042340703032558, 
      "sanName": "aloisdebeulelaan", 
      "numOfAddr": 25, 
      "lonmax": 4.044620962906979, 
      "latmin": 51.06944375378373
    }, 
    {
      "latmax": 51.08855950082607, 
      "name": "Andr\u0082 Bogaertstraat", 
      "lonmin": 4.053087080507887, 
      "sanName": "andrbogaertstraat", 
      "numOfAddr": 18, 
      "lonmax": 4.055507625883766, 
      "latmin": 51.086228857731655
    }, 
    {
      "latmax": 51.08600567323752, 
      "name": "A. Van der Moerenstraat", 
      "lonmin": 4.056757385760826, 
      "sanName": "avandermoerenstraat", 
      "numOfAddr": 49, 
      "lonmax": 4.062295081749607, 
      "latmin": 51.07424702002595
    }, 
    {
      "latmax": 51.05007638655657, 
      "name": "Avermaat", 
      "lonmin": 4.030470243920852, 
      "sanName": "avermaat", 
      "numOfAddr": 78, 
      "lonmax": 4.043542647787804, 
      "latmin": 51.04443358132514
    }, 
    {
      "latmax": 51.07130493795123, 
      "name": "Avil Geerincklaan", 
      "lonmin": 4.035180384200848, 
      "sanName": "avilgeerincklaan", 
      "numOfAddr": 61, 
      "lonmax": 4.037736643147873, 
      "latmin": 51.069159234880544
    }, 
    {
      "latmax": 51.08206129417441, 
      "name": "Baaikensstraat", 
      "lonmin": 4.049265098638581, 
      "sanName": "baaikensstraat", 
      "numOfAddr": 19, 
      "lonmax": 4.058966709144568, 
      "latmin": 51.0760975787145
    }, 
    {
      "latmax": 51.06924129430895, 
      "name": "Bakkerstraat", 
      "lonmin": 4.058903884912217, 
      "sanName": "bakkerstraat", 
      "numOfAddr": 73, 
      "lonmax": 4.069640300596669, 
      "latmin": 51.06463163266824
    }, 
    {
      "latmax": 51.08834022448561, 
      "name": "Beekstraat", 
      "lonmin": 4.059652025819371, 
      "sanName": "beekstraat", 
      "numOfAddr": 6, 
      "lonmax": 4.060044450031091, 
      "latmin": 51.08767232241357
    }, 
    {
      "latmax": 51.06600208105116, 
      "name": "Begijnhof", 
      "lonmin": 4.029267789622968, 
      "sanName": "begijnhof", 
      "numOfAddr": 1, 
      "lonmax": 4.029267789622968, 
      "latmin": 51.06600208105116
    }, 
    {
      "latmax": 51.06679478168588, 
      "name": "Berkenhof", 
      "lonmin": 4.024022140062577, 
      "sanName": "berkenhof", 
      "numOfAddr": 9, 
      "lonmax": 4.024842862721403, 
      "latmin": 51.0659781928895
    }, 
    {
      "latmax": 51.07441116334459, 
      "name": "Beukenlaan", 
      "lonmin": 4.0321751451826255, 
      "sanName": "beukenlaan", 
      "numOfAddr": 36, 
      "lonmax": 4.034986330472657, 
      "latmin": 51.07161294513572
    }, 
    {
      "latmax": 51.068318588040036, 
      "name": "Biesbochtstraat", 
      "lonmin": 3.981887929439318, 
      "sanName": "biesbochtstraat", 
      "numOfAddr": 32, 
      "lonmax": 3.985923997690375, 
      "latmin": 51.06730738485652
    }, 
    {
      "latmax": 51.074640575310006, 
      "name": "Binnenhof", 
      "lonmin": 4.039812408990807, 
      "sanName": "binnenhof", 
      "numOfAddr": 5, 
      "lonmax": 4.039968306025447, 
      "latmin": 51.074290452809976
    }, 
    {
      "latmax": 51.0602836349474, 
      "name": "Bookhamersstraat", 
      "lonmin": 3.9966711183738286, 
      "sanName": "bookhamersstraat", 
      "numOfAddr": 10, 
      "lonmax": 4.006160318596947, 
      "latmin": 51.05570715309067
    }, 
    {
      "latmax": 51.07067813218867, 
      "name": "Bookmolenstraat", 
      "lonmin": 4.040272494151214, 
      "sanName": "bookmolenstraat", 
      "numOfAddr": 15, 
      "lonmax": 4.040848580480896, 
      "latmin": 51.06925825560563
    }, 
    {
      "latmax": 51.0696086606052, 
      "name": "Bosstraat", 
      "lonmin": 3.9924329824294236, 
      "sanName": "bosstraat", 
      "numOfAddr": 152, 
      "lonmax": 4.018870001074653, 
      "latmin": 51.06569691327405
    }, 
    {
      "latmax": 51.067618822424514, 
      "name": "Buffelstraat", 
      "lonmin": 4.077829081559729, 
      "sanName": "buffelstraat", 
      "numOfAddr": 23, 
      "lonmax": 4.081452429823044, 
      "latmin": 51.06471649123746
    }, 
    {
      "latmax": 51.07004027474023, 
      "name": "Bunderstraat", 
      "lonmin": 4.042369529802727, 
      "sanName": "bunderstraat", 
      "numOfAddr": 14, 
      "lonmax": 4.043256360829089, 
      "latmin": 51.06963078390917
    }, 
    {
      "latmax": 51.06430606208419, 
      "name": "Burgemeester Van Ackerwijk A", 
      "lonmin": 4.033134837559087, 
      "sanName": "burgemeestervanackerwijka", 
      "numOfAddr": 44, 
      "lonmax": 4.035744359365112, 
      "latmin": 51.06330855684998
    }, 
    {
      "latmax": 51.064048006622144, 
      "name": "Burgemeester Van Ackerwijk B", 
      "lonmin": 4.032647279875595, 
      "sanName": "burgemeestervanackerwijkb", 
      "numOfAddr": 18, 
      "lonmax": 4.034028317441832, 
      "latmin": 51.06289181589515
    }, 
    {
      "latmax": 51.06406512445148, 
      "name": "Burgemeester Van Ackerwijk C", 
      "lonmin": 4.029500967749637, 
      "sanName": "burgemeestervanackerwijkc", 
      "numOfAddr": 26, 
      "lonmax": 4.032714870075053, 
      "latmin": 51.06316323769477
    }, 
    {
      "latmax": 51.06352200367112, 
      "name": "Burgemeester Van Ackerwijk D", 
      "lonmin": 4.031584570746736, 
      "sanName": "burgemeestervanackerwijkd", 
      "numOfAddr": 20, 
      "lonmax": 4.032556382898258, 
      "latmin": 51.062749823280754
    }, 
    {
      "latmax": 51.0631987769792, 
      "name": "Burgemeester Van Ackerwijk E", 
      "lonmin": 4.030517121017894, 
      "sanName": "burgemeestervanackerwijke", 
      "numOfAddr": 25, 
      "lonmax": 4.031495919782222, 
      "latmin": 51.061462102623416
    }, 
    {
      "latmax": 51.063106980871524, 
      "name": "Burgemeester Van Ackerwijk F", 
      "lonmin": 4.030819482067426, 
      "sanName": "burgemeestervanackerwijkf", 
      "numOfAddr": 32, 
      "lonmax": 4.033466948273403, 
      "latmin": 51.061473289880304
    }, 
    {
      "latmax": 51.062719368118366, 
      "name": "Burgemeester Van Ackerwijk G", 
      "lonmin": 4.033130277393205, 
      "sanName": "burgemeestervanackerwijkg", 
      "numOfAddr": 21, 
      "lonmax": 4.034738080990712, 
      "latmin": 51.061832814141795
    }, 
    {
      "latmax": 51.062942963482264, 
      "name": "Burgemeester Van Ackerwijk H", 
      "lonmin": 4.0345812584316, 
      "sanName": "burgemeestervanackerwijkh", 
      "numOfAddr": 24, 
      "lonmax": 4.035610205288192, 
      "latmin": 51.06202825473213
    }, 
    {
      "latmax": 51.063465664481285, 
      "name": "Burgemeester Van Ackerwijk I", 
      "lonmin": 4.034091701672745, 
      "sanName": "burgemeestervanackerwijki", 
      "numOfAddr": 14, 
      "lonmax": 4.035518791975792, 
      "latmin": 51.063045078222814
    }, 
    {
      "latmax": 51.0633009332573, 
      "name": "Burgemeester Van Ackerwijk J", 
      "lonmin": 4.035450699337859, 
      "sanName": "burgemeestervanackerwijkj", 
      "numOfAddr": 24, 
      "lonmax": 4.036512542059119, 
      "latmin": 51.06225193500084
    }, 
    {
      "latmax": 51.06257124479329, 
      "name": "Burgemeester Van Ackerwijk K", 
      "lonmin": 4.03110835880377, 
      "sanName": "burgemeestervanackerwijkk", 
      "numOfAddr": 67, 
      "lonmax": 4.036726260788402, 
      "latmin": 51.06059930614775
    }, 
    {
      "latmax": 51.06228572640074, 
      "name": "Burgemeester Van Ackerwijk L", 
      "lonmin": 4.032244402192662, 
      "sanName": "burgemeestervanackerwijkl", 
      "numOfAddr": 13, 
      "lonmax": 4.032755762242425, 
      "latmin": 51.061629004074106
    }, 
    {
      "latmax": 51.06325227179563, 
      "name": "Burgemeester Van Ackerwijk M", 
      "lonmin": 4.036519183924359, 
      "sanName": "burgemeestervanackerwijkm", 
      "numOfAddr": 4, 
      "lonmax": 4.036765517492341, 
      "latmin": 51.06294658226146
    }, 
    {
      "latmax": 51.076631447352035, 
      "name": "Cederlaan", 
      "lonmin": 4.029618138411406, 
      "sanName": "cederlaan", 
      "numOfAddr": 24, 
      "lonmax": 4.031916767083956, 
      "latmin": 51.07483169691799
    }, 
    {
      "latmax": 51.069230277957075, 
      "name": "Centrum", 
      "lonmin": 4.0367866715607645, 
      "sanName": "centrum", 
      "numOfAddr": 1, 
      "lonmax": 4.0367866715607645, 
      "latmin": 51.069230277957075
    }, 
    {
      "latmax": 51.06815627070009, 
      "name": "Cesar Meeusstraat", 
      "lonmin": 4.036446229083881, 
      "sanName": "cesarmeeusstraat", 
      "numOfAddr": 28, 
      "lonmax": 4.037835739435529, 
      "latmin": 51.067254926483784
    }, 
    {
      "latmax": 51.066494043025884, 
      "name": "Collegestraat", 
      "lonmin": 4.041362949702439, 
      "sanName": "collegestraat", 
      "numOfAddr": 39, 
      "lonmax": 4.043701327171269, 
      "latmin": 51.0638790790274
    }, 
    {
      "latmax": 51.070730611366805, 
      "name": "De Deckerstraat", 
      "lonmin": 4.039312458613837, 
      "sanName": "dedeckerstraat", 
      "numOfAddr": 28, 
      "lonmax": 4.040222815677016, 
      "latmin": 51.06903799132275
    }, 
    {
      "latmax": 51.06890624192278, 
      "name": "Dekenijstraat", 
      "lonmin": 4.038427521591237, 
      "sanName": "dekenijstraat", 
      "numOfAddr": 2, 
      "lonmax": 4.038538672000255, 
      "latmin": 51.06872236858801
    }, 
    {
      "latmax": 51.068152628688985, 
      "name": "Dendermondebaan", 
      "lonmin": 4.044085804633863, 
      "sanName": "dendermondebaan", 
      "numOfAddr": 202, 
      "lonmax": 4.057366674162724, 
      "latmin": 51.05740493381271
    }, 
    {
      "latmax": 51.07383334702061, 
      "name": "Dennenlaan", 
      "lonmin": 4.034313770858241, 
      "sanName": "dennenlaan", 
      "numOfAddr": 32, 
      "lonmax": 4.035865714417936, 
      "latmin": 51.0723580354488
    }, 
    {
      "latmax": 51.05147381708597, 
      "name": "Dijkstraat", 
      "lonmin": 4.045597123905656, 
      "sanName": "dijkstraat", 
      "numOfAddr": 57, 
      "lonmax": 4.076020486774248, 
      "latmin": 51.04223957689734
    }, 
    {
      "latmax": 51.068623493114515, 
      "name": "Dokter Armand Rubbensstraat", 
      "lonmin": 4.040407342531641, 
      "sanName": "dokterarmandrubbensstraat", 
      "numOfAddr": 51, 
      "lonmax": 4.043991578607524, 
      "latmin": 51.067622114615624
    }, 
    {
      "latmax": 51.07872527204228, 
      "name": "Dommekensstraat", 
      "lonmin": 4.0472308238363635, 
      "sanName": "dommekensstraat", 
      "numOfAddr": 9, 
      "lonmax": 4.0545687258671625, 
      "latmin": 51.07590465632595
    }, 
    {
      "latmax": 51.09634634159984, 
      "name": "Donkerputstraat", 
      "lonmin": 4.050523654901981, 
      "sanName": "donkerputstraat", 
      "numOfAddr": 21, 
      "lonmax": 4.056599525355343, 
      "latmin": 51.08642085830218
    }, 
    {
      "latmax": 51.07245528386334, 
      "name": "Dreef", 
      "lonmin": 4.036851560045632, 
      "sanName": "dreef", 
      "numOfAddr": 32, 
      "lonmax": 4.039810409325624, 
      "latmin": 51.07038968352779
    }, 
    {
      "latmax": 51.069044330595915, 
      "name": "Drieputtenstraat", 
      "lonmin": 4.030786044514934, 
      "sanName": "drieputtenstraat", 
      "numOfAddr": 96, 
      "lonmax": 4.033421498673882, 
      "latmin": 51.066468911391866
    }, 
    {
      "latmax": 51.06969307030822, 
      "name": "Driesstraat", 
      "lonmin": 4.02202300158608, 
      "sanName": "driesstraat", 
      "numOfAddr": 152, 
      "lonmax": 4.033387401959881, 
      "latmin": 51.065476274352335
    }, 
    {
      "latmax": 51.07786046265338, 
      "name": "Drukkerijstraat", 
      "lonmin": 4.045723701266804, 
      "sanName": "drukkerijstraat", 
      "numOfAddr": 8, 
      "lonmax": 4.051833289599891, 
      "latmin": 51.07114239745292
    }, 
    {
      "latmax": 51.06952177720845, 
      "name": "Dr. Victor Van Cauterenstraat", 
      "lonmin": 4.04286500094148, 
      "sanName": "drvictorvancauterenstraat", 
      "numOfAddr": 56, 
      "lonmax": 4.047831293766399, 
      "latmin": 51.06841461412271
    }, 
    {
      "latmax": 51.08800010174067, 
      "name": "Durmen", 
      "lonmin": 4.043133051543324, 
      "sanName": "durmen", 
      "numOfAddr": 258, 
      "lonmax": 4.061627542628433, 
      "latmin": 51.0791768959631
    }, 
    {
      "latmax": 51.06481504977531, 
      "name": "Eekstraat", 
      "lonmin": 4.007880434745075, 
      "sanName": "eekstraat", 
      "numOfAddr": 51, 
      "lonmax": 4.022026529915441, 
      "latmin": 51.05931022940942
    }, 
    {
      "latmax": 51.07491317416067, 
      "name": "Eikenlaan", 
      "lonmin": 4.02554524938763, 
      "sanName": "eikenlaan", 
      "numOfAddr": 110, 
      "lonmax": 4.034925941817152, 
      "latmin": 51.071701780898934
    }, 
    {
      "latmax": 51.0744027930361, 
      "name": "Elststraat", 
      "lonmin": 4.032334248326269, 
      "sanName": "elststraat", 
      "numOfAddr": 139, 
      "lonmax": 4.039936077434305, 
      "latmin": 51.069504696218445
    }, 
    {
      "latmax": 51.05950319154834, 
      "name": "Ernest Claesstraat", 
      "lonmin": 4.036041024959559, 
      "sanName": "ernestclaesstraat", 
      "numOfAddr": 12, 
      "lonmax": 4.036823665670422, 
      "latmin": 51.058641155003436
    }, 
    {
      "latmax": 51.07922855032275, 
      "name": "Europalaan", 
      "lonmin": 4.044237036268367, 
      "sanName": "europalaan", 
      "numOfAddr": 16, 
      "lonmax": 4.057355255205126, 
      "latmin": 51.057396928885744
    }, 
    {
      "latmax": 51.059611647288556, 
      "name": "Felix Timmermansstraat", 
      "lonmin": 4.032351404531115, 
      "sanName": "felixtimmermansstraat", 
      "numOfAddr": 36, 
      "lonmax": 4.035286979224365, 
      "latmin": 51.05861270032659
    }, 
    {
      "latmax": 51.05867440507409, 
      "name": "Filip De Pillecynstraat", 
      "lonmin": 4.033353151079518, 
      "sanName": "filipdepillecynstraat", 
      "numOfAddr": 40, 
      "lonmax": 4.036723596498284, 
      "latmin": 51.0579013673905
    }, 
    {
      "latmax": 51.05015148390514, 
      "name": "Frans Roomsstraat", 
      "lonmin": 4.027433029459684, 
      "sanName": "fransroomsstraat", 
      "numOfAddr": 8, 
      "lonmax": 4.035799857088242, 
      "latmin": 51.0484981742247
    }, 
    {
      "latmax": 51.06946005502322, 
      "name": "Gaverstraat", 
      "lonmin": 4.005739578030365, 
      "sanName": "gaverstraat", 
      "numOfAddr": 4, 
      "lonmax": 4.006956470865693, 
      "latmin": 51.06882111323629
    }, 
    {
      "latmax": 51.06363329198144, 
      "name": "Gentsesteenweg", 
      "lonmin": 3.9793790625308354, 
      "sanName": "gentsesteenweg", 
      "numOfAddr": 292, 
      "lonmax": 4.024664182199621, 
      "latmin": 51.05282390636207
    }, 
    {
      "latmax": 51.080509177809766, 
      "name": "Goeiende", 
      "lonmin": 4.025079014841307, 
      "sanName": "goeiende", 
      "numOfAddr": 7, 
      "lonmax": 4.028011220986793, 
      "latmin": 51.07825910728709
    }, 
    {
      "latmax": 51.058335074103155, 
      "name": "Groenlaan", 
      "lonmin": 4.018508928662814, 
      "sanName": "groenlaan", 
      "numOfAddr": 39, 
      "lonmax": 4.021489690944575, 
      "latmin": 51.05644249554013
    }, 
    {
      "latmax": 51.0615445114905, 
      "name": "Guido Gezellestraat", 
      "lonmin": 4.035913696167164, 
      "sanName": "guidogezellestraat", 
      "numOfAddr": 72, 
      "lonmax": 4.038113394237095, 
      "latmin": 51.05595125006626
    }, 
    {
      "latmax": 51.05713027336743, 
      "name": "Hadewychstraat", 
      "lonmin": 4.033756340633145, 
      "sanName": "hadewychstraat", 
      "numOfAddr": 22, 
      "lonmax": 4.036097287537708, 
      "latmin": 51.05672464122869
    }, 
    {
      "latmax": 51.07174076674054, 
      "name": "Hansevelde", 
      "lonmin": 4.074430116264976, 
      "sanName": "hansevelde", 
      "numOfAddr": 97, 
      "lonmax": 4.087143615636938, 
      "latmin": 51.06646332133577
    }, 
    {
      "latmax": 51.04363071429629, 
      "name": "Haststraat", 
      "lonmin": 4.010012864189782, 
      "sanName": "haststraat", 
      "numOfAddr": 3, 
      "lonmax": 4.010473483405512, 
      "latmin": 51.04345151899786
    }, 
    {
      "latmax": 51.069330236360976, 
      "name": "Heikant", 
      "lonmin": 3.9836443562932464, 
      "sanName": "heikant", 
      "numOfAddr": 295, 
      "lonmax": 4.009592734959693, 
      "latmin": 51.05640403191497
    }, 
    {
      "latmax": 51.07147472960528, 
      "name": "Heikensstraat", 
      "lonmin": 4.051673360391443, 
      "sanName": "heikensstraat", 
      "numOfAddr": 7, 
      "lonmax": 4.055371649514779, 
      "latmin": 51.06972768436592
    }, 
    {
      "latmax": 51.069374975870645, 
      "name": "Heilig Hartplein", 
      "lonmin": 4.038093381530273, 
      "sanName": "heilighartplein", 
      "numOfAddr": 7, 
      "lonmax": 4.039212109372266, 
      "latmin": 51.06860408612248
    }, 
    {
      "latmax": 51.05028602104144, 
      "name": "Heirbaan", 
      "lonmin": 4.054157755532732, 
      "sanName": "heirbaan", 
      "numOfAddr": 19, 
      "lonmax": 4.058159914419226, 
      "latmin": 51.04935423800624
    }, 
    {
      "latmax": 51.061609812703054, 
      "name": "Hendrik Consciencestraat", 
      "lonmin": 4.030179955276075, 
      "sanName": "hendrikconsciencestraat", 
      "numOfAddr": 50, 
      "lonmax": 4.036194434168522, 
      "latmin": 51.05972012463176
    }, 
    {
      "latmax": 51.0750275635058, 
      "name": "Herderstraat", 
      "lonmin": 4.050775112636192, 
      "sanName": "herderstraat", 
      "numOfAddr": 6, 
      "lonmax": 4.054745963117155, 
      "latmin": 51.072649609287126
    }, 
    {
      "latmax": 51.05875312131805, 
      "name": "Herman Teirlinckstraat", 
      "lonmin": 4.038018581226503, 
      "sanName": "hermanteirlinckstraat", 
      "numOfAddr": 18, 
      "lonmax": 4.039141167507163, 
      "latmin": 51.05762877196845
    }, 
    {
      "latmax": 51.06915471115114, 
      "name": "Hermietstraat", 
      "lonmin": 4.081248479984637, 
      "sanName": "hermietstraat", 
      "numOfAddr": 29, 
      "lonmax": 4.090061022317628, 
      "latmin": 51.06371447371648
    }, 
    {
      "latmax": 51.09433652458663, 
      "name": "Hoekstraat", 
      "lonmin": 4.033649178115619, 
      "sanName": "hoekstraat", 
      "numOfAddr": 61, 
      "lonmax": 4.046249764835253, 
      "latmin": 51.085143043992694
    }, 
    {
      "latmax": 51.08452079179215, 
      "name": "Hof ten Goededreef", 
      "lonmin": 4.030586349416351, 
      "sanName": "hoftengoededreef", 
      "numOfAddr": 3, 
      "lonmax": 4.033115105299919, 
      "latmin": 51.08404871370897
    }, 
    {
      "latmax": 51.07076964486742, 
      "name": "Honor\u0082 Staesstraat", 
      "lonmin": 4.0444438913020795, 
      "sanName": "honorstaesstraat", 
      "numOfAddr": 28, 
      "lonmax": 4.046213624885402, 
      "latmin": 51.06977716744291
    }, 
    {
      "latmax": 51.06829746841357, 
      "name": "Hoogstraat", 
      "lonmin": 4.003586211754514, 
      "sanName": "hoogstraat", 
      "numOfAddr": 35, 
      "lonmax": 4.0065473587670155, 
      "latmin": 51.06183752934998
    }, 
    {
      "latmax": 51.07932141116194, 
      "name": "Huis Ten Halve", 
      "lonmin": 4.041568165009216, 
      "sanName": "huistenhalve", 
      "numOfAddr": 33, 
      "lonmax": 4.0428384284209855, 
      "latmin": 51.07784879747404
    }, 
    {
      "latmax": 51.06727930679807, 
      "name": "Huivelde", 
      "lonmin": 4.0559062737660785, 
      "sanName": "huivelde", 
      "numOfAddr": 175, 
      "lonmax": 4.07568899183013, 
      "latmin": 51.059970654762274
    }, 
    {
      "latmax": 51.07308951883557, 
      "name": "Industriestraat", 
      "lonmin": 4.045189583784176, 
      "sanName": "industriestraat", 
      "numOfAddr": 48, 
      "lonmax": 4.050128605262107, 
      "latmin": 51.06892796144155
    }, 
    {
      "latmax": 51.06032305817845, 
      "name": "Jacob Van Maerlantstraat", 
      "lonmin": 4.037631134298486, 
      "sanName": "jacobvanmaerlantstraat", 
      "numOfAddr": 4, 
      "lonmax": 4.038058347518458, 
      "latmin": 51.06020149809312
    }, 
    {
      "latmax": 51.05788625397087, 
      "name": "Jan Frans Willemsstraat", 
      "lonmin": 4.033394746753492, 
      "sanName": "janfranswillemsstraat", 
      "numOfAddr": 27, 
      "lonmax": 4.036224310329992, 
      "latmin": 51.05715619894213
    }, 
    {
      "latmax": 51.06242912145062, 
      "name": "Jutestraat", 
      "lonmin": 4.023354901259343, 
      "sanName": "jutestraat", 
      "numOfAddr": 21, 
      "lonmax": 4.0246590535673334, 
      "latmin": 51.061462613725574
    }, 
    {
      "latmax": 51.055521464908246, 
      "name": "Kalvariestraat", 
      "lonmin": 4.049789510536871, 
      "sanName": "kalvariestraat", 
      "numOfAddr": 7, 
      "lonmax": 4.050842971947094, 
      "latmin": 51.05466830922833
    }, 
    {
      "latmax": 51.055896285593136, 
      "name": "Kamershoek", 
      "lonmin": 4.008135749867544, 
      "sanName": "kamershoek", 
      "numOfAddr": 103, 
      "lonmax": 4.013573073383255, 
      "latmin": 51.03902406897218
    }, 
    {
      "latmax": 51.074282019147006, 
      "name": "Kanonstraat", 
      "lonmin": 4.038110862421217, 
      "sanName": "kanonstraat", 
      "numOfAddr": 8, 
      "lonmax": 4.038514719773117, 
      "latmin": 51.07402045234531
    }, 
    {
      "latmax": 51.067877615952355, 
      "name": "Kapellestraat", 
      "lonmin": 4.038908898299773, 
      "sanName": "kapellestraat", 
      "numOfAddr": 38, 
      "lonmax": 4.042203006682056, 
      "latmin": 51.066155001979496
    }, 
    {
      "latmax": 51.054063181311754, 
      "name": "Kapelleveldstraat", 
      "lonmin": 4.046339447604633, 
      "sanName": "kapelleveldstraat", 
      "numOfAddr": 1, 
      "lonmax": 4.046339447604633, 
      "latmin": 51.054063181311754
    }, 
    {
      "latmax": 51.068941386225816, 
      "name": "Karel Haegensstraat", 
      "lonmin": 4.032470830633712, 
      "sanName": "karelhaegensstraat", 
      "numOfAddr": 56, 
      "lonmax": 4.034650161426107, 
      "latmin": 51.066606129058115
    }, 
    {
      "latmax": 51.07217546552891, 
      "name": "Kastanjelaan", 
      "lonmin": 4.027253422309556, 
      "sanName": "kastanjelaan", 
      "numOfAddr": 48, 
      "lonmax": 4.030117611137858, 
      "latmin": 51.070365769981194
    }, 
    {
      "latmax": 51.08213022175326, 
      "name": "Kasteelstraat", 
      "lonmin": 4.036491509822654, 
      "sanName": "kasteelstraat", 
      "numOfAddr": 4, 
      "lonmax": 4.0394053781433055, 
      "latmin": 51.08186457216434
    }, 
    {
      "latmax": 51.08578007582328, 
      "name": "Kerkhofstraat", 
      "lonmin": 4.059326327066745, 
      "sanName": "kerkhofstraat", 
      "numOfAddr": 1, 
      "lonmax": 4.059326327066745, 
      "latmin": 51.08578007582328
    }, 
    {
      "latmax": 51.0642422895703, 
      "name": "Kerkstraat", 
      "lonmin": 4.026421865256116, 
      "sanName": "kerkstraat", 
      "numOfAddr": 29, 
      "lonmax": 4.027663162491259, 
      "latmin": 51.06274729904989
    }, 
    {
      "latmax": 51.087410002541, 
      "name": "Kil", 
      "lonmin": 4.028156499943677, 
      "sanName": "kil", 
      "numOfAddr": 31, 
      "lonmax": 4.037093879927559, 
      "latmin": 51.08424294945146
    }, 
    {
      "latmax": 51.083490073284885, 
      "name": "Kloddenzakstraat", 
      "lonmin": 4.076752085109068, 
      "sanName": "kloddenzakstraat", 
      "numOfAddr": 2, 
      "lonmax": 4.077472755393309, 
      "latmin": 51.08192691987054
    }, 
    {
      "latmax": 51.06978737723604, 
      "name": "Kloosterstraat", 
      "lonmin": 4.040266616770064, 
      "sanName": "kloosterstraat", 
      "numOfAddr": 47, 
      "lonmax": 4.043409205284072, 
      "latmin": 51.06863444289267
    }, 
    {
      "latmax": 51.08105834631066, 
      "name": "Koelaarstraat", 
      "lonmin": 4.032703481724336, 
      "sanName": "koelaarstraat", 
      "numOfAddr": 2, 
      "lonmax": 4.034599260239885, 
      "latmin": 51.078838810663676
    }, 
    {
      "latmax": 51.067446224751386, 
      "name": "Koevliet", 
      "lonmin": 4.025726748574434, 
      "sanName": "koevliet", 
      "numOfAddr": 9, 
      "lonmax": 4.028108623972177, 
      "latmin": 51.06520143857544
    }, 
    {
      "latmax": 51.072964799679106, 
      "name": "Koningin Astridplein", 
      "lonmin": 4.041594169453189, 
      "sanName": "koninginastridplein", 
      "numOfAddr": 3, 
      "lonmax": 4.041816815905426, 
      "latmin": 51.072520790253144
    }, 
    {
      "latmax": 51.06633862489163, 
      "name": "Korte Rinkhoutstraat", 
      "lonmin": 4.0513925396842225, 
      "sanName": "korterinkhoutstraat", 
      "numOfAddr": 6, 
      "lonmax": 4.052436750557122, 
      "latmin": 51.064553208949455
    }, 
    {
      "latmax": 51.05881259599721, 
      "name": "Kortestraat", 
      "lonmin": 4.041087568552608, 
      "sanName": "kortestraat", 
      "numOfAddr": 19, 
      "lonmax": 4.04452652419679, 
      "latmin": 51.05761111635942
    }, 
    {
      "latmax": 51.06157402580043, 
      "name": "Kouterbosstraat", 
      "lonmin": 4.009028015552228, 
      "sanName": "kouterbosstraat", 
      "numOfAddr": 76, 
      "lonmax": 4.021056856652787, 
      "latmin": 51.05797313215355
    }, 
    {
      "latmax": 51.067002547341424, 
      "name": "Kouterstraat", 
      "lonmin": 4.024412968938413, 
      "sanName": "kouterstraat", 
      "numOfAddr": 161, 
      "lonmax": 4.034391610941363, 
      "latmin": 51.06344822050864
    }, 
    {
      "latmax": 51.061619115163296, 
      "name": "Kromme Heistraat", 
      "lonmin": 3.979516631243789, 
      "sanName": "krommeheistraat", 
      "numOfAddr": 12, 
      "lonmax": 3.9954095036238235, 
      "latmin": 51.05549956744288
    }, 
    {
      "latmax": 51.06664100819306, 
      "name": "Kruisstraat", 
      "lonmin": 4.053143349884788, 
      "sanName": "kruisstraat", 
      "numOfAddr": 61, 
      "lonmax": 4.056258448630088, 
      "latmin": 51.06228760370303
    }, 
    {
      "latmax": 51.06876178692226, 
      "name": "Lange Akker", 
      "lonmin": 4.027551186691888, 
      "sanName": "langeakker", 
      "numOfAddr": 58, 
      "lonmax": 4.030330851812467, 
      "latmin": 51.0657822106196
    }, 
    {
      "latmax": 51.06987239837395, 
      "name": "Langemuntstraat", 
      "lonmin": 4.0340622227023175, 
      "sanName": "langemuntstraat", 
      "numOfAddr": 46, 
      "lonmax": 4.03670762395817, 
      "latmin": 51.06739865319246
    }, 
    {
      "latmax": 51.066124773884034, 
      "name": "Langestraat", 
      "lonmin": 4.034389893739937, 
      "sanName": "langestraat", 
      "numOfAddr": 229, 
      "lonmax": 4.040824068622054, 
      "latmin": 51.05550934828189
    }, 
    {
      "latmax": 51.07800864176982, 
      "name": "Langevelde", 
      "lonmin": 4.055748597240251, 
      "sanName": "langevelde", 
      "numOfAddr": 46, 
      "lonmax": 4.073170972584895, 
      "latmin": 51.073536440302945
    }, 
    {
      "latmax": 51.06868147317055, 
      "name": "Lichterik", 
      "lonmin": 4.016982660348046, 
      "sanName": "lichterik", 
      "numOfAddr": 6, 
      "lonmax": 4.017783678783842, 
      "latmin": 51.06839621382894
    }, 
    {
      "latmax": 51.066242502807754, 
      "name": "Lindenhof", 
      "lonmin": 4.02302450716914, 
      "sanName": "lindenhof", 
      "numOfAddr": 30, 
      "lonmax": 4.024345673110043, 
      "latmin": 51.06531093212854
    }, 
    {
      "latmax": 51.0812442539299, 
      "name": "Lindestraat", 
      "lonmin": 4.047075730810656, 
      "sanName": "lindestraat", 
      "numOfAddr": 15, 
      "lonmax": 4.054770942953274, 
      "latmin": 51.07281050423681
    }, 
    {
      "latmax": 51.08712376730889, 
      "name": "Lokerenbaan", 
      "lonmin": 4.028139887823001, 
      "sanName": "lokerenbaan", 
      "numOfAddr": 250, 
      "lonmax": 4.041476652448702, 
      "latmin": 51.070764399157106
    }, 
    {
      "latmax": 51.05799530759049, 
      "name": "Louis Paul Boonstraat", 
      "lonmin": 4.031817885725118, 
      "sanName": "louispaulboonstraat", 
      "numOfAddr": 9, 
      "lonmax": 4.032690489737897, 
      "latmin": 51.05740715008773
    }, 
    {
      "latmax": 51.064586163966325, 
      "name": "Magdalenastraat", 
      "lonmin": 4.027419675474696, 
      "sanName": "magdalenastraat", 
      "numOfAddr": 23, 
      "lonmax": 4.028113152039715, 
      "latmin": 51.06373507335896
    }, 
    {
      "latmax": 51.0690912535964, 
      "name": "Markt", 
      "lonmin": 4.036857290532589, 
      "sanName": "markt", 
      "numOfAddr": 47, 
      "lonmax": 4.0404598336291695, 
      "latmin": 51.067165033483626
    }, 
    {
      "latmax": 51.050211833516585, 
      "name": "Meerskant", 
      "lonmin": 4.013318441296379, 
      "sanName": "meerskant", 
      "numOfAddr": 94, 
      "lonmax": 4.029612851155243, 
      "latmin": 51.04401914234074
    }, 
    {
      "latmax": 51.082130743771586, 
      "name": "Mespeleir", 
      "lonmin": 4.072321708655945, 
      "sanName": "mespeleir", 
      "numOfAddr": 13, 
      "lonmax": 4.078914781221124, 
      "latmin": 51.07739749840205
    }, 
    {
      "latmax": 51.06070385163721, 
      "name": "Mimosalaan", 
      "lonmin": 4.030347681728544, 
      "sanName": "mimosalaan", 
      "numOfAddr": 10, 
      "lonmax": 4.03100192622671, 
      "latmin": 51.06028514192904
    }, 
    {
      "latmax": 51.07083686792918, 
      "name": "Minister E. Rubbenslaan", 
      "lonmin": 4.036379337511185, 
      "sanName": "ministererubbenslaan", 
      "numOfAddr": 26, 
      "lonmax": 4.038139013873233, 
      "latmin": 51.070123959088804
    }, 
    {
      "latmax": 51.07217800306772, 
      "name": "Moerstraat", 
      "lonmin": 4.041121933683339, 
      "sanName": "moerstraat", 
      "numOfAddr": 12, 
      "lonmax": 4.042248754551873, 
      "latmin": 51.07110038510304
    }, 
    {
      "latmax": 51.06502770067374, 
      "name": "Molenhof", 
      "lonmin": 4.036110648606389, 
      "sanName": "molenhof", 
      "numOfAddr": 5, 
      "lonmax": 4.036322609668567, 
      "latmin": 51.06474512837201
    }, 
    {
      "latmax": 51.06752011442187, 
      "name": "Molenstraat", 
      "lonmin": 3.9782426612727715, 
      "sanName": "molenstraat", 
      "numOfAddr": 32, 
      "lonmax": 3.987499655964524, 
      "latmin": 51.06086396310548
    }, 
    {
      "latmax": 51.06413052452994, 
      "name": "Naaldkantstraat", 
      "lonmin": 4.027098560100878, 
      "sanName": "naaldkantstraat", 
      "numOfAddr": 5, 
      "lonmax": 4.027445569002917, 
      "latmin": 51.06375128663182
    }, 
    {
      "latmax": 51.06871979567407, 
      "name": "Nachtegaalstraat", 
      "lonmin": 4.050568502106579, 
      "sanName": "nachtegaalstraat", 
      "numOfAddr": 5, 
      "lonmax": 4.052736656046068, 
      "latmin": 51.06717151316269
    }, 
    {
      "latmax": 51.062814710438374, 
      "name": "Narcislaan", 
      "lonmin": 4.027846997037189, 
      "sanName": "narcislaan", 
      "numOfAddr": 173, 
      "lonmax": 4.036815225757911, 
      "latmin": 51.056020218980805
    }, 
    {
      "latmax": 51.063871665343825, 
      "name": "Neereindestraat", 
      "lonmin": 4.067904740283915, 
      "sanName": "neereindestraat", 
      "numOfAddr": 53, 
      "lonmax": 4.070422670338619, 
      "latmin": 51.06012778534497
    }, 
    {
      "latmax": 51.06345946107213, 
      "name": "Nieuwe Kouterdreef", 
      "lonmin": 4.026679202373191, 
      "sanName": "nieuwekouterdreef", 
      "numOfAddr": 35, 
      "lonmax": 4.029082964163192, 
      "latmin": 51.06220284401659
    }, 
    {
      "latmax": 51.05632729308512, 
      "name": "Nonneveldstraat", 
      "lonmin": 4.014973196546353, 
      "sanName": "nonneveldstraat", 
      "numOfAddr": 2, 
      "lonmax": 4.015508621813081, 
      "latmin": 51.056212337981286
    }, 
    {
      "latmax": 51.08080815756788, 
      "name": "Noord Langestraat", 
      "lonmin": 4.073560773390014, 
      "sanName": "noordlangestraat", 
      "numOfAddr": 17, 
      "lonmax": 4.0798380205496905, 
      "latmin": 51.06894536345256
    }, 
    {
      "latmax": 51.07243884109405, 
      "name": "Olmenlaan", 
      "lonmin": 4.028326870570993, 
      "sanName": "olmenlaan", 
      "numOfAddr": 58, 
      "lonmax": 4.031447979183442, 
      "latmin": 51.06947045000298
    }, 
    {
      "latmax": 51.06575874904607, 
      "name": "Ommegangstraat", 
      "lonmin": 4.0382457055432885, 
      "sanName": "ommegangstraat", 
      "numOfAddr": 108, 
      "lonmax": 4.049427361663827, 
      "latmin": 51.061838897002175
    }, 
    {
      "latmax": 51.06066216226402, 
      "name": "Orchideelaan", 
      "lonmin": 4.029094443813896, 
      "sanName": "orchideelaan", 
      "numOfAddr": 6, 
      "lonmax": 4.029553831346644, 
      "latmin": 51.060233069243644
    }, 
    {
      "latmax": 51.06727662810753, 
      "name": "Oudburgstraat", 
      "lonmin": 4.0346032118514445, 
      "sanName": "oudburgstraat", 
      "numOfAddr": 39, 
      "lonmax": 4.036732923160858, 
      "latmin": 51.06622470637404
    }, 
    {
      "latmax": 51.06343161446606, 
      "name": "Oude Kouterdreef", 
      "lonmin": 4.024760014022332, 
      "sanName": "oudekouterdreef", 
      "numOfAddr": 130, 
      "lonmax": 4.034472003823586, 
      "latmin": 51.052681821074906
    }, 
    {
      "latmax": 51.052689529440265, 
      "name": "Paardekop", 
      "lonmin": 4.034495908997893, 
      "sanName": "paardekop", 
      "numOfAddr": 1, 
      "lonmax": 4.034495908997893, 
      "latmin": 51.052689529440265
    }, 
    {
      "latmax": 51.06502344931349, 
      "name": "Padweg", 
      "lonmin": 4.023721376742412, 
      "sanName": "padweg", 
      "numOfAddr": 23, 
      "lonmax": 4.02556282872721, 
      "latmin": 51.06413199843672
    }, 
    {
      "latmax": 51.05975784305873, 
      "name": "Paul Van Ostaijenstraat", 
      "lonmin": 4.031299652773623, 
      "sanName": "paulvanostaijenstraat", 
      "numOfAddr": 40, 
      "lonmax": 4.033346686507045, 
      "latmin": 51.05691170596504
    }, 
    {
      "latmax": 51.0662852824442, 
      "name": "Pierdauwstraat", 
      "lonmin": 3.9861018580405196, 
      "sanName": "pierdauwstraat", 
      "numOfAddr": 14, 
      "lonmax": 3.9885533089849603, 
      "latmin": 51.06454330320395
    }, 
    {
      "latmax": 51.054260032397565, 
      "name": "Pieter Gorusstraat", 
      "lonmin": 4.0617828891921794, 
      "sanName": "pietergorusstraat", 
      "numOfAddr": 36, 
      "lonmax": 4.063829202411642, 
      "latmin": 51.05030148531611
    }, 
    {
      "latmax": 51.0731182234825, 
      "name": "Platanenlaan", 
      "lonmin": 4.029486919383037, 
      "sanName": "platanenlaan", 
      "numOfAddr": 10, 
      "lonmax": 4.030032942538327, 
      "latmin": 51.07264365039891
    }, 
    {
      "latmax": 51.066052895708935, 
      "name": "Plezantstraat", 
      "lonmin": 4.032683080381613, 
      "sanName": "plezantstraat", 
      "numOfAddr": 57, 
      "lonmax": 4.034380802829706, 
      "latmin": 51.06412193535773
    }, 
    {
      "latmax": 51.070008851706646, 
      "name": "Poststraat", 
      "lonmin": 4.034819780998467, 
      "sanName": "poststraat", 
      "numOfAddr": 12, 
      "lonmax": 4.036376731378225, 
      "latmin": 51.069055559999015
    }, 
    {
      "latmax": 51.07290971747725, 
      "name": "Raakstraat", 
      "lonmin": 4.037630591804525, 
      "sanName": "raakstraat", 
      "numOfAddr": 13, 
      "lonmax": 4.038975212888535, 
      "latmin": 51.07186165471499
    }, 
    {
      "latmax": 51.07602170049817, 
      "name": "Ravestraat", 
      "lonmin": 4.034328666522402, 
      "sanName": "ravestraat", 
      "numOfAddr": 29, 
      "lonmax": 4.037047887894447, 
      "latmin": 51.07314688466288
    }, 
    {
      "latmax": 51.06504287540121, 
      "name": "Rechte Heistraat", 
      "lonmin": 3.988744968127701, 
      "sanName": "rechteheistraat", 
      "numOfAddr": 10, 
      "lonmax": 3.9905469967467133, 
      "latmin": 51.064305711239854
    }, 
    {
      "latmax": 51.04848664590364, 
      "name": "Rietveld", 
      "lonmin": 4.053996264706023, 
      "sanName": "rietveld", 
      "numOfAddr": 1, 
      "lonmax": 4.053996264706023, 
      "latmin": 51.04848664590364
    }, 
    {
      "latmax": 51.05208223714945, 
      "name": "Rijkenhoek", 
      "lonmin": 4.0259102156437665, 
      "sanName": "rijkenhoek", 
      "numOfAddr": 24, 
      "lonmax": 4.027330121049727, 
      "latmin": 51.049827317676176
    }, 
    {
      "latmax": 51.068149783644046, 
      "name": "Ringenhof", 
      "lonmin": 4.053241094666628, 
      "sanName": "ringenhof", 
      "numOfAddr": 13, 
      "lonmax": 4.054349632043153, 
      "latmin": 51.067192110755414
    }, 
    {
      "latmax": 51.0735861315548, 
      "name": "Rinkhout", 
      "lonmin": 2.306689562140502, 
      "sanName": "rinkhout", 
      "numOfAddr": 186, 
      "lonmax": 4.059379117518498, 
      "latmin": 49.293335165093566
    }, 
    {
      "latmax": 51.06657177571468, 
      "name": "Roskotstraat", 
      "lonmin": 4.036141301326705, 
      "sanName": "roskotstraat", 
      "numOfAddr": 81, 
      "lonmax": 4.038047980105408, 
      "latmin": 51.06421799928438
    }, 
    {
      "latmax": 51.06811731634544, 
      "name": "Rotstraat", 
      "lonmin": 4.042420465107865, 
      "sanName": "rotstraat", 
      "numOfAddr": 74, 
      "lonmax": 4.0450573779142935, 
      "latmin": 51.06446144089464
    }, 
    {
      "latmax": 51.05502670117112, 
      "name": "Scheldestraat", 
      "lonmin": 4.037001266869579, 
      "sanName": "scheldestraat", 
      "numOfAddr": 74, 
      "lonmax": 4.0459652972615805, 
      "latmin": 51.04259016871787
    }, 
    {
      "latmax": 51.094133355688676, 
      "name": "Schoolstraat", 
      "lonmin": 4.045748839721216, 
      "sanName": "schoolstraat", 
      "numOfAddr": 57, 
      "lonmax": 4.054374997504448, 
      "latmin": 51.08574847166211
    }, 
    {
      "latmax": 51.072520799980396, 
      "name": "Schrijnwerkerstraat", 
      "lonmin": 4.055941339202128, 
      "sanName": "schrijnwerkerstraat", 
      "numOfAddr": 7, 
      "lonmax": 4.056957950451498, 
      "latmin": 51.06976490447618
    }, 
    {
      "latmax": 51.07540143986192, 
      "name": "Spinnerijstraat", 
      "lonmin": 4.046149307676373, 
      "sanName": "spinnerijstraat", 
      "numOfAddr": 6, 
      "lonmax": 4.0481912150295765, 
      "latmin": 51.07237160761963
    }, 
    {
      "latmax": 51.07352596708188, 
      "name": "Spoorwegstraat", 
      "lonmin": 4.040369846256552, 
      "sanName": "spoorwegstraat", 
      "numOfAddr": 7, 
      "lonmax": 4.041136799856511, 
      "latmin": 51.073072356516825
    }, 
    {
      "latmax": 51.06851995638904, 
      "name": "Sportstraat", 
      "lonmin": 3.9885349442913136, 
      "sanName": "sportstraat", 
      "numOfAddr": 16, 
      "lonmax": 3.9895603895363734, 
      "latmin": 51.06721937694497
    }, 
    {
      "latmax": 51.06721677632415, 
      "name": "St. Antoniusstraat", 
      "lonmin": 4.0500743486914565, 
      "sanName": "stantoniusstraat", 
      "numOfAddr": 24, 
      "lonmax": 4.0518487743051255, 
      "latmin": 51.06578722721341
    }, 
    {
      "latmax": 51.068769826035584, 
      "name": "Stapstraat", 
      "lonmin": 4.045532170480352, 
      "sanName": "stapstraat", 
      "numOfAddr": 30, 
      "lonmax": 4.047367242110852, 
      "latmin": 51.068091577439624
    }, 
    {
      "latmax": 51.072933705475016, 
      "name": "Stationsstraat", 
      "lonmin": 4.040040736310049, 
      "sanName": "stationsstraat", 
      "numOfAddr": 18, 
      "lonmax": 4.04144958140209, 
      "latmin": 51.07217295553231
    }, 
    {
      "latmax": 51.05989666265008, 
      "name": "Stijn Streuvelsstraat", 
      "lonmin": 4.035921071130898, 
      "sanName": "stijnstreuvelsstraat", 
      "numOfAddr": 4, 
      "lonmax": 4.036696416218612, 
      "latmin": 51.05964773128161
    }, 
    {
      "latmax": 51.07421306457217, 
      "name": "Stokstraat", 
      "lonmin": 4.023887777102112, 
      "sanName": "stokstraat", 
      "numOfAddr": 99, 
      "lonmax": 4.027802709926219, 
      "latmin": 51.06913474725515
    }, 
    {
      "latmax": 51.06902722921547, 
      "name": "'t Eindeke", 
      "lonmin": 4.046033215484132, 
      "sanName": "teindeke", 
      "numOfAddr": 12, 
      "lonmax": 4.04661400341949, 
      "latmin": 51.06870089558706
    }, 
    {
      "latmax": 51.07222633842759, 
      "name": "Textielstraat", 
      "lonmin": 4.0525233779776135, 
      "sanName": "textielstraat", 
      "numOfAddr": 3, 
      "lonmax": 4.0533249885909965, 
      "latmin": 51.07137228321822
    }, 
    {
      "latmax": 51.06925188219304, 
      "name": "Touwslagerstraat", 
      "lonmin": 4.052590367651865, 
      "sanName": "touwslagerstraat", 
      "numOfAddr": 7, 
      "lonmax": 4.056688138094579, 
      "latmin": 51.06846879994954
    }, 
    {
      "latmax": 51.06727941629055, 
      "name": "Tuitenstraat", 
      "lonmin": 4.036856695137132, 
      "sanName": "tuitenstraat", 
      "numOfAddr": 13, 
      "lonmax": 4.037650785861422, 
      "latmin": 51.06666065144159
    }, 
    {
      "latmax": 51.04430819363558, 
      "name": "Vaartstraat", 
      "lonmin": 4.029472294790488, 
      "sanName": "vaartstraat", 
      "numOfAddr": 18, 
      "lonmax": 4.032657332533497, 
      "latmin": 51.04050001075695
    }, 
    {
      "latmax": 51.06479064934637, 
      "name": "Van Hesedreef", 
      "lonmin": 4.0281048881097155, 
      "sanName": "vanhesedreef", 
      "numOfAddr": 114, 
      "lonmax": 4.0308068964580475, 
      "latmin": 51.06088563576288
    }, 
    {
      "latmax": 51.06265750414768, 
      "name": "Veldeken", 
      "lonmin": 4.032241800649969, 
      "sanName": "veldeken", 
      "numOfAddr": 101, 
      "lonmax": 4.057037567714391, 
      "latmin": 51.054196993415694
    }, 
    {
      "latmax": 51.06676487221166, 
      "name": "Veldekensstraat", 
      "lonmin": 4.0380520289930715, 
      "sanName": "veldekensstraat", 
      "numOfAddr": 216, 
      "lonmax": 4.046872088514889, 
      "latmin": 51.055666122643956
    }, 
    {
      "latmax": 51.0844568613739, 
      "name": "Veldstraat", 
      "lonmin": 4.05808564402379, 
      "sanName": "veldstraat", 
      "numOfAddr": 3, 
      "lonmax": 4.058520436946316, 
      "latmin": 51.08436106560236
    }, 
    {
      "latmax": 51.06591247400573, 
      "name": "Verbindingsstraat", 
      "lonmin": 4.040670368326791, 
      "sanName": "verbindingsstraat", 
      "numOfAddr": 52, 
      "lonmax": 4.042572731827547, 
      "latmin": 51.063593507952184
    }, 
    {
      "latmax": 51.06229335591701, 
      "name": "Vlasbloemstraat", 
      "lonmin": 4.022862384269556, 
      "sanName": "vlasbloemstraat", 
      "numOfAddr": 9, 
      "lonmax": 4.023519821859285, 
      "latmin": 51.06140589140276
    }, 
    {
      "latmax": 51.061396403584524, 
      "name": "Vlaschaard", 
      "lonmin": 4.010220152334796, 
      "sanName": "vlaschaard", 
      "numOfAddr": 71, 
      "lonmax": 4.01549703130175, 
      "latmin": 51.059202597831785
    }, 
    {
      "latmax": 51.07258869197313, 
      "name": "Vlietstraat", 
      "lonmin": 3.9925527298846526, 
      "sanName": "vlietstraat", 
      "numOfAddr": 23, 
      "lonmax": 4.000315178442208, 
      "latmin": 51.06868479181062
    }, 
    {
      "latmax": 51.07688205370415, 
      "name": "Voermanstraat", 
      "lonmin": 4.0523371135388055, 
      "sanName": "voermanstraat", 
      "numOfAddr": 6, 
      "lonmax": 4.054333759913201, 
      "latmin": 51.07505964505002
    }, 
    {
      "latmax": 51.066939236288206, 
      "name": "Vrije Heide", 
      "lonmin": 3.986768095349192, 
      "sanName": "vrijeheide", 
      "numOfAddr": 58, 
      "lonmax": 3.9896677946483066, 
      "latmin": 51.065015237478825
    }, 
    {
      "latmax": 51.06514616571111, 
      "name": "Vuurkruisenstraat", 
      "lonmin": 4.037630878287912, 
      "sanName": "vuurkruisenstraat", 
      "numOfAddr": 54, 
      "lonmax": 4.040110065439209, 
      "latmin": 51.06278440709659
    }, 
    {
      "latmax": 51.06582866898476, 
      "name": "Wagenstraat", 
      "lonmin": 4.032973172122313, 
      "sanName": "wagenstraat", 
      "numOfAddr": 10, 
      "lonmax": 4.033525296864056, 
      "latmin": 51.06534622733077
    }, 
    {
      "latmax": 51.079175105737114, 
      "name": "Warandestraat", 
      "lonmin": 4.04456887976443, 
      "sanName": "warandestraat", 
      "numOfAddr": 5, 
      "lonmax": 4.0467515418202815, 
      "latmin": 51.078193073390096
    }, 
    {
      "latmax": 51.065117654703094, 
      "name": "Weverijstraat", 
      "lonmin": 4.029308430641679, 
      "sanName": "weverijstraat", 
      "numOfAddr": 12, 
      "lonmax": 4.030200274214511, 
      "latmin": 51.0645291052776
    }, 
    {
      "latmax": 51.072273135508674, 
      "name": "Wezepoelstraat", 
      "lonmin": 4.015320102037407, 
      "sanName": "wezepoelstraat", 
      "numOfAddr": 148, 
      "lonmax": 4.024219745125392, 
      "latmin": 51.06361526281427
    }, 
    {
      "latmax": 51.08225513781569, 
      "name": "Wijnveld", 
      "lonmin": 4.040338082841805, 
      "sanName": "wijnveld", 
      "numOfAddr": 11, 
      "lonmax": 4.044974489257305, 
      "latmin": 51.08075125642639
    }, 
    {
      "latmax": 51.073982489099826, 
      "name": "Wilgenhof", 
      "lonmin": 4.030322949634188, 
      "sanName": "wilgenhof", 
      "numOfAddr": 22, 
      "lonmax": 4.03210803323153, 
      "latmin": 51.073011571467404
    }, 
    {
      "latmax": 51.072863415340336, 
      "name": "Zakstraat", 
      "lonmin": 4.005301978743887, 
      "sanName": "zakstraat", 
      "numOfAddr": 1, 
      "lonmax": 4.005301978743887, 
      "latmin": 51.072863415340336
    }, 
    {
      "latmax": 51.06896441679187, 
      "name": "Zandberg", 
      "lonmin": 4.045137927198474, 
      "sanName": "zandberg", 
      "numOfAddr": 10, 
      "lonmax": 4.045505639713233, 
      "latmin": 51.06813269693318
    }, 
    {
      "latmax": 51.076608528153756, 
      "name": "Zevensterrestraat", 
      "lonmin": 4.040652822665293, 
      "sanName": "zevensterrestraat", 
      "numOfAddr": 5, 
      "lonmax": 4.042855356862893, 
      "latmin": 51.07454016905494
    }, 
    {
      "latmax": 51.08762219173988, 
      "name": "Zijlhof", 
      "lonmin": 4.057235982641094, 
      "sanName": "zijlhof", 
      "numOfAddr": 28, 
      "lonmax": 4.05877339517161, 
      "latmin": 51.08645306213187
    }, 
    {
      "latmax": 51.06560846960049, 
      "name": "Zuidlaan", 
      "lonmin": 4.030603163401716, 
      "sanName": "zuidlaan", 
      "numOfAddr": 35, 
      "lonmax": 4.032038426230811, 
      "latmin": 51.063830294347696
    }, 
    {
      "latmax": 51.067844488111774, 
      "name": "Zwaanstraat", 
      "lonmin": 4.03765574082517, 
      "sanName": "zwaanstraat", 
      "numOfAddr": 27, 
      "lonmax": 4.038589713439758, 
      "latmin": 51.066785269241784
    }, 
    {
      "latmax": 51.06218325543751, 
      "name": "Zwartemolenstraat", 
      "lonmin": 4.02321194460873, 
      "sanName": "zwartemolenstraat", 
      "numOfAddr": 37, 
      "lonmax": 4.026110912404109, 
      "latmin": 51.06038740259806
    }
  ]
}