{
  "streets": [
    {
      "latmax": 51.04364921226642, 
      "name": "12 Oktoberlaan", 
      "lonmin": 3.954385591878368, 
      "sanName": "12oktoberlaan", 
      "numOfAddr": 15, 
      "lonmax": 3.9553750136500763, 
      "latmin": 51.042935883683604
    }, 
    {
      "latmax": 51.04635100295113, 
      "name": "Aalscholverspad", 
      "lonmin": 3.9718090690422017, 
      "sanName": "aalscholverspad", 
      "numOfAddr": 14, 
      "lonmax": 3.9731410731406385, 
      "latmin": 51.04557650703975
    }, 
    {
      "latmax": 51.01979288842408, 
      "name": "Alfons De Grauwelaan", 
      "lonmin": 4.0066098979316305, 
      "sanName": "alfonsdegrauwelaan", 
      "numOfAddr": 47, 
      "lonmax": 4.009096028285272, 
      "latmin": 51.01618187978753
    }, 
    {
      "latmax": 51.04310547001632, 
      "name": "A. NELEPAD", 
      "lonmin": 3.9807879368975625, 
      "sanName": "anelepad", 
      "numOfAddr": 1, 
      "lonmax": 3.9807879368975625, 
      "latmin": 51.04310547001632
    }, 
    {
      "latmax": 51.0244803372897, 
      "name": "Bakkerstraatje", 
      "lonmin": 3.9958259703998844, 
      "sanName": "bakkerstraatje", 
      "numOfAddr": 13, 
      "lonmax": 3.9981044573516225, 
      "latmin": 51.02404010123813
    }, 
    {
      "latmax": 51.04324505906846, 
      "name": "Bareldonkdreef", 
      "lonmin": 3.9867081839624667, 
      "sanName": "bareldonkdreef", 
      "numOfAddr": 41, 
      "lonmax": 3.994637717428867, 
      "latmin": 51.03854962313033
    }, 
    {
      "latmax": 51.04652007723759, 
      "name": "Baron Tibbautstraat", 
      "lonmin": 3.936013430132042, 
      "sanName": "barontibbautstraat", 
      "numOfAddr": 67, 
      "lonmax": 3.9467341679183807, 
      "latmin": 51.04151589473514
    }, 
    {
      "latmax": 51.02538239919533, 
      "name": "Bauteneirswegel", 
      "lonmin": 4.0009512692931315, 
      "sanName": "bauteneirswegel", 
      "numOfAddr": 5, 
      "lonmax": 4.001289329774977, 
      "latmin": 51.025350732360096
    }, 
    {
      "latmax": 51.027062995330326, 
      "name": "Bauwensstraat", 
      "lonmin": 4.009009021564362, 
      "sanName": "bauwensstraat", 
      "numOfAddr": 2, 
      "lonmax": 4.009051725248066, 
      "latmin": 51.027055314249615
    }, 
    {
      "latmax": 51.05329030295999, 
      "name": "Bayaerdstraat", 
      "lonmin": 3.958406406126968, 
      "sanName": "bayaerdstraat", 
      "numOfAddr": 46, 
      "lonmax": 3.9634253877844174, 
      "latmin": 51.05187340932266
    }, 
    {
      "latmax": 51.049611117575296, 
      "name": "Begoniastraat", 
      "lonmin": 3.9480174172273204, 
      "sanName": "begoniastraat", 
      "numOfAddr": 10, 
      "lonmax": 3.9511247037851134, 
      "latmin": 51.0486704790456
    }, 
    {
      "latmax": 51.014814106398944, 
      "name": "Bergstraat", 
      "lonmin": 3.993319206728809, 
      "sanName": "bergstraat", 
      "numOfAddr": 64, 
      "lonmax": 4.004664985408035, 
      "latmin": 51.01244200243639
    }, 
    {
      "latmax": 51.01621548854399, 
      "name": "Beukenlaan", 
      "lonmin": 3.9941010239026324, 
      "sanName": "beukenlaan", 
      "numOfAddr": 11, 
      "lonmax": 3.994780128289306, 
      "latmin": 51.014494550642816
    }, 
    {
      "latmax": 51.0202460406602, 
      "name": "Bieststraat", 
      "lonmin": 4.007477959228966, 
      "sanName": "bieststraat", 
      "numOfAddr": 19, 
      "lonmax": 4.009686421477528, 
      "latmin": 51.01962041373316
    }, 
    {
      "latmax": 51.017129830960336, 
      "name": "Biezenstraat", 
      "lonmin": 3.999405413115223, 
      "sanName": "biezenstraat", 
      "numOfAddr": 30, 
      "lonmax": 4.002718647652246, 
      "latmin": 51.01585479234294
    }, 
    {
      "latmax": 51.03423995709303, 
      "name": "Blancquaertsveld", 
      "lonmin": 4.009888385239342, 
      "sanName": "blancquaertsveld", 
      "numOfAddr": 7, 
      "lonmax": 4.012893813869297, 
      "latmin": 51.03363047212976
    }, 
    {
      "latmax": 51.034387085461034, 
      "name": "Blauwhofdreef", 
      "lonmin": 3.983428176680824, 
      "sanName": "blauwhofdreef", 
      "numOfAddr": 32, 
      "lonmax": 3.9935359614275927, 
      "latmin": 51.029245405393006
    }, 
    {
      "latmax": 51.044346725207944, 
      "name": "Boerenkrijglaan", 
      "lonmin": 3.953507827517807, 
      "sanName": "boerenkrijglaan", 
      "numOfAddr": 42, 
      "lonmax": 3.95508096186934, 
      "latmin": 51.042441084214275
    }, 
    {
      "latmax": 51.02136504187362, 
      "name": "Bollewerkstraat", 
      "lonmin": 3.995410539817783, 
      "sanName": "bollewerkstraat", 
      "numOfAddr": 67, 
      "lonmax": 4.0054474639766156, 
      "latmin": 51.01982922254453
    }, 
    {
      "latmax": 51.069761448259165, 
      "name": "Bontinckstraat", 
      "lonmin": 3.92972703799232, 
      "sanName": "bontinckstraat", 
      "numOfAddr": 53, 
      "lonmax": 3.935576350633494, 
      "latmin": 51.05343711894749
    }, 
    {
      "latmax": 51.017657436158245, 
      "name": "Boonvennestraat", 
      "lonmin": 4.0001571683540975, 
      "sanName": "boonvennestraat", 
      "numOfAddr": 14, 
      "lonmax": 4.002146563682796, 
      "latmin": 51.01669443493005
    }, 
    {
      "latmax": 51.01995087201578, 
      "name": "Bosstraat", 
      "lonmin": 4.007172842627944, 
      "sanName": "bosstraat", 
      "numOfAddr": 94, 
      "lonmax": 4.0127328348850915, 
      "latmin": 51.01599126139859
    }, 
    {
      "latmax": 51.02060114888254, 
      "name": "Boswegel", 
      "lonmin": 3.9537366930925546, 
      "sanName": "boswegel", 
      "numOfAddr": 3, 
      "lonmax": 3.9542269972113258, 
      "latmin": 51.020305328278454
    }, 
    {
      "latmax": 51.01795838840913, 
      "name": "Bremstraat", 
      "lonmin": 4.000759415748617, 
      "sanName": "bremstraat", 
      "numOfAddr": 6, 
      "lonmax": 4.001886767887621, 
      "latmin": 51.01739495218382
    }, 
    {
      "latmax": 51.047819018015055, 
      "name": "Brielstraat", 
      "lonmin": 3.970282375722074, 
      "sanName": "brielstraat", 
      "numOfAddr": 21, 
      "lonmax": 3.9769342395192515, 
      "latmin": 51.04370536710528
    }, 
    {
      "latmax": 51.0469394096065, 
      "name": "Broekstraat", 
      "lonmin": 3.9565021508535283, 
      "sanName": "broekstraat", 
      "numOfAddr": 99, 
      "lonmax": 3.967450405180199, 
      "latmin": 51.038696850182035
    }, 
    {
      "latmax": 51.01263558453384, 
      "name": "Brugstraat", 
      "lonmin": 4.005119494501956, 
      "sanName": "brugstraat", 
      "numOfAddr": 65, 
      "lonmax": 4.011135820578041, 
      "latmin": 51.00576675509732
    }, 
    {
      "latmax": 51.01531713747325, 
      "name": "Bunderdreef", 
      "lonmin": 3.997044688223894, 
      "sanName": "bunderdreef", 
      "numOfAddr": 16, 
      "lonmax": 3.998455999972702, 
      "latmin": 51.01351322603344
    }, 
    {
      "latmax": 51.01369939759412, 
      "name": "Bunderstraat", 
      "lonmin": 4.000300625727568, 
      "sanName": "bunderstraat", 
      "numOfAddr": 47, 
      "lonmax": 4.004666828302616, 
      "latmin": 51.012364219798805
    }, 
    {
      "latmax": 51.04733478070728, 
      "name": "Burg. de Lausnaystraat", 
      "lonmin": 3.946876810975024, 
      "sanName": "burgdelausnaystraat", 
      "numOfAddr": 62, 
      "lonmax": 3.951687388455079, 
      "latmin": 51.04612139212948
    }, 
    {
      "latmax": 51.03259548301159, 
      "name": "Cleylandt", 
      "lonmin": 4.0030460474957055, 
      "sanName": "cleylandt", 
      "numOfAddr": 31, 
      "lonmax": 4.006239601943402, 
      "latmin": 51.03065406020351
    }, 
    {
      "latmax": 51.02152030315695, 
      "name": "Colmanstraat", 
      "lonmin": 3.955102287152951, 
      "sanName": "colmanstraat", 
      "numOfAddr": 15, 
      "lonmax": 3.957239749414519, 
      "latmin": 51.02107401004758
    }, 
    {
      "latmax": 51.01372069459684, 
      "name": "Daal", 
      "lonmin": 4.005355523442854, 
      "sanName": "daal", 
      "numOfAddr": 30, 
      "lonmax": 4.008536797331363, 
      "latmin": 51.01321297615056
    }, 
    {
      "latmax": 51.0132420101485, 
      "name": "Daalbos", 
      "lonmin": 3.9992671112627396, 
      "sanName": "daalbos", 
      "numOfAddr": 38, 
      "lonmax": 4.000827519230999, 
      "latmin": 51.01077676754176
    }, 
    {
      "latmax": 51.01296369152732, 
      "name": "Daelvenne", 
      "lonmin": 4.001186698178275, 
      "sanName": "daelvenne", 
      "numOfAddr": 33, 
      "lonmax": 4.003093776976255, 
      "latmin": 51.01120431614648
    }, 
    {
      "latmax": 51.04573431567022, 
      "name": "Damweg", 
      "lonmin": 4.006878434326791, 
      "sanName": "damweg", 
      "numOfAddr": 23, 
      "lonmax": 4.008670754669916, 
      "latmin": 51.04344325401581
    }, 
    {
      "latmax": 51.053601154441004, 
      "name": "Dendermondse Steenweg", 
      "lonmin": 3.9600913286897432, 
      "sanName": "dendermondsesteenweg", 
      "numOfAddr": 123, 
      "lonmax": 3.979866029704779, 
      "latmin": 51.04618441601196
    }, 
    {
      "latmax": 51.04112960926105, 
      "name": "Dennendreef", 
      "lonmin": 3.9867092064894725, 
      "sanName": "dennendreef", 
      "numOfAddr": 11, 
      "lonmax": 3.9885366887936597, 
      "latmin": 51.039984034645364
    }, 
    {
      "latmax": 51.03076138011653, 
      "name": "Dijkweg", 
      "lonmin": 4.002170072147574, 
      "sanName": "dijkweg", 
      "numOfAddr": 20, 
      "lonmax": 4.004743453219074, 
      "latmin": 51.02993961746117
    }, 
    {
      "latmax": 51.03967719149697, 
      "name": "Donkgoeddreef", 
      "lonmin": 3.9889325164561007, 
      "sanName": "donkgoeddreef", 
      "numOfAddr": 23, 
      "lonmax": 3.9920928621663623, 
      "latmin": 51.037845668868634
    }, 
    {
      "latmax": 51.05055636586407, 
      "name": "Donklaan", 
      "lonmin": 3.974465562378431, 
      "sanName": "donklaan", 
      "numOfAddr": 235, 
      "lonmax": 3.9846081055306635, 
      "latmin": 51.02757647262805
    }, 
    {
      "latmax": 51.02651343871527, 
      "name": "Dorp", 
      "lonmin": 3.9996127841202362, 
      "sanName": "dorp", 
      "numOfAddr": 124, 
      "lonmax": 4.0117584775862625, 
      "latmin": 51.02355112829175
    }, 
    {
      "latmax": 51.04715031976646, 
      "name": "Eendenpad", 
      "lonmin": 3.969901572074208, 
      "sanName": "eendenpad", 
      "numOfAddr": 27, 
      "lonmax": 3.9727462244143203, 
      "latmin": 51.045420612737935
    }, 
    {
      "latmax": 51.01553122761967, 
      "name": "Eikenlaan", 
      "lonmin": 3.99468822656233, 
      "sanName": "eikenlaan", 
      "numOfAddr": 13, 
      "lonmax": 3.9967231387301774, 
      "latmin": 51.01497518483573
    }, 
    {
      "latmax": 51.01960445118752, 
      "name": "Emiel Hertecantlaan", 
      "lonmin": 4.003920686870754, 
      "sanName": "emielhertecantlaan", 
      "numOfAddr": 129, 
      "lonmax": 4.007079105651929, 
      "latmin": 51.011073878766105
    }, 
    {
      "latmax": 51.02220428714586, 
      "name": "Eremijtenwegel", 
      "lonmin": 3.990995700753273, 
      "sanName": "eremijtenwegel", 
      "numOfAddr": 13, 
      "lonmax": 3.9939628985848907, 
      "latmin": 51.020695267846314
    }, 
    {
      "latmax": 51.01763380025441, 
      "name": "Fabriekstraat", 
      "lonmin": 4.00446980664094, 
      "sanName": "fabriekstraat", 
      "numOfAddr": 14, 
      "lonmax": 4.005189123128818, 
      "latmin": 51.01608169785474
    }, 
    {
      "latmax": 51.017454170969984, 
      "name": "Fonteinstraat", 
      "lonmin": 3.9532218360786575, 
      "sanName": "fonteinstraat", 
      "numOfAddr": 28, 
      "lonmax": 3.9554493997667626, 
      "latmin": 51.01619548771515
    }, 
    {
      "latmax": 51.04728020474895, 
      "name": "Fortstraat", 
      "lonmin": 3.9519992323538737, 
      "sanName": "fortstraat", 
      "numOfAddr": 34, 
      "lonmax": 3.954648857225327, 
      "latmin": 51.046233475471226
    }, 
    {
      "latmax": 51.023305043820514, 
      "name": "Frankrijkstraat", 
      "lonmin": 4.003903079447299, 
      "sanName": "frankrijkstraat", 
      "numOfAddr": 43, 
      "lonmax": 4.0064906978759085, 
      "latmin": 51.02070972893033
    }, 
    {
      "latmax": 51.04909972557287, 
      "name": "Frans Broeckaertlaan", 
      "lonmin": 3.9717574576063717, 
      "sanName": "fransbroeckaertlaan", 
      "numOfAddr": 44, 
      "lonmax": 3.974825698088673, 
      "latmin": 51.04673129971744
    }, 
    {
      "latmax": 51.02949808199221, 
      "name": "Fred De Bruynestraat", 
      "lonmin": 4.002714696660272, 
      "sanName": "freddebruynestraat", 
      "numOfAddr": 36, 
      "lonmax": 4.006893900514376, 
      "latmin": 51.028105580595316
    }, 
    {
      "latmax": 51.04440626726056, 
      "name": "Frere Pachtersstraat", 
      "lonmin": 3.983810477193863, 
      "sanName": "frerepachtersstraat", 
      "numOfAddr": 10, 
      "lonmax": 3.9845400823910717, 
      "latmin": 51.043569857854955
    }, 
    {
      "latmax": 51.02084388073868, 
      "name": "Galgenbergstraat", 
      "lonmin": 3.9919024891343065, 
      "sanName": "galgenbergstraat", 
      "numOfAddr": 81, 
      "lonmax": 4.005430402499911, 
      "latmin": 51.01644071408667
    }, 
    {
      "latmax": 51.046813456630254, 
      "name": "Ganzenpad", 
      "lonmin": 3.9701917169502075, 
      "sanName": "ganzenpad", 
      "numOfAddr": 28, 
      "lonmax": 3.97220374353464, 
      "latmin": 51.045322047999754
    }, 
    {
      "latmax": 51.03121054956392, 
      "name": "Gaver", 
      "lonmin": 4.005764241115866, 
      "sanName": "gaver", 
      "numOfAddr": 97, 
      "lonmax": 4.009054883148838, 
      "latmin": 51.02600060368227
    }, 
    {
      "latmax": 51.05336674673624, 
      "name": "Gratiebossen", 
      "lonmin": 4.004503816061522, 
      "sanName": "gratiebossen", 
      "numOfAddr": 11, 
      "lonmax": 4.012460498727661, 
      "latmin": 51.04995750735851
    }, 
    {
      "latmax": 51.02423028871668, 
      "name": "Groenstraat", 
      "lonmin": 3.9570507089693794, 
      "sanName": "groenstraat", 
      "numOfAddr": 17, 
      "lonmax": 3.9587513768150755, 
      "latmin": 51.022654442409966
    }, 
    {
      "latmax": 51.01723651384172, 
      "name": "Grote Kouterstraat", 
      "lonmin": 3.951294163006486, 
      "sanName": "grotekouterstraat", 
      "numOfAddr": 50, 
      "lonmax": 3.9576104561209826, 
      "latmin": 51.01463223673662
    }, 
    {
      "latmax": 51.020546260145046, 
      "name": "Haagstraat", 
      "lonmin": 3.9899140255947576, 
      "sanName": "haagstraat", 
      "numOfAddr": 13, 
      "lonmax": 3.9913913962986807, 
      "latmin": 51.01969345933831
    }, 
    {
      "latmax": 51.02140996366005, 
      "name": "Heide", 
      "lonmin": 4.008607116285757, 
      "sanName": "heide", 
      "numOfAddr": 36, 
      "lonmax": 4.012028819247789, 
      "latmin": 51.01955028891505
    }, 
    {
      "latmax": 51.01683387993017, 
      "name": "Heidekasteeldreef", 
      "lonmin": 3.9954427951625875, 
      "sanName": "heidekasteeldreef", 
      "numOfAddr": 39, 
      "lonmax": 4.00491688857277, 
      "latmin": 51.014797154815675
    }, 
    {
      "latmax": 51.021068896368384, 
      "name": "Heidestraat", 
      "lonmin": 4.0080155499925985, 
      "sanName": "heidestraat", 
      "numOfAddr": 10, 
      "lonmax": 4.008628853653282, 
      "latmin": 51.02011844439033
    }, 
    {
      "latmax": 51.02280027875302, 
      "name": "Heidewegel", 
      "lonmin": 4.009111660109526, 
      "sanName": "heidewegel", 
      "numOfAddr": 29, 
      "lonmax": 4.013495687655959, 
      "latmin": 51.02205227725966
    }, 
    {
      "latmax": 51.071836831402884, 
      "name": "Heikantstraat", 
      "lonmin": 3.972112347305847, 
      "sanName": "heikantstraat", 
      "numOfAddr": 112, 
      "lonmax": 3.9785103657476455, 
      "latmin": 51.052501087969006
    }, 
    {
      "latmax": 51.03878505243127, 
      "name": "Heirweg", 
      "lonmin": 4.029038885378136, 
      "sanName": "heirweg", 
      "numOfAddr": 1, 
      "lonmax": 4.029038885378136, 
      "latmin": 51.03878505243127
    }, 
    {
      "latmax": 51.02027967874176, 
      "name": "Heisbroekstraat", 
      "lonmin": 3.953036395381999, 
      "sanName": "heisbroekstraat", 
      "numOfAddr": 23, 
      "lonmax": 3.95434904337095, 
      "latmin": 51.01948280388505
    }, 
    {
      "latmax": 51.0171472214137, 
      "name": "Hoekskensweg", 
      "lonmin": 4.006309278511859, 
      "sanName": "hoekskensweg", 
      "numOfAddr": 26, 
      "lonmax": 4.008391101731614, 
      "latmin": 51.015940729421466
    }, 
    {
      "latmax": 51.014573992446614, 
      "name": "Hofland", 
      "lonmin": 4.002727872632741, 
      "sanName": "hofland", 
      "numOfAddr": 18, 
      "lonmax": 4.004603281079543, 
      "latmin": 51.0138954963956
    }, 
    {
      "latmax": 51.02731709832915, 
      "name": "Hogeweg", 
      "lonmin": 4.011906908587228, 
      "sanName": "hogeweg", 
      "numOfAddr": 56, 
      "lonmax": 4.019487606630253, 
      "latmin": 51.02499918783044
    }, 
    {
      "latmax": 51.02422459591723, 
      "name": "Hoogstraat", 
      "lonmin": 3.9892522438080547, 
      "sanName": "hoogstraat", 
      "numOfAddr": 73, 
      "lonmax": 3.998679954323565, 
      "latmin": 51.02177278367288
    }, 
    {
      "latmax": 51.04556862724914, 
      "name": "Jachtstraat", 
      "lonmin": 3.9827792782647515, 
      "sanName": "jachtstraat", 
      "numOfAddr": 18, 
      "lonmax": 3.9845251654304374, 
      "latmin": 51.04477994892083
    }, 
    {
      "latmax": 51.01583786693598, 
      "name": "Jan Baptist Courtmansstraat", 
      "lonmin": 4.005705320471719, 
      "sanName": "janbaptistcourtmansstraat", 
      "numOfAddr": 29, 
      "lonmax": 4.008319362259117, 
      "latmin": 51.01353603643698
    }, 
    {
      "latmax": 51.01496957744691, 
      "name": "J.B. Vander Cruyssenstraat", 
      "lonmin": 4.005921072119823, 
      "sanName": "jbvandercruyssenstraat", 
      "numOfAddr": 12, 
      "lonmax": 4.006824444298833, 
      "latmin": 51.014709571775825
    }, 
    {
      "latmax": 51.05586449472044, 
      "name": "Kamershoek", 
      "lonmin": 4.00835393525528, 
      "sanName": "kamershoek", 
      "numOfAddr": 58, 
      "lonmax": 4.0130377431593605, 
      "latmin": 51.04065167004323
    }, 
    {
      "latmax": 51.04471170205074, 
      "name": "Kapellebergstraat", 
      "lonmin": 3.9848416689043593, 
      "sanName": "kapellebergstraat", 
      "numOfAddr": 21, 
      "lonmax": 3.9870012494363998, 
      "latmin": 51.042628407377265
    }, 
    {
      "latmax": 51.041156415006725, 
      "name": "Kapelleplein", 
      "lonmin": 3.983161564136187, 
      "sanName": "kapelleplein", 
      "numOfAddr": 4, 
      "lonmax": 3.9850499571410527, 
      "latmin": 51.04077352315258
    }, 
    {
      "latmax": 51.022343321656436, 
      "name": "Kapellestraat", 
      "lonmin": 3.957669245048998, 
      "sanName": "kapellestraat", 
      "numOfAddr": 5, 
      "lonmax": 3.9584219148648647, 
      "latmin": 51.02185867512634
    }, 
    {
      "latmax": 51.01482182700056, 
      "name": "Kastanjelaan", 
      "lonmin": 3.993255392793164, 
      "sanName": "kastanjelaan", 
      "numOfAddr": 23, 
      "lonmax": 3.9966414706713693, 
      "latmin": 51.01291958673352
    }, 
    {
      "latmax": 51.054702106691686, 
      "name": "Kattebroeckstraat", 
      "lonmin": 3.948656678001261, 
      "sanName": "kattebroeckstraat", 
      "numOfAddr": 41, 
      "lonmax": 3.9571460203097724, 
      "latmin": 51.05305314573476
    }, 
    {
      "latmax": 51.02305618792536, 
      "name": "Kerkhofdreef", 
      "lonmin": 3.998838990229957, 
      "sanName": "kerkhofdreef", 
      "numOfAddr": 10, 
      "lonmax": 3.9989734285186764, 
      "latmin": 51.02224454686612
    }, 
    {
      "latmax": 51.07066780702103, 
      "name": "Kerkstraat", 
      "lonmin": 3.9437403071079897, 
      "sanName": "kerkstraat", 
      "numOfAddr": 183, 
      "lonmax": 3.949778787663089, 
      "latmin": 51.04672565699195
    }, 
    {
      "latmax": 51.032887187362846, 
      "name": "Kerkveld", 
      "lonmin": 4.00036384570673, 
      "sanName": "kerkveld", 
      "numOfAddr": 70, 
      "lonmax": 4.0062794707823395, 
      "latmin": 51.02752611570907
    }, 
    {
      "latmax": 51.02125849856762, 
      "name": "Kerkwegel", 
      "lonmin": 3.9572693176668343, 
      "sanName": "kerkwegel", 
      "numOfAddr": 32, 
      "lonmax": 3.9595377474586178, 
      "latmin": 51.01877956445622
    }, 
    {
      "latmax": 51.04637083992608, 
      "name": "Kievitenpad", 
      "lonmin": 3.970106622668302, 
      "sanName": "kievitenpad", 
      "numOfAddr": 18, 
      "lonmax": 3.9713514153125424, 
      "latmin": 51.04508915287154
    }, 
    {
      "latmax": 51.01272350550393, 
      "name": "Kleine Bergstraat", 
      "lonmin": 3.996766025757399, 
      "sanName": "kleinebergstraat", 
      "numOfAddr": 12, 
      "lonmax": 3.9982186303282017, 
      "latmin": 51.01222303599472
    }, 
    {
      "latmax": 51.012728510957956, 
      "name": "Kleine Daelvenne", 
      "lonmin": 4.003080940159215, 
      "sanName": "kleinedaelvenne", 
      "numOfAddr": 21, 
      "lonmax": 4.004655899750444, 
      "latmin": 51.01108578982833
    }, 
    {
      "latmax": 51.0192513865647, 
      "name": "Kleine Kouterstraat", 
      "lonmin": 3.949975875343939, 
      "sanName": "kleinekouterstraat", 
      "numOfAddr": 31, 
      "lonmax": 3.956178835369352, 
      "latmin": 51.01766640409876
    }, 
    {
      "latmax": 51.04377430793213, 
      "name": "Kleine Molenstraat", 
      "lonmin": 3.9482459450804, 
      "sanName": "kleinemolenstraat", 
      "numOfAddr": 39, 
      "lonmax": 3.9528836068030433, 
      "latmin": 51.04286200277716
    }, 
    {
      "latmax": 51.05021085819514, 
      "name": "Kloosterlandstraat", 
      "lonmin": 3.9515205843382044, 
      "sanName": "kloosterlandstraat", 
      "numOfAddr": 45, 
      "lonmax": 3.956839585870432, 
      "latmin": 51.04917113603435
    }, 
    {
      "latmax": 51.02020188007377, 
      "name": "Koffiestraat", 
      "lonmin": 3.954501471232286, 
      "sanName": "koffiestraat", 
      "numOfAddr": 54, 
      "lonmax": 3.9565389115701746, 
      "latmin": 51.016473226231554
    }, 
    {
      "latmax": 51.01426199431705, 
      "name": "Konijnenbergstraat", 
      "lonmin": 3.994486712811179, 
      "sanName": "konijnenbergstraat", 
      "numOfAddr": 24, 
      "lonmax": 3.997605052390742, 
      "latmin": 51.01286776829244
    }, 
    {
      "latmax": 51.0151174505591, 
      "name": "Konkelstraat", 
      "lonmin": 4.0192688256985765, 
      "sanName": "konkelstraat", 
      "numOfAddr": 11, 
      "lonmax": 4.02045956279434, 
      "latmin": 51.01415035478101
    }, 
    {
      "latmax": 51.03555296300852, 
      "name": "Koolstraat", 
      "lonmin": 4.00653036531879, 
      "sanName": "koolstraat", 
      "numOfAddr": 48, 
      "lonmax": 4.00970525426596, 
      "latmin": 51.031320531269266
    }, 
    {
      "latmax": 51.04638159491872, 
      "name": "Kouter A", 
      "lonmin": 3.971830335452605, 
      "sanName": "koutera", 
      "numOfAddr": 16, 
      "lonmax": 3.973185272260852, 
      "latmin": 51.045599890054326
    }, 
    {
      "latmax": 51.047117928292195, 
      "name": "Kouter B", 
      "lonmin": 3.969868319952006, 
      "sanName": "kouterb", 
      "numOfAddr": 47, 
      "lonmax": 3.9727660482048983, 
      "latmin": 51.04550290921708
    }, 
    {
      "latmax": 51.04674825294268, 
      "name": "Kouter C", 
      "lonmin": 3.9703887669734104, 
      "sanName": "kouterc", 
      "numOfAddr": 26, 
      "lonmax": 3.9721616680464904, 
      "latmin": 51.04516573494862
    }, 
    {
      "latmax": 51.04536501713504, 
      "name": "Kouter D", 
      "lonmin": 3.9720111082662664, 
      "sanName": "kouterd", 
      "numOfAddr": 23, 
      "lonmax": 3.9737163217642766, 
      "latmin": 51.04407177763808
    }, 
    {
      "latmax": 51.04767514803894, 
      "name": "Kruisstraat", 
      "lonmin": 3.9545656685150377, 
      "sanName": "kruisstraat", 
      "numOfAddr": 61, 
      "lonmax": 3.9598514653156545, 
      "latmin": 51.046660243608834
    }, 
    {
      "latmax": 51.025132694861455, 
      "name": "Kruyenberg", 
      "lonmin": 3.9936398816150067, 
      "sanName": "kruyenberg", 
      "numOfAddr": 47, 
      "lonmax": 3.9989206106742072, 
      "latmin": 51.02433590230207
    }, 
    {
      "latmax": 51.026057802560274, 
      "name": "Langewegel", 
      "lonmin": 3.995056919880718, 
      "sanName": "langewegel", 
      "numOfAddr": 6, 
      "lonmax": 3.9964477946849915, 
      "latmin": 51.025054267738376
    }, 
    {
      "latmax": 51.0560693789812, 
      "name": "Langewulgstraat", 
      "lonmin": 3.9632342100622187, 
      "sanName": "langewulgstraat", 
      "numOfAddr": 1, 
      "lonmax": 3.9632342100622187, 
      "latmin": 51.0560693789812
    }, 
    {
      "latmax": 51.02328076333867, 
      "name": "Leopolddreef", 
      "lonmin": 3.9977442746849694, 
      "sanName": "leopolddreef", 
      "numOfAddr": 66, 
      "lonmax": 3.999657116810856, 
      "latmin": 51.01008885413674
    }, 
    {
      "latmax": 51.05720177663705, 
      "name": "Lindestraat", 
      "lonmin": 3.9564022704922728, 
      "sanName": "lindestraat", 
      "numOfAddr": 124, 
      "lonmax": 3.959015938353483, 
      "latmin": 51.0473614894234
    }, 
    {
      "latmax": 51.054930480639584, 
      "name": "Loereveldstraat", 
      "lonmin": 3.932297328786977, 
      "sanName": "loereveldstraat", 
      "numOfAddr": 66, 
      "lonmax": 3.945443661252592, 
      "latmin": 51.046418519524956
    }, 
    {
      "latmax": 51.02410539762179, 
      "name": "Maaidonk", 
      "lonmin": 3.9554673406862175, 
      "sanName": "maaidonk", 
      "numOfAddr": 26, 
      "lonmax": 3.9569738013653626, 
      "latmin": 51.021472881182994
    }, 
    {
      "latmax": 51.06311850739266, 
      "name": "Maeneschijnstraat", 
      "lonmin": 3.9723380513309916, 
      "sanName": "maeneschijnstraat", 
      "numOfAddr": 1, 
      "lonmax": 3.9723380513309916, 
      "latmin": 51.06311850739266
    }, 
    {
      "latmax": 51.02160979495261, 
      "name": "Mandemakersstraat", 
      "lonmin": 4.005271648690007, 
      "sanName": "mandemakersstraat", 
      "numOfAddr": 11, 
      "lonmax": 4.008000811796271, 
      "latmin": 51.021102939102676
    }, 
    {
      "latmax": 51.01429930011615, 
      "name": "Marten D'Hoogestraat", 
      "lonmin": 4.00584089642771, 
      "sanName": "martendhoogestraat", 
      "numOfAddr": 15, 
      "lonmax": 4.007802741505179, 
      "latmin": 51.01370904380079
    }, 
    {
      "latmax": 51.04730317538849, 
      "name": "Meerstraat", 
      "lonmin": 3.9666970891986155, 
      "sanName": "meerstraat", 
      "numOfAddr": 15, 
      "lonmax": 3.9683588070394977, 
      "latmin": 51.045179800112344
    }, 
    {
      "latmax": 51.045392893957064, 
      "name": "Meeuwenpad", 
      "lonmin": 3.9729837264549466, 
      "sanName": "meeuwenpad", 
      "numOfAddr": 5, 
      "lonmax": 3.973594827924056, 
      "latmin": 51.04492115383653
    }, 
    {
      "latmax": 51.021652525645706, 
      "name": "Melkerijstraat", 
      "lonmin": 4.006800468480741, 
      "sanName": "melkerijstraat", 
      "numOfAddr": 29, 
      "lonmax": 4.0090806605706355, 
      "latmin": 51.02040780872237
    }, 
    {
      "latmax": 51.01824951323283, 
      "name": "Molendreef", 
      "lonmin": 4.001932389502151, 
      "sanName": "molendreef", 
      "numOfAddr": 46, 
      "lonmax": 4.004250006311462, 
      "latmin": 51.0152419817198
    }, 
    {
      "latmax": 51.02260733644296, 
      "name": "Moleneindestraat", 
      "lonmin": 3.9545147821529554, 
      "sanName": "moleneindestraat", 
      "numOfAddr": 37, 
      "lonmax": 3.960683450809578, 
      "latmin": 51.020785432688555
    }, 
    {
      "latmax": 51.02182461685501, 
      "name": "Molenhoek", 
      "lonmin": 3.9991079988660876, 
      "sanName": "molenhoek", 
      "numOfAddr": 22, 
      "lonmax": 4.000930741382451, 
      "latmin": 51.020184797182054
    }, 
    {
      "latmax": 51.04601636744635, 
      "name": "Molenstraat", 
      "lonmin": 3.9441558251444713, 
      "sanName": "molenstraat", 
      "numOfAddr": 131, 
      "lonmax": 3.9515648755991557, 
      "latmin": 51.02950401920367
    }, 
    {
      "latmax": 51.045041053477924, 
      "name": "Molenveld", 
      "lonmin": 3.948938023421186, 
      "sanName": "molenveld", 
      "numOfAddr": 43, 
      "lonmax": 3.951189828640034, 
      "latmin": 51.04339491622252
    }, 
    {
      "latmax": 51.01739977910541, 
      "name": "Molenvenne", 
      "lonmin": 4.003327825706165, 
      "sanName": "molenvenne", 
      "numOfAddr": 15, 
      "lonmax": 4.004468885352278, 
      "latmin": 51.01580941502823
    }, 
    {
      "latmax": 51.04285191998525, 
      "name": "Monseigneur Coppieterslaan", 
      "lonmin": 3.955116895562041, 
      "sanName": "monseigneurcoppieterslaan", 
      "numOfAddr": 38, 
      "lonmax": 3.9575317100324976, 
      "latmin": 51.04222023756406
    }, 
    {
      "latmax": 51.05520067657208, 
      "name": "Mosseveldstraat", 
      "lonmin": 3.962706012405104, 
      "sanName": "mosseveldstraat", 
      "numOfAddr": 75, 
      "lonmax": 3.9670898388630107, 
      "latmin": 51.048062407233715
    }, 
    {
      "latmax": 51.05256252674706, 
      "name": "Muizestraatje", 
      "lonmin": 3.97310090488175, 
      "sanName": "muizestraatje", 
      "numOfAddr": 1, 
      "lonmax": 3.97310090488175, 
      "latmin": 51.05256252674706
    }, 
    {
      "latmax": 51.01103165009183, 
      "name": "Neringenstraat", 
      "lonmin": 3.9994908179980944, 
      "sanName": "neringenstraat", 
      "numOfAddr": 9, 
      "lonmax": 4.002805582491657, 
      "latmin": 51.010498895963025
    }, 
    {
      "latmax": 51.022955922052695, 
      "name": "Nieuwdonk", 
      "lonmin": 3.9654335493799757, 
      "sanName": "nieuwdonk", 
      "numOfAddr": 6, 
      "lonmax": 3.9688274617351076, 
      "latmin": 51.02173144989237
    }, 
    {
      "latmax": 51.02854656704346, 
      "name": "Nieuwstraat", 
      "lonmin": 3.998380800661258, 
      "sanName": "nieuwstraat", 
      "numOfAddr": 52, 
      "lonmax": 4.002564441275671, 
      "latmin": 51.02553989406069
    }, 
    {
      "latmax": 51.04771750037575, 
      "name": "Olmendreef", 
      "lonmin": 3.9848909592532338, 
      "sanName": "olmendreef", 
      "numOfAddr": 20, 
      "lonmax": 3.987123019642687, 
      "latmin": 51.04568666561294
    }, 
    {
      "latmax": 51.04236972661447, 
      "name": "Oude dreef", 
      "lonmin": 3.9847214900352848, 
      "sanName": "oudedreef", 
      "numOfAddr": 14, 
      "lonmax": 3.9917213360020876, 
      "latmin": 51.038918765643544
    }, 
    {
      "latmax": 51.01722567376532, 
      "name": "Overheet", 
      "lonmin": 4.00872621350826, 
      "sanName": "overheet", 
      "numOfAddr": 79, 
      "lonmax": 4.020832097723141, 
      "latmin": 51.01316707493281
    }, 
    {
      "latmax": 51.04229270537363, 
      "name": "Pachthofdreef", 
      "lonmin": 3.988863747220688, 
      "sanName": "pachthofdreef", 
      "numOfAddr": 3, 
      "lonmax": 3.9892414149021844, 
      "latmin": 51.041418713011524
    }, 
    {
      "latmax": 51.01426518387753, 
      "name": "Pastoor Christiaensstraat", 
      "lonmin": 4.006090617892847, 
      "sanName": "pastoorchristiaensstraat", 
      "numOfAddr": 51, 
      "lonmax": 4.012402438916062, 
      "latmin": 51.01205924551657
    }, 
    {
      "latmax": 51.04641491381461, 
      "name": "Pastoor Pennestraat", 
      "lonmin": 3.9508984549368322, 
      "sanName": "pastoorpennestraat", 
      "numOfAddr": 93, 
      "lonmax": 3.954684575855324, 
      "latmin": 51.04402752046551
    }, 
    {
      "latmax": 51.01578983408971, 
      "name": "Pater Heirmanshoek", 
      "lonmin": 4.0058473773329535, 
      "sanName": "paterheirmanshoek", 
      "numOfAddr": 28, 
      "lonmax": 4.007857099963163, 
      "latmin": 51.01517868627143
    }, 
    {
      "latmax": 51.03428904519774, 
      "name": "Paul Cammermansstraat", 
      "lonmin": 4.005675071550835, 
      "sanName": "paulcammermansstraat", 
      "numOfAddr": 35, 
      "lonmax": 4.008501118203126, 
      "latmin": 51.03300354253001
    }, 
    {
      "latmax": 51.02774121005871, 
      "name": "Qu\u0093te", 
      "lonmin": 4.012449265965048, 
      "sanName": "qute", 
      "numOfAddr": 33, 
      "lonmax": 4.026318393565315, 
      "latmin": 51.021772787813426
    }, 
    {
      "latmax": 51.02054548704979, 
      "name": "Raapveld", 
      "lonmin": 3.9511196447512167, 
      "sanName": "raapveld", 
      "numOfAddr": 73, 
      "lonmax": 3.954238838642057, 
      "latmin": 51.01814499003148
    }, 
    {
      "latmax": 51.04525582124261, 
      "name": "Reigerspad", 
      "lonmin": 3.9725851820960996, 
      "sanName": "reigerspad", 
      "numOfAddr": 9, 
      "lonmax": 3.9737231781630946, 
      "latmin": 51.04472470408674
    }, 
    {
      "latmax": 51.045865961279375, 
      "name": "Ridderstraat", 
      "lonmin": 4.007941679046543, 
      "sanName": "ridderstraat", 
      "numOfAddr": 22, 
      "lonmax": 4.009182736271051, 
      "latmin": 51.04391210023949
    }, 
    {
      "latmax": 51.016166658072855, 
      "name": "Rijtewegel", 
      "lonmin": 4.006395614711556, 
      "sanName": "rijtewegel", 
      "numOfAddr": 14, 
      "lonmax": 4.0076709433448, 
      "latmin": 51.01311057069477
    }, 
    {
      "latmax": 51.01940977233433, 
      "name": "Rozenlaan", 
      "lonmin": 3.9926092904463806, 
      "sanName": "rozenlaan", 
      "numOfAddr": 19, 
      "lonmax": 3.99636401969063, 
      "latmin": 51.017965685190546
    }, 
    {
      "latmax": 51.02004077704726, 
      "name": "Salvialaan", 
      "lonmin": 3.9920928355733847, 
      "sanName": "salvialaan", 
      "numOfAddr": 17, 
      "lonmax": 3.9944951517224845, 
      "latmin": 51.01921982232387
    }, 
    {
      "latmax": 51.012132528201434, 
      "name": "Sarosstraat", 
      "lonmin": 3.9979420637754592, 
      "sanName": "sarosstraat", 
      "numOfAddr": 16, 
      "lonmax": 4.005692865645148, 
      "latmin": 51.008769281692366
    }, 
    {
      "latmax": 51.02064666899467, 
      "name": "Scheldestraat", 
      "lonmin": 3.958734737620792, 
      "sanName": "scheldestraat", 
      "numOfAddr": 18, 
      "lonmax": 3.9605924684356477, 
      "latmin": 51.01735759607933
    }, 
    {
      "latmax": 51.04922065669152, 
      "name": "Schoolstraat", 
      "lonmin": 3.951076182270821, 
      "sanName": "schoolstraat", 
      "numOfAddr": 30, 
      "lonmax": 3.952268776026271, 
      "latmin": 51.04726381479166
    }, 
    {
      "latmax": 51.0468113726137, 
      "name": "Schriekenstraat", 
      "lonmin": 3.983289210051251, 
      "sanName": "schriekenstraat", 
      "numOfAddr": 38, 
      "lonmax": 3.99304857661079, 
      "latmin": 51.04205072150903
    }, 
    {
      "latmax": 51.03909915645365, 
      "name": "Schuitje", 
      "lonmin": 4.00646182255746, 
      "sanName": "schuitje", 
      "numOfAddr": 46, 
      "lonmax": 4.008642291698782, 
      "latmin": 51.03554285879857
    }, 
    {
      "latmax": 51.027359823593585, 
      "name": "Schuttersweg", 
      "lonmin": 3.9975263319181753, 
      "sanName": "schuttersweg", 
      "numOfAddr": 23, 
      "lonmax": 4.000401145534693, 
      "latmin": 51.024892938615785
    }, 
    {
      "latmax": 51.03311756125773, 
      "name": "Schuurputstraat", 
      "lonmin": 4.009865012678842, 
      "sanName": "schuurputstraat", 
      "numOfAddr": 5, 
      "lonmax": 4.019452366792666, 
      "latmin": 51.02739790135929
    }, 
    {
      "latmax": 51.03260421325368, 
      "name": "'S HEEREMEERSCHSTRAATJE", 
      "lonmin": 3.949624958499126, 
      "sanName": "sheeremeerschstraatje", 
      "numOfAddr": 1, 
      "lonmax": 3.949624958499126, 
      "latmin": 51.03260421325368
    }, 
    {
      "latmax": 51.00909480036345, 
      "name": "Sijpestraat", 
      "lonmin": 4.005164038093596, 
      "sanName": "sijpestraat", 
      "numOfAddr": 8, 
      "lonmax": 4.0074695678168375, 
      "latmin": 51.008841646174346
    }, 
    {
      "latmax": 51.02067567926452, 
      "name": "Sint Annaplein", 
      "lonmin": 4.005694021033298, 
      "sanName": "sintannaplein", 
      "numOfAddr": 24, 
      "lonmax": 4.007237845751998, 
      "latmin": 51.019686484456194
    }, 
    {
      "latmax": 51.021699673168136, 
      "name": "Sint Jobstraat", 
      "lonmin": 3.9904543405936597, 
      "sanName": "sintjobstraat", 
      "numOfAddr": 21, 
      "lonmax": 3.991916875887789, 
      "latmin": 51.019211650255556
    }, 
    {
      "latmax": 51.02328458955356, 
      "name": "Sint-Pietersstraat", 
      "lonmin": 3.954637096496002, 
      "sanName": "sintpietersstraat", 
      "numOfAddr": 17, 
      "lonmax": 3.95602644264156, 
      "latmin": 51.02249751626099
    }, 
    {
      "latmax": 51.023475060178995, 
      "name": "Slot", 
      "lonmin": 3.945225190114927, 
      "sanName": "slot", 
      "numOfAddr": 36, 
      "lonmax": 3.9520249513681334, 
      "latmin": 51.0189768297014
    }, 
    {
      "latmax": 51.02248611086436, 
      "name": "Sluis", 
      "lonmin": 3.981403636555627, 
      "sanName": "sluis", 
      "numOfAddr": 60, 
      "lonmax": 3.990281214666761, 
      "latmin": 51.017818397342594
    }, 
    {
      "latmax": 51.041401530594115, 
      "name": "Sparrendreef", 
      "lonmin": 3.983683289359464, 
      "sanName": "sparrendreef", 
      "numOfAddr": 22, 
      "lonmax": 3.98724634750063, 
      "latmin": 51.03814962407096
    }, 
    {
      "latmax": 51.02651049840678, 
      "name": "Spinnerijstraat", 
      "lonmin": 3.997448921038463, 
      "sanName": "spinnerijstraat", 
      "numOfAddr": 28, 
      "lonmax": 3.9996841415865596, 
      "latmin": 51.02457450109903
    }, 
    {
      "latmax": 51.04826277418284, 
      "name": "Strijdamstraat", 
      "lonmin": 3.9835854639582116, 
      "sanName": "strijdamstraat", 
      "numOfAddr": 5, 
      "lonmax": 3.984372193790453, 
      "latmin": 51.04795968189455
    }, 
    {
      "latmax": 51.020966534640664, 
      "name": "Strijpwegel", 
      "lonmin": 3.9510114803778604, 
      "sanName": "strijpwegel", 
      "numOfAddr": 23, 
      "lonmax": 3.9545147819210684, 
      "latmin": 51.02052506869925
    }, 
    {
      "latmax": 51.02151249231657, 
      "name": "Tamboerkensstraat", 
      "lonmin": 4.010346713599865, 
      "sanName": "tamboerkensstraat", 
      "numOfAddr": 58, 
      "lonmax": 4.012839999869451, 
      "latmin": 51.01770264682773
    }, 
    {
      "latmax": 51.01966277045783, 
      "name": "Tulpenlaan", 
      "lonmin": 3.9941197080510658, 
      "sanName": "tulpenlaan", 
      "numOfAddr": 9, 
      "lonmax": 3.995329437990778, 
      "latmin": 51.018773827441834
    }, 
    {
      "latmax": 51.03539763002616, 
      "name": "Turfputstraat", 
      "lonmin": 3.989414635960437, 
      "sanName": "turfputstraat", 
      "numOfAddr": 139, 
      "lonmax": 4.006831317480359, 
      "latmin": 51.022169101655294
    }, 
    {
      "latmax": 51.02244038805495, 
      "name": "Van Tieghemstraat", 
      "lonmin": 4.005577772190699, 
      "sanName": "vantieghemstraat", 
      "numOfAddr": 62, 
      "lonmax": 4.013523868839749, 
      "latmin": 51.02157314725231
    }, 
    {
      "latmax": 51.02527061761736, 
      "name": "Veerstraat", 
      "lonmin": 3.9498763332903017, 
      "sanName": "veerstraat", 
      "numOfAddr": 113, 
      "lonmax": 3.960210432201776, 
      "latmin": 51.0166138586715
    }, 
    {
      "latmax": 51.020079797425815, 
      "name": "Vennepark", 
      "lonmin": 4.001757815900455, 
      "sanName": "vennepark", 
      "numOfAddr": 95, 
      "lonmax": 4.005167635570049, 
      "latmin": 51.0185640502717
    }, 
    {
      "latmax": 51.01939663956972, 
      "name": "Vennewegel", 
      "lonmin": 4.004474330752241, 
      "sanName": "vennewegel", 
      "numOfAddr": 3, 
      "lonmax": 4.005482397382272, 
      "latmin": 51.01857470879399
    }, 
    {
      "latmax": 51.021715652176255, 
      "name": "Veulaerstraat", 
      "lonmin": 3.9587042517783586, 
      "sanName": "veulaerstraat", 
      "numOfAddr": 1, 
      "lonmax": 3.9587042517783586, 
      "latmin": 51.021715652176255
    }, 
    {
      "latmax": 51.019392233945645, 
      "name": "Vlietwegel", 
      "lonmin": 3.988195203278468, 
      "sanName": "vlietwegel", 
      "numOfAddr": 4, 
      "lonmax": 3.988987886663172, 
      "latmin": 51.01837237554621
    }, 
    {
      "latmax": 51.02079717531314, 
      "name": "Wakkebroekstraat", 
      "lonmin": 4.0002358514797525, 
      "sanName": "wakkebroekstraat", 
      "numOfAddr": 35, 
      "lonmax": 4.003076599071987, 
      "latmin": 51.01884438483406
    }, 
    {
      "latmax": 51.02341789488112, 
      "name": "Warande", 
      "lonmin": 3.9983599216730754, 
      "sanName": "warande", 
      "numOfAddr": 31, 
      "lonmax": 4.004773814378661, 
      "latmin": 51.02109301179863
    }, 
    {
      "latmax": 51.03276196646987, 
      "name": "Waterhoek", 
      "lonmin": 4.0219720312196285, 
      "sanName": "waterhoek", 
      "numOfAddr": 21, 
      "lonmax": 4.040663771924222, 
      "latmin": 51.02802181741787
    }, 
    {
      "latmax": 51.04502410964102, 
      "name": "Waterhoenenpad", 
      "lonmin": 3.9719779654930467, 
      "sanName": "waterhoenenpad", 
      "numOfAddr": 12, 
      "lonmax": 3.9731603887575253, 
      "latmin": 51.044133930063325
    }, 
    {
      "latmax": 51.0466546462478, 
      "name": "Waterleliestraat", 
      "lonmin": 3.9818767709194973, 
      "sanName": "waterleliestraat", 
      "numOfAddr": 9, 
      "lonmax": 3.983403899089717, 
      "latmin": 51.046214344180385
    }, 
    {
      "latmax": 51.02616410723317, 
      "name": "Wegelken", 
      "lonmin": 4.007565857976559, 
      "sanName": "wegelken", 
      "numOfAddr": 2, 
      "lonmax": 4.008441137100918, 
      "latmin": 51.02584231652935
    }, 
    {
      "latmax": 51.025064340726956, 
      "name": "Weidelandstraat", 
      "lonmin": 3.952782917618452, 
      "sanName": "weidelandstraat", 
      "numOfAddr": 21, 
      "lonmax": 3.955555585709964, 
      "latmin": 51.02415636754986
    }, 
    {
      "latmax": 51.046043020392865, 
      "name": "Wilgenpark", 
      "lonmin": 3.9543390592193637, 
      "sanName": "wilgenpark", 
      "numOfAddr": 52, 
      "lonmax": 3.956865616933074, 
      "latmin": 51.04316826685403
    }, 
    {
      "latmax": 51.05011005712953, 
      "name": "Willebochtenlaan", 
      "lonmin": 3.98931661966236, 
      "sanName": "willebochtenlaan", 
      "numOfAddr": 18, 
      "lonmax": 3.991273164088462, 
      "latmin": 51.048385713670235
    }, 
    {
      "latmax": 51.021271505827166, 
      "name": "Wipakkerstraat", 
      "lonmin": 4.006884458799721, 
      "sanName": "wipakkerstraat", 
      "numOfAddr": 67, 
      "lonmax": 4.011757107982398, 
      "latmin": 51.017079985939105
    }, 
    {
      "latmax": 51.01854349478595, 
      "name": "Zandbergstraat", 
      "lonmin": 3.9994880663381105, 
      "sanName": "zandbergstraat", 
      "numOfAddr": 12, 
      "lonmax": 4.0008761848276135, 
      "latmin": 51.017267373540655
    }, 
    {
      "latmax": 51.048839954680126, 
      "name": "Zandstraat", 
      "lonmin": 3.9811474619689435, 
      "sanName": "zandstraat", 
      "numOfAddr": 41, 
      "lonmax": 3.9947765242632465, 
      "latmin": 51.04698518381482
    }
  ]
}