{
  "streets": [
    {
      "latmax": 50.94286670944858, 
      "name": "1 Meistraat", 
      "lonmin": 4.044218364785776, 
      "sanName": "1meistraat", 
      "numOfAddr": 8, 
      "lonmax": 4.045730895422947, 
      "latmin": 50.942156978132004
    }, 
    {
      "latmax": 50.945188817858295, 
      "name": "Abbeelstraat", 
      "lonmin": 4.023221863137378, 
      "sanName": "abbeelstraat", 
      "numOfAddr": 23, 
      "lonmax": 4.0247908322123465, 
      "latmin": 50.944443025211996
    }, 
    {
      "latmax": 50.93237513651439, 
      "name": "Acaciastraat", 
      "lonmin": 4.040037382173624, 
      "sanName": "acaciastraat", 
      "numOfAddr": 33, 
      "lonmax": 4.041410486082951, 
      "latmin": 50.93155107760678
    }, 
    {
      "latmax": 50.94760691788535, 
      "name": "Achterweg", 
      "lonmin": 4.073360806949712, 
      "sanName": "achterweg", 
      "numOfAddr": 43, 
      "lonmax": 4.078737258087327, 
      "latmin": 50.945937382935504
    }, 
    {
      "latmax": 50.937110286926895, 
      "name": "Affligemdreef", 
      "lonmin": 4.059883553170667, 
      "sanName": "affligemdreef", 
      "numOfAddr": 106, 
      "lonmax": 4.088111305128975, 
      "latmin": 50.93153478877897
    }, 
    {
      "latmax": 50.93619079251109, 
      "name": "Afspanningsstraat", 
      "lonmin": 4.023210855393241, 
      "sanName": "afspanningsstraat", 
      "numOfAddr": 30, 
      "lonmax": 4.025365107301443, 
      "latmin": 50.9354471720433
    }, 
    {
      "latmax": 50.95288172963213, 
      "name": "Ajuinenstraat", 
      "lonmin": 4.055867607435916, 
      "sanName": "ajuinenstraat", 
      "numOfAddr": 28, 
      "lonmax": 4.057717203395839, 
      "latmin": 50.95164999863221
    }, 
    {
      "latmax": 50.94205666147846, 
      "name": "Albert Li\u0082nartstraat", 
      "lonmin": 4.038828758010014, 
      "sanName": "albertlinartstraat", 
      "numOfAddr": 28, 
      "lonmax": 4.039671535127182, 
      "latmin": 50.941115287928575
    }, 
    {
      "latmax": 50.94115655914547, 
      "name": "Albrechtlaan", 
      "lonmin": 4.052971755632273, 
      "sanName": "albrechtlaan", 
      "numOfAddr": 47, 
      "lonmax": 4.056143178693658, 
      "latmin": 50.9332719754997
    }, 
    {
      "latmax": 50.93921308068193, 
      "name": "Alfred Keldersstraat", 
      "lonmin": 4.034893573597232, 
      "sanName": "alfredkeldersstraat", 
      "numOfAddr": 11, 
      "lonmax": 4.035306242088212, 
      "latmin": 50.93896227812409
    }, 
    {
      "latmax": 50.93509972926728, 
      "name": "Alfred Nichelsstraat", 
      "lonmin": 4.04472378391443, 
      "sanName": "alfrednichelsstraat", 
      "numOfAddr": 34, 
      "lonmax": 4.0472685424452095, 
      "latmin": 50.93445945658183
    }, 
    {
      "latmax": 50.93672162981028, 
      "name": "Anna Snelstraat", 
      "lonmin": 4.043058421040053, 
      "sanName": "annasnelstraat", 
      "numOfAddr": 9, 
      "lonmax": 4.044462231717371, 
      "latmin": 50.936175876801954
    }, 
    {
      "latmax": 50.94160132343087, 
      "name": "Apostelstraat", 
      "lonmin": 4.054578393458559, 
      "sanName": "apostelstraat", 
      "numOfAddr": 1, 
      "lonmax": 4.054578393458559, 
      "latmin": 50.94160132343087
    }, 
    {
      "latmax": 50.94196442319072, 
      "name": "Appelstraat", 
      "lonmin": 4.051560346043133, 
      "sanName": "appelstraat", 
      "numOfAddr": 23, 
      "lonmax": 4.0527958536256, 
      "latmin": 50.94038872649193
    }, 
    {
      "latmax": 50.93796204254141, 
      "name": "Arbeidstraat", 
      "lonmin": 4.0288954741576015, 
      "sanName": "arbeidstraat", 
      "numOfAddr": 92, 
      "lonmax": 4.033878718148355, 
      "latmin": 50.93595700165518
    }, 
    {
      "latmax": 50.95082176462559, 
      "name": "Arendstraat", 
      "lonmin": 4.056886485812117, 
      "sanName": "arendstraat", 
      "numOfAddr": 20, 
      "lonmax": 4.058426137038332, 
      "latmin": 50.95003684421541
    }, 
    {
      "latmax": 50.94928212593898, 
      "name": "Arendsveld", 
      "lonmin": 4.05461305583682, 
      "sanName": "arendsveld", 
      "numOfAddr": 39, 
      "lonmax": 4.056395308125047, 
      "latmin": 50.948139461258876
    }, 
    {
      "latmax": 50.9443966728627, 
      "name": "Asserendries", 
      "lonmin": 4.022146466241283, 
      "sanName": "asserendries", 
      "numOfAddr": 103, 
      "lonmax": 4.02701029739811, 
      "latmin": 50.941432505047366
    }, 
    {
      "latmax": 50.93191270768858, 
      "name": "August Marcelstraat", 
      "lonmin": 4.031926444864797, 
      "sanName": "augustmarcelstraat", 
      "numOfAddr": 74, 
      "lonmax": 4.035950118557159, 
      "latmin": 50.93098681478248
    }, 
    {
      "latmax": 50.937747500422894, 
      "name": "Baron Romain Moyersoen Park", 
      "lonmin": 4.055147656604147, 
      "sanName": "baronromainmoyersoenpark", 
      "numOfAddr": 34, 
      "lonmax": 4.0589888542081765, 
      "latmin": 50.93577338838686
    }, 
    {
      "latmax": 50.9429015212892, 
      "name": "Bauwensplaats", 
      "lonmin": 4.0361891392284575, 
      "sanName": "bauwensplaats", 
      "numOfAddr": 13, 
      "lonmax": 4.0372552445691365, 
      "latmin": 50.942236694150395
    }, 
    {
      "latmax": 50.94102859815575, 
      "name": "Bedrijvigheidstraat", 
      "lonmin": 4.024362808889488, 
      "sanName": "bedrijvigheidstraat", 
      "numOfAddr": 11, 
      "lonmax": 4.024839789739741, 
      "latmin": 50.94041760736428
    }, 
    {
      "latmax": 50.94485006363807, 
      "name": "Beekstraat", 
      "lonmin": 4.0718661574258554, 
      "sanName": "beekstraat", 
      "numOfAddr": 59, 
      "lonmax": 4.074918189201738, 
      "latmin": 50.93934841358844
    }, 
    {
      "latmax": 50.93536726406182, 
      "name": "Beekveldstraat", 
      "lonmin": 4.029838687410661, 
      "sanName": "beekveldstraat", 
      "numOfAddr": 56, 
      "lonmax": 4.035023171115569, 
      "latmin": 50.93394062320173
    }, 
    {
      "latmax": 50.936577431587786, 
      "name": "Begijnhof", 
      "lonmin": 4.043424379243486, 
      "sanName": "begijnhof", 
      "numOfAddr": 52, 
      "lonmax": 4.045428187780298, 
      "latmin": 50.93544447022734
    }, 
    {
      "latmax": 50.94138860118693, 
      "name": "Bergekouter", 
      "lonmin": 4.058601677753987, 
      "sanName": "bergekouter", 
      "numOfAddr": 107, 
      "lonmax": 4.064884088373528, 
      "latmin": 50.93439331254292
    }, 
    {
      "latmax": 50.941434248658226, 
      "name": "Bergemeersenstraat", 
      "lonmin": 4.050061230807858, 
      "sanName": "bergemeersenstraat", 
      "numOfAddr": 127, 
      "lonmax": 4.05275976213852, 
      "latmin": 50.93584863758207
    }, 
    {
      "latmax": 50.94064609120643, 
      "name": "Bert Van Hoorickstraat", 
      "lonmin": 4.03091887580414, 
      "sanName": "bertvanhoorickstraat", 
      "numOfAddr": 52, 
      "lonmax": 4.032705714998612, 
      "latmin": 50.938785432647045
    }, 
    {
      "latmax": 50.934824179107665, 
      "name": "Beukendreef", 
      "lonmin": 4.057887887118354, 
      "sanName": "beukendreef", 
      "numOfAddr": 74, 
      "lonmax": 4.063821554712783, 
      "latmin": 50.93258209636572
    }, 
    {
      "latmax": 50.94756401047649, 
      "name": "Bevrijdingsstraat", 
      "lonmin": 4.045727043289986, 
      "sanName": "bevrijdingsstraat", 
      "numOfAddr": 53, 
      "lonmax": 4.047226868399311, 
      "latmin": 50.94611022401634
    }, 
    {
      "latmax": 50.946661250984135, 
      "name": "Biekorfstraat", 
      "lonmin": 4.018800144622812, 
      "sanName": "biekorfstraat", 
      "numOfAddr": 83, 
      "lonmax": 4.0229721348395895, 
      "latmin": 50.94427501387738
    }, 
    {
      "latmax": 50.95220710882293, 
      "name": "Binnenstraat", 
      "lonmin": 4.046239692363623, 
      "sanName": "binnenstraat", 
      "numOfAddr": 327, 
      "lonmax": 4.058766323940099, 
      "latmin": 50.94247446703302
    }, 
    {
      "latmax": 50.93677524420247, 
      "name": "Bleekveld", 
      "lonmin": 4.05024019014292, 
      "sanName": "bleekveld", 
      "numOfAddr": 1, 
      "lonmax": 4.05024019014292, 
      "latmin": 50.93677524420247
    }, 
    {
      "latmax": 50.94503820201321, 
      "name": "Bolleweg", 
      "lonmin": 4.046105759954041, 
      "sanName": "bolleweg", 
      "numOfAddr": 98, 
      "lonmax": 4.048281576616014, 
      "latmin": 50.94297022302931
    }, 
    {
      "latmax": 50.95300243326617, 
      "name": "Boomgaardstraat", 
      "lonmin": 4.045341232812707, 
      "sanName": "boomgaardstraat", 
      "numOfAddr": 37, 
      "lonmax": 4.047046678504572, 
      "latmin": 50.95197151832893
    }, 
    {
      "latmax": 50.94336624743329, 
      "name": "Borluutstraat", 
      "lonmin": 4.04272296918003, 
      "sanName": "borluutstraat", 
      "numOfAddr": 28, 
      "lonmax": 4.044186833378724, 
      "latmin": 50.942824714391996
    }, 
    {
      "latmax": 50.939115187590765, 
      "name": "Borreput", 
      "lonmin": 4.072966654375471, 
      "sanName": "borreput", 
      "numOfAddr": 38, 
      "lonmax": 4.075074062999407, 
      "latmin": 50.93707126163351
    }, 
    {
      "latmax": 50.95684696934461, 
      "name": "Bosveld", 
      "lonmin": 4.058047651916972, 
      "sanName": "bosveld", 
      "numOfAddr": 30, 
      "lonmax": 4.05985705829979, 
      "latmin": 50.95215472735369
    }, 
    {
      "latmax": 50.95761527700166, 
      "name": "Botermelkstraat", 
      "lonmin": 4.058553043636442, 
      "sanName": "botermelkstraat", 
      "numOfAddr": 175, 
      "lonmax": 4.071314580315592, 
      "latmin": 50.95164219278011
    }, 
    {
      "latmax": 50.93701664068271, 
      "name": "Boterstraat", 
      "lonmin": 4.036276934489145, 
      "sanName": "boterstraat", 
      "numOfAddr": 5, 
      "lonmax": 4.036728006841087, 
      "latmin": 50.93680577544047
    }, 
    {
      "latmax": 50.94697648232577, 
      "name": "Boudewijnlaan", 
      "lonmin": 4.016504960750636, 
      "sanName": "boudewijnlaan", 
      "numOfAddr": 156, 
      "lonmax": 4.025486975041403, 
      "latmin": 50.94098527599232
    }, 
    {
      "latmax": 50.957826774843326, 
      "name": "Braambesstraat", 
      "lonmin": 4.0629898080856215, 
      "sanName": "braambesstraat", 
      "numOfAddr": 11, 
      "lonmax": 4.063740407461981, 
      "latmin": 50.95724971537245
    }, 
    {
      "latmax": 50.946019470227554, 
      "name": "Brakelstraat", 
      "lonmin": 4.060861011708316, 
      "sanName": "brakelstraat", 
      "numOfAddr": 69, 
      "lonmax": 4.064626297769374, 
      "latmin": 50.94433110409384
    }, 
    {
      "latmax": 50.95997230363515, 
      "name": "Bredestraat", 
      "lonmin": 4.041646907677488, 
      "sanName": "bredestraat", 
      "numOfAddr": 292, 
      "lonmax": 4.0548799869535594, 
      "latmin": 50.9474057678668
    }, 
    {
      "latmax": 50.94917144363272, 
      "name": "Brouwerijstraat", 
      "lonmin": 4.041813085525211, 
      "sanName": "brouwerijstraat", 
      "numOfAddr": 41, 
      "lonmax": 4.043163653385426, 
      "latmin": 50.947313848643894
    }, 
    {
      "latmax": 50.935017453965365, 
      "name": "Brusselse steenweg", 
      "lonmin": 4.049340198264181, 
      "sanName": "brusselsesteenweg", 
      "numOfAddr": 111, 
      "lonmax": 4.068556660735825, 
      "latmin": 50.92556313929059
    }, 
    {
      "latmax": 50.93969051156276, 
      "name": "Burchtstraat", 
      "lonmin": 4.042921094987175, 
      "sanName": "burchtstraat", 
      "numOfAddr": 17, 
      "lonmax": 4.044795896398491, 
      "latmin": 50.93712594226337
    }, 
    {
      "latmax": 50.93397394784077, 
      "name": "Burgemeestersplein", 
      "lonmin": 4.0443142559761105, 
      "sanName": "burgemeestersplein", 
      "numOfAddr": 19, 
      "lonmax": 4.046565917571293, 
      "latmin": 50.932862695765024
    }, 
    {
      "latmax": 50.93720704288732, 
      "name": "Capucienenlaan", 
      "lonmin": 4.026751956033837, 
      "sanName": "capucienenlaan", 
      "numOfAddr": 97, 
      "lonmax": 4.031068778827054, 
      "latmin": 50.9323213004564
    }, 
    {
      "latmax": 50.944028868116526, 
      "name": "Caudronstraat", 
      "lonmin": 4.031198125630675, 
      "sanName": "caudronstraat", 
      "numOfAddr": 39, 
      "lonmax": 4.032651317041799, 
      "latmin": 50.94271725644533
    }, 
    {
      "latmax": 50.94615296330418, 
      "name": "Cesar Haeltermanstraat", 
      "lonmin": 4.024051449023145, 
      "sanName": "cesarhaeltermanstraat", 
      "numOfAddr": 24, 
      "lonmax": 4.026131641545779, 
      "latmin": 50.944044835513424
    }, 
    {
      "latmax": 50.94333167426377, 
      "name": "Cumontstraat", 
      "lonmin": 4.036778867102541, 
      "sanName": "cumontstraat", 
      "numOfAddr": 13, 
      "lonmax": 4.037415451488186, 
      "latmin": 50.94288212518292
    }, 
    {
      "latmax": 50.93917147399674, 
      "name": "De Coninckstraat", 
      "lonmin": 4.042759806402449, 
      "sanName": "deconinckstraat", 
      "numOfAddr": 4, 
      "lonmax": 4.043023327684197, 
      "latmin": 50.9390851861931
    }, 
    {
      "latmax": 50.93457376222993, 
      "name": "De Gheeststraat", 
      "lonmin": 4.045103403559523, 
      "sanName": "degheeststraat", 
      "numOfAddr": 19, 
      "lonmax": 4.046379781521407, 
      "latmin": 50.93399052867905
    }, 
    {
      "latmax": 50.95151762908112, 
      "name": "Dendermondse steenweg", 
      "lonmin": 4.030334542240222, 
      "sanName": "dendermondsesteenweg", 
      "numOfAddr": 207, 
      "lonmax": 4.0355533663350425, 
      "latmin": 50.94170251944858
    }, 
    {
      "latmax": 50.94548906108475, 
      "name": "Denderstraat", 
      "lonmin": 4.035244649009197, 
      "sanName": "denderstraat", 
      "numOfAddr": 55, 
      "lonmax": 4.0383272275063, 
      "latmin": 50.94267972384266
    }, 
    {
      "latmax": 50.933071428965874, 
      "name": "Dennenboomstraat", 
      "lonmin": 4.078776436551338, 
      "sanName": "dennenboomstraat", 
      "numOfAddr": 11, 
      "lonmax": 4.079871696376988, 
      "latmin": 50.932419678723925
    }, 
    {
      "latmax": 50.93994459514596, 
      "name": "De Ridderstraat", 
      "lonmin": 4.033654964484998, 
      "sanName": "deridderstraat", 
      "numOfAddr": 31, 
      "lonmax": 4.037032936368017, 
      "latmin": 50.93861144569413
    }, 
    {
      "latmax": 50.94368149030695, 
      "name": "De Schrijverstraat", 
      "lonmin": 4.031112257513118, 
      "sanName": "deschrijverstraat", 
      "numOfAddr": 24, 
      "lonmax": 4.032355860550571, 
      "latmin": 50.94305954850492
    }, 
    {
      "latmax": 50.934515449656104, 
      "name": "De Vilanderstraat", 
      "lonmin": 4.046423001714304, 
      "sanName": "devilanderstraat", 
      "numOfAddr": 51, 
      "lonmax": 4.048339195982173, 
      "latmin": 50.93284240729433
    }, 
    {
      "latmax": 50.943087032345, 
      "name": "De Visscherestraat", 
      "lonmin": 4.031768651418162, 
      "sanName": "devisscherestraat", 
      "numOfAddr": 29, 
      "lonmax": 4.033965238904427, 
      "latmin": 50.942304450080464
    }, 
    {
      "latmax": 50.93258830241875, 
      "name": "Diepestraat", 
      "lonmin": 4.032235232150868, 
      "sanName": "diepestraat", 
      "numOfAddr": 142, 
      "lonmax": 4.034541862975518, 
      "latmin": 50.92860684765864
    }, 
    {
      "latmax": 50.96034315421246, 
      "name": "Dijkstraat", 
      "lonmin": 4.046554666835105, 
      "sanName": "dijkstraat", 
      "numOfAddr": 3, 
      "lonmax": 4.0501911228029766, 
      "latmin": 50.95852461272935
    }, 
    {
      "latmax": 50.942540511945786, 
      "name": "Dirk Martensstraat", 
      "lonmin": 4.030996554418725, 
      "sanName": "dirkmartensstraat", 
      "numOfAddr": 98, 
      "lonmax": 4.034780090240847, 
      "latmin": 50.94064182796373
    }, 
    {
      "latmax": 50.95340915851813, 
      "name": "Distelstraat", 
      "lonmin": 4.045806209373477, 
      "sanName": "distelstraat", 
      "numOfAddr": 8, 
      "lonmax": 4.04616093094568, 
      "latmin": 50.953004476465615
    }, 
    {
      "latmax": 50.93184617321688, 
      "name": "Dokter Andr\u0082 Goffaertsstraat", 
      "lonmin": 4.035724944923397, 
      "sanName": "dokterandrgoffaertsstraat", 
      "numOfAddr": 93, 
      "lonmax": 4.041748419342827, 
      "latmin": 50.928731146301196
    }, 
    {
      "latmax": 50.94728496720986, 
      "name": "Dokter De Moorstraat", 
      "lonmin": 4.044150005524531, 
      "sanName": "dokterdemoorstraat", 
      "numOfAddr": 115, 
      "lonmax": 4.045932537303196, 
      "latmin": 50.94344753825129
    }, 
    {
      "latmax": 50.952877957072964, 
      "name": "Dompelstraat", 
      "lonmin": 4.052811387374416, 
      "sanName": "dompelstraat", 
      "numOfAddr": 66, 
      "lonmax": 4.056298511926106, 
      "latmin": 50.95093348675196
    }, 
    {
      "latmax": 50.94128802677782, 
      "name": "Doolhofstraat", 
      "lonmin": 4.048364944119855, 
      "sanName": "doolhofstraat", 
      "numOfAddr": 112, 
      "lonmax": 4.05086386442275, 
      "latmin": 50.939136016570444
    }, 
    {
      "latmax": 50.94764598648757, 
      "name": "Doornstraat", 
      "lonmin": 4.060190551341827, 
      "sanName": "doornstraat", 
      "numOfAddr": 39, 
      "lonmax": 4.063702197032487, 
      "latmin": 50.94662192238722
    }, 
    {
      "latmax": 50.94629719749945, 
      "name": "Doornveld", 
      "lonmin": 4.072133235785468, 
      "sanName": "doornveld", 
      "numOfAddr": 16, 
      "lonmax": 4.073097721695247, 
      "latmin": 50.94573086750798
    }, 
    {
      "latmax": 50.949751442051856, 
      "name": "Draaiersstraat", 
      "lonmin": 4.062386461425824, 
      "sanName": "draaiersstraat", 
      "numOfAddr": 29, 
      "lonmax": 4.063594789172873, 
      "latmin": 50.948479264635615
    }, 
    {
      "latmax": 50.94211417310137, 
      "name": "Dr. Andr\u0082 Sierensstraat", 
      "lonmin": 4.039797973030978, 
      "sanName": "drandrsierensstraat", 
      "numOfAddr": 5, 
      "lonmax": 4.040617350928582, 
      "latmin": 50.94171121900153
    }, 
    {
      "latmax": 50.947509012906316, 
      "name": "Drie Sleutelsstraat", 
      "lonmin": 4.040921899432764, 
      "sanName": "driesleutelsstraat", 
      "numOfAddr": 89, 
      "lonmax": 4.044886494581401, 
      "latmin": 50.94672950918613
    }, 
    {
      "latmax": 50.945761536361246, 
      "name": "Drie Veldenweg", 
      "lonmin": 4.056156066324738, 
      "sanName": "drieveldenweg", 
      "numOfAddr": 55, 
      "lonmax": 4.0577190912831895, 
      "latmin": 50.94342534467019
    }, 
    {
      "latmax": 50.942341601371666, 
      "name": "Dr. Jozef Kluyskensstraat", 
      "lonmin": 4.030393597182571, 
      "sanName": "drjozefkluyskensstraat", 
      "numOfAddr": 34, 
      "lonmax": 4.0316469211495995, 
      "latmin": 50.94169924480399
    }, 
    {
      "latmax": 50.93280170848886, 
      "name": "D\u0082sir\u0082 De Wolfstraat", 
      "lonmin": 4.046551540905173, 
      "sanName": "dsirdewolfstraat", 
      "numOfAddr": 29, 
      "lonmax": 4.048313108370314, 
      "latmin": 50.93188016056599
    }, 
    {
      "latmax": 50.93888110143874, 
      "name": "Duivekeetstraat", 
      "lonmin": 4.0293644864206515, 
      "sanName": "duivekeetstraat", 
      "numOfAddr": 43, 
      "lonmax": 4.032165467708056, 
      "latmin": 50.9380947710658
    }, 
    {
      "latmax": 50.941299617097364, 
      "name": "Eegdeken", 
      "lonmin": 3.9957543880739896, 
      "sanName": "eegdeken", 
      "numOfAddr": 7, 
      "lonmax": 3.9970993212070063, 
      "latmin": 50.94073061753489
    }, 
    {
      "latmax": 50.95057413518031, 
      "name": "Eendrachtstraat", 
      "lonmin": 4.038643409132656, 
      "sanName": "eendrachtstraat", 
      "numOfAddr": 3, 
      "lonmax": 4.040509420415733, 
      "latmin": 50.95054617917818
    }, 
    {
      "latmax": 50.95739511856239, 
      "name": "Eglantierstraat", 
      "lonmin": 4.060840788803241, 
      "sanName": "eglantierstraat", 
      "numOfAddr": 22, 
      "lonmax": 4.063170672129524, 
      "latmin": 50.95659604158275
    }, 
    {
      "latmax": 50.933185116543086, 
      "name": "Eikstraat", 
      "lonmin": 4.03673723080433, 
      "sanName": "eikstraat", 
      "numOfAddr": 81, 
      "lonmax": 4.0408696293286415, 
      "latmin": 50.930200702930556
    }, 
    {
      "latmax": 50.95184840718126, 
      "name": "Engelstraat", 
      "lonmin": 4.04213512304449, 
      "sanName": "engelstraat", 
      "numOfAddr": 9, 
      "lonmax": 4.042659537569904, 
      "latmin": 50.95137061433371
    }, 
    {
      "latmax": 50.93278216161292, 
      "name": "Erembodegemstraat", 
      "lonmin": 4.047441384474723, 
      "sanName": "erembodegemstraat", 
      "numOfAddr": 18, 
      "lonmax": 4.051321440719334, 
      "latmin": 50.92812227083773
    }, 
    {
      "latmax": 50.943348001561034, 
      "name": "Erpestraat", 
      "lonmin": 3.997959526252942, 
      "sanName": "erpestraat", 
      "numOfAddr": 41, 
      "lonmax": 3.999437919907033, 
      "latmin": 50.94222396568352
    }, 
    {
      "latmax": 50.94212370719854, 
      "name": "Esplanadeplein", 
      "lonmin": 4.034478638612265, 
      "sanName": "esplanadeplein", 
      "numOfAddr": 19, 
      "lonmax": 4.036915842787351, 
      "latmin": 50.94077027770228
    }, 
    {
      "latmax": 50.94122145108801, 
      "name": "Esplanadestraat", 
      "lonmin": 4.036818129936847, 
      "sanName": "esplanadestraat", 
      "numOfAddr": 26, 
      "lonmax": 4.038914269706181, 
      "latmin": 50.94054691484776
    }, 
    {
      "latmax": 50.9331890480107, 
      "name": "Eugeen Bosteelsstraat", 
      "lonmin": 4.046152987119128, 
      "sanName": "eugeenbosteelsstraat", 
      "numOfAddr": 45, 
      "lonmax": 4.0481549553718885, 
      "latmin": 50.93248057973591
    }, 
    {
      "latmax": 50.94329159768338, 
      "name": "Expostraat", 
      "lonmin": 4.016788093353282, 
      "sanName": "expostraat", 
      "numOfAddr": 13, 
      "lonmax": 4.017519058164991, 
      "latmin": 50.94279909481267
    }, 
    {
      "latmax": 50.942264826602255, 
      "name": "Fabriekstraat", 
      "lonmin": 4.0362738243047165, 
      "sanName": "fabriekstraat", 
      "numOfAddr": 6, 
      "lonmax": 4.0367792834157825, 
      "latmin": 50.94193519162468
    }, 
    {
      "latmax": 50.93318914717138, 
      "name": "Felix de Hertstraat", 
      "lonmin": 4.041910381557951, 
      "sanName": "felixdehertstraat", 
      "numOfAddr": 105, 
      "lonmax": 4.045395895159065, 
      "latmin": 50.93182426616316
    }, 
    {
      "latmax": 50.95024589768204, 
      "name": "Fonteinstraat", 
      "lonmin": 4.063465531795818, 
      "sanName": "fonteinstraat", 
      "numOfAddr": 41, 
      "lonmax": 4.064580755409933, 
      "latmin": 50.947608603737066
    }, 
    {
      "latmax": 50.92895262887038, 
      "name": "Frans Blanckaertdreef", 
      "lonmin": 4.042955111377723, 
      "sanName": "fransblanckaertdreef", 
      "numOfAddr": 1, 
      "lonmax": 4.042955111377723, 
      "latmin": 50.92895262887038
    }, 
    {
      "latmax": 50.94588464173725, 
      "name": "Frans Breckpotwijk", 
      "lonmin": 4.043903405647978, 
      "sanName": "fransbreckpotwijk", 
      "numOfAddr": 5, 
      "lonmax": 4.045185273876346, 
      "latmin": 50.94517082100533
    }, 
    {
      "latmax": 50.93096140391404, 
      "name": "Frans Roucelstraat", 
      "lonmin": 4.024212365846794, 
      "sanName": "fransroucelstraat", 
      "numOfAddr": 15, 
      "lonmax": 4.026116383110912, 
      "latmin": 50.928880599052334
    }, 
    {
      "latmax": 50.93399555160477, 
      "name": "Fr\u0082d\u0082ric Van der Nootstraat", 
      "lonmin": 4.0458579061555175, 
      "sanName": "frdricvandernootstraat", 
      "numOfAddr": 40, 
      "lonmax": 4.04825160461443, 
      "latmin": 50.933317226178026
    }, 
    {
      "latmax": 50.94071047387151, 
      "name": "Frits De Wolfkaai", 
      "lonmin": 4.043841412500325, 
      "sanName": "fritsdewolfkaai", 
      "numOfAddr": 8, 
      "lonmax": 4.0446423627166, 
      "latmin": 50.94016513941323
    }, 
    {
      "latmax": 50.95029334185412, 
      "name": "Garenstraat", 
      "lonmin": 4.032004848427643, 
      "sanName": "garenstraat", 
      "numOfAddr": 15, 
      "lonmax": 4.032778872052465, 
      "latmin": 50.949948296641786
    }, 
    {
      "latmax": 50.94493842174204, 
      "name": "Gasthuisstraat", 
      "lonmin": 4.042341885727995, 
      "sanName": "gasthuisstraat", 
      "numOfAddr": 40, 
      "lonmax": 4.043934840026445, 
      "latmin": 50.94357371721522
    }, 
    {
      "latmax": 50.949203121783036, 
      "name": "Gefusilleerdenstraat", 
      "lonmin": 4.054339814014654, 
      "sanName": "gefusilleerdenstraat", 
      "numOfAddr": 13, 
      "lonmax": 4.055250504557807, 
      "latmin": 50.94861742739133
    }, 
    {
      "latmax": 50.94928861803412, 
      "name": "Geldhofstraat", 
      "lonmin": 4.047079427644687, 
      "sanName": "geldhofstraat", 
      "numOfAddr": 112, 
      "lonmax": 4.052773178354612, 
      "latmin": 50.948323970269875
    }, 
    {
      "latmax": 50.94244733401199, 
      "name": "Gentse steenweg", 
      "lonmin": 3.9963687126147702, 
      "sanName": "gentsesteenweg", 
      "numOfAddr": 288, 
      "lonmax": 4.026795453180448, 
      "latmin": 50.937346177004336
    }, 
    {
      "latmax": 50.938644339606576, 
      "name": "Gentsestraat", 
      "lonmin": 4.027622059575475, 
      "sanName": "gentsestraat", 
      "numOfAddr": 98, 
      "lonmax": 4.033240478442867, 
      "latmin": 50.936571241321666
    }, 
    {
      "latmax": 50.935052654156614, 
      "name": "Geraardsbergsestraat", 
      "lonmin": 4.034490836988217, 
      "sanName": "geraardsbergsestraat", 
      "numOfAddr": 202, 
      "lonmax": 4.038831786128459, 
      "latmin": 50.92616117137063
    }, 
    {
      "latmax": 50.94548389713461, 
      "name": "Gheeraerdtsstraat", 
      "lonmin": 4.0357595723922755, 
      "sanName": "gheeraerdtsstraat", 
      "numOfAddr": 17, 
      "lonmax": 4.036885029642824, 
      "latmin": 50.9442869064949
    }, 
    {
      "latmax": 50.9482979347086, 
      "name": "Goudbloemstraat", 
      "lonmin": 4.056901255379294, 
      "sanName": "goudbloemstraat", 
      "numOfAddr": 59, 
      "lonmax": 4.060490964159722, 
      "latmin": 50.94630989746921
    }, 
    {
      "latmax": 50.94890847381325, 
      "name": "Gouden Leeuwstraat", 
      "lonmin": 4.049776207667844, 
      "sanName": "goudenleeuwstraat", 
      "numOfAddr": 15, 
      "lonmax": 4.050792318763227, 
      "latmin": 50.94815018405548
    }, 
    {
      "latmax": 50.941116416974694, 
      "name": "Graanmarkt", 
      "lonmin": 4.038084537987296, 
      "sanName": "graanmarkt", 
      "numOfAddr": 10, 
      "lonmax": 4.041219570146235, 
      "latmin": 50.93978207903971
    }, 
    {
      "latmax": 50.95546529168404, 
      "name": "Graanveld", 
      "lonmin": 4.0599176552912715, 
      "sanName": "graanveld", 
      "numOfAddr": 10, 
      "lonmax": 4.060600870720349, 
      "latmin": 50.95484816704858
    }, 
    {
      "latmax": 50.948722039805574, 
      "name": "Groenstraat", 
      "lonmin": 4.048531245549814, 
      "sanName": "groenstraat", 
      "numOfAddr": 271, 
      "lonmax": 4.05666150771259, 
      "latmin": 50.94300147067238
    }, 
    {
      "latmax": 50.93924649522895, 
      "name": "Grote Markt", 
      "lonmin": 4.037944113800668, 
      "sanName": "grotemarkt", 
      "numOfAddr": 28, 
      "lonmax": 4.0399071265409034, 
      "latmin": 50.93798673584286
    }, 
    {
      "latmax": 50.94119924748422, 
      "name": "Grotstraat", 
      "lonmin": 4.059941114200968, 
      "sanName": "grotstraat", 
      "numOfAddr": 20, 
      "lonmax": 4.060898368502576, 
      "latmin": 50.9403142039437
    }, 
    {
      "latmax": 50.94679695638342, 
      "name": "Guido Gezellestraat", 
      "lonmin": 4.058750184609088, 
      "sanName": "guidogezellestraat", 
      "numOfAddr": 76, 
      "lonmax": 4.06027672040201, 
      "latmin": 50.94374275643987
    }, 
    {
      "latmax": 50.94993266580595, 
      "name": "Guldenboomplein", 
      "lonmin": 4.031964623259741, 
      "sanName": "guldenboomplein", 
      "numOfAddr": 34, 
      "lonmax": 4.033234524273171, 
      "latmin": 50.949146888882034
    }, 
    {
      "latmax": 50.934629790741184, 
      "name": "Gustaaf Papestraat", 
      "lonmin": 4.030753798375872, 
      "sanName": "gustaafpapestraat", 
      "numOfAddr": 64, 
      "lonmax": 4.033907364707794, 
      "latmin": 50.93327736583657
    }, 
    {
      "latmax": 50.93793034703095, 
      "name": "Hakelenberg", 
      "lonmin": 4.062795366456018, 
      "sanName": "hakelenberg", 
      "numOfAddr": 12, 
      "lonmax": 4.064537801065579, 
      "latmin": 50.93699916116792
    }, 
    {
      "latmax": 50.96315149173769, 
      "name": "Hammestraat", 
      "lonmin": 4.047524380567063, 
      "sanName": "hammestraat", 
      "numOfAddr": 42, 
      "lonmax": 4.054265406593496, 
      "latmin": 50.960024464860226
    }, 
    {
      "latmax": 50.95586031778507, 
      "name": "Haverveld", 
      "lonmin": 4.060533080630956, 
      "sanName": "haverveld", 
      "numOfAddr": 12, 
      "lonmax": 4.06170168666823, 
      "latmin": 50.95520129933158
    }, 
    {
      "latmax": 50.95545824337556, 
      "name": "Heidestraat", 
      "lonmin": 4.05915942118091, 
      "sanName": "heidestraat", 
      "numOfAddr": 47, 
      "lonmax": 4.062547291186869, 
      "latmin": 50.9537048139128
    }, 
    {
      "latmax": 50.94989100142551, 
      "name": "Heilig Hartlaan", 
      "lonmin": 4.041025931983084, 
      "sanName": "heilighartlaan", 
      "numOfAddr": 84, 
      "lonmax": 4.046291501548929, 
      "latmin": 50.94847473006757
    }, 
    {
      "latmax": 50.950165011591814, 
      "name": "Henri Matthieustraat", 
      "lonmin": 4.052152152042335, 
      "sanName": "henrimatthieustraat", 
      "numOfAddr": 29, 
      "lonmax": 4.053641514047947, 
      "latmin": 50.949160963580766
    }, 
    {
      "latmax": 50.948124656451895, 
      "name": "Hertshage", 
      "lonmin": 4.040130731729897, 
      "sanName": "hertshage", 
      "numOfAddr": 76, 
      "lonmax": 4.0430762276372505, 
      "latmin": 50.943389259316696
    }, 
    {
      "latmax": 50.9498365771116, 
      "name": "Het Walleken", 
      "lonmin": 4.047436189412702, 
      "sanName": "hetwalleken", 
      "numOfAddr": 2, 
      "lonmax": 4.047459808220558, 
      "latmin": 50.94958615999858
    }, 
    {
      "latmax": 50.94507513784637, 
      "name": "Hippoliet Meertwijk", 
      "lonmin": 4.0438916173978, 
      "sanName": "hippolietmeertwijk", 
      "numOfAddr": 4, 
      "lonmax": 4.044681505631105, 
      "latmin": 50.944766037113105
    }, 
    {
      "latmax": 50.95145130736392, 
      "name": "Hoenderveld", 
      "lonmin": 4.043857117607364, 
      "sanName": "hoenderveld", 
      "numOfAddr": 10, 
      "lonmax": 4.044523138958285, 
      "latmin": 50.95106319345906
    }, 
    {
      "latmax": 50.92780274625086, 
      "name": "Hoezekouterdreef", 
      "lonmin": 4.028129007157999, 
      "sanName": "hoezekouterdreef", 
      "numOfAddr": 29, 
      "lonmax": 4.03380707865295, 
      "latmin": 50.92251512171564
    }, 
    {
      "latmax": 50.93206122445238, 
      "name": "Hof Leeuwergem", 
      "lonmin": 4.076716804410614, 
      "sanName": "hofleeuwergem", 
      "numOfAddr": 56, 
      "lonmax": 4.083181920816406, 
      "latmin": 50.930055089179035
    }, 
    {
      "latmax": 50.931719587994344, 
      "name": "Hof Somergem", 
      "lonmin": 4.075598390591072, 
      "sanName": "hofsomergem", 
      "numOfAddr": 28, 
      "lonmax": 4.081013396137099, 
      "latmin": 50.92744905925081
    }, 
    {
      "latmax": 50.95584148880371, 
      "name": "Hof ten Bergestraat", 
      "lonmin": 4.0554215548358945, 
      "sanName": "hoftenbergestraat", 
      "numOfAddr": 82, 
      "lonmax": 4.069664655184866, 
      "latmin": 50.93520733993847
    }, 
    {
      "latmax": 50.94776015732993, 
      "name": "Hoge Steenberg", 
      "lonmin": 4.049015879217414, 
      "sanName": "hogesteenberg", 
      "numOfAddr": 7, 
      "lonmax": 4.050263131922938, 
      "latmin": 50.94691080493029
    }, 
    {
      "latmax": 50.94162491441034, 
      "name": "Hoge Vesten", 
      "lonmin": 4.04492779846256, 
      "sanName": "hogevesten", 
      "numOfAddr": 55, 
      "lonmax": 4.047114781869249, 
      "latmin": 50.94048888211971
    }, 
    {
      "latmax": 50.949397153444615, 
      "name": "Hoogveld", 
      "lonmin": 4.0613709260919, 
      "sanName": "hoogveld", 
      "numOfAddr": 24, 
      "lonmax": 4.063180640631619, 
      "latmin": 50.9479341252767
    }, 
    {
      "latmax": 50.93819765423616, 
      "name": "Hopmarkt", 
      "lonmin": 4.03636101738287, 
      "sanName": "hopmarkt", 
      "numOfAddr": 33, 
      "lonmax": 4.038375111370505, 
      "latmin": 50.936913422357044
    }, 
    {
      "latmax": 50.95071581101981, 
      "name": "Hopstraat", 
      "lonmin": 4.064377812608106, 
      "sanName": "hopstraat", 
      "numOfAddr": 25, 
      "lonmax": 4.065839474501074, 
      "latmin": 50.94962300047787
    }, 
    {
      "latmax": 50.9554498318549, 
      "name": "Horebekeveld", 
      "lonmin": 4.062680394192597, 
      "sanName": "horebekeveld", 
      "numOfAddr": 28, 
      "lonmax": 4.064139435938705, 
      "latmin": 50.95453383664508
    }, 
    {
      "latmax": 50.94518385438053, 
      "name": "Hospitaalstraat", 
      "lonmin": 4.042406843321276, 
      "sanName": "hospitaalstraat", 
      "numOfAddr": 20, 
      "lonmax": 4.043641434973362, 
      "latmin": 50.944844962456926
    }, 
    {
      "latmax": 50.94283975544546, 
      "name": "Houtkaai", 
      "lonmin": 4.042112136087153, 
      "sanName": "houtkaai", 
      "numOfAddr": 10, 
      "lonmax": 4.0428692344900705, 
      "latmin": 50.94226806921656
    }, 
    {
      "latmax": 50.9351251178826, 
      "name": "Houtmarkt", 
      "lonmin": 4.042942128681911, 
      "sanName": "houtmarkt", 
      "numOfAddr": 32, 
      "lonmax": 4.044542841116994, 
      "latmin": 50.934103468885226
    }, 
    {
      "latmax": 50.941477649299486, 
      "name": "Hoveniersplein", 
      "lonmin": 4.0458112631076855, 
      "sanName": "hoveniersplein", 
      "numOfAddr": 1, 
      "lonmax": 4.0458112631076855, 
      "latmin": 50.941477649299486
    }, 
    {
      "latmax": 50.943386667875245, 
      "name": "Hoveniersstraat", 
      "lonmin": 4.044237434917198, 
      "sanName": "hoveniersstraat", 
      "numOfAddr": 85, 
      "lonmax": 4.046224980114583, 
      "latmin": 50.941618091523
    }, 
    {
      "latmax": 50.931969358861075, 
      "name": "Hugo Lef\u008avrestraat", 
      "lonmin": 4.036162547918869, 
      "sanName": "hugolefvrestraat", 
      "numOfAddr": 39, 
      "lonmax": 4.038478118807368, 
      "latmin": 50.93098280577679
    }, 
    {
      "latmax": 50.93328979351762, 
      "name": "Hyacinthenstraat", 
      "lonmin": 4.076435688003401, 
      "sanName": "hyacinthenstraat", 
      "numOfAddr": 60, 
      "lonmax": 4.08252175164082, 
      "latmin": 50.930955640030255
    }, 
    {
      "latmax": 50.9340882538354, 
      "name": "Immerzeeldreef", 
      "lonmin": 4.066606919901792, 
      "sanName": "immerzeeldreef", 
      "numOfAddr": 137, 
      "lonmax": 4.081204070757622, 
      "latmin": 50.92858068164077
    }, 
    {
      "latmax": 50.94211627281857, 
      "name": "Ingang Backaert", 
      "lonmin": 4.0481243085760665, 
      "sanName": "ingangbackaert", 
      "numOfAddr": 7, 
      "lonmax": 4.048452210782332, 
      "latmin": 50.94189185262361
    }, 
    {
      "latmax": 50.94659385198158, 
      "name": "Ingang Bonner", 
      "lonmin": 4.025349121630555, 
      "sanName": "ingangbonner", 
      "numOfAddr": 10, 
      "lonmax": 4.025935478415526, 
      "latmin": 50.94639222069442
    }, 
    {
      "latmax": 50.93971502789258, 
      "name": "Ingang De Prez", 
      "lonmin": 4.028822634555313, 
      "sanName": "ingangdeprez", 
      "numOfAddr": 6, 
      "lonmax": 4.029064636869602, 
      "latmin": 50.939539175151715
    }, 
    {
      "latmax": 50.93932691455071, 
      "name": "Ingang Jelie", 
      "lonmin": 4.0278654926946285, 
      "sanName": "ingangjelie", 
      "numOfAddr": 9, 
      "lonmax": 4.028153489823432, 
      "latmin": 50.939074285884075
    }, 
    {
      "latmax": 50.93591277154768, 
      "name": "Ingang Levionois", 
      "lonmin": 4.04016466886138, 
      "sanName": "inganglevionois", 
      "numOfAddr": 4, 
      "lonmax": 4.0404411500947015, 
      "latmin": 50.93582501474605
    }, 
    {
      "latmax": 50.94394992120536, 
      "name": "Ingang Van Bemten", 
      "lonmin": 4.030682879003063, 
      "sanName": "ingangvanbemten", 
      "numOfAddr": 12, 
      "lonmax": 4.030938174744525, 
      "latmin": 50.94373803557823
    }, 
    {
      "latmax": 50.94409919020309, 
      "name": "Irisstraat", 
      "lonmin": 4.01684270992019, 
      "sanName": "irisstraat", 
      "numOfAddr": 14, 
      "lonmax": 4.017534950794616, 
      "latmin": 50.94349126005057
    }, 
    {
      "latmax": 50.94837611886528, 
      "name": "Jan Bijlstraat", 
      "lonmin": 4.045127812441272, 
      "sanName": "janbijlstraat", 
      "numOfAddr": 36, 
      "lonmax": 4.046663288027782, 
      "latmin": 50.94731476467025
    }, 
    {
      "latmax": 50.94506526872338, 
      "name": "Jan De Windtstraat", 
      "lonmin": 4.045386694603048, 
      "sanName": "jandewindtstraat", 
      "numOfAddr": 58, 
      "lonmax": 4.046327810559375, 
      "latmin": 50.943336653913484
    }, 
    {
      "latmax": 50.95302464045926, 
      "name": "Jan Jeliestraat", 
      "lonmin": 4.04265732161287, 
      "sanName": "janjeliestraat", 
      "numOfAddr": 57, 
      "lonmax": 4.04352588520174, 
      "latmin": 50.951137566442306
    }, 
    {
      "latmax": 50.949048464438015, 
      "name": "Jasmijnstraat", 
      "lonmin": 4.044233752622386, 
      "sanName": "jasmijnstraat", 
      "numOfAddr": 16, 
      "lonmax": 4.044983545719365, 
      "latmin": 50.94852026184038
    }, 
    {
      "latmax": 50.946750987322126, 
      "name": "Jozef Borremanstraat", 
      "lonmin": 4.060086238946846, 
      "sanName": "jozefborremanstraat", 
      "numOfAddr": 46, 
      "lonmax": 4.063748934270473, 
      "latmin": 50.94525060207335
    }, 
    {
      "latmax": 50.94354603273, 
      "name": "Jozef Meganckstraat", 
      "lonmin": 4.029773854937839, 
      "sanName": "jozefmeganckstraat", 
      "numOfAddr": 39, 
      "lonmax": 4.0304638085914295, 
      "latmin": 50.942180219285724
    }, 
    {
      "latmax": 50.93487272102577, 
      "name": "Kalfstraat", 
      "lonmin": 4.036118868759012, 
      "sanName": "kalfstraat", 
      "numOfAddr": 18, 
      "lonmax": 4.037053572804887, 
      "latmin": 50.934226644011304
    }, 
    {
      "latmax": 50.9351135909175, 
      "name": "Kanunnik Colinetstraat", 
      "lonmin": 4.037238950945473, 
      "sanName": "kanunnikcolinetstraat", 
      "numOfAddr": 3, 
      "lonmax": 4.037574881143214, 
      "latmin": 50.934645029000826
    }, 
    {
      "latmax": 50.9357428437801, 
      "name": "Kapiteintjesstraat", 
      "lonmin": 4.035516809416064, 
      "sanName": "kapiteintjesstraat", 
      "numOfAddr": 5, 
      "lonmax": 4.036572208828538, 
      "latmin": 50.934622126631744
    }, 
    {
      "latmax": 50.926937137641055, 
      "name": "Kareelstraat", 
      "lonmin": 4.031932655179752, 
      "sanName": "kareelstraat", 
      "numOfAddr": 24, 
      "lonmax": 4.034622576130807, 
      "latmin": 50.92206049073206
    }, 
    {
      "latmax": 50.93561746869124, 
      "name": "Karel Van de Woestijnestraat", 
      "lonmin": 4.02572448869464, 
      "sanName": "karelvandewoestijnestraat", 
      "numOfAddr": 32, 
      "lonmax": 4.029008823795141, 
      "latmin": 50.93464919787834
    }, 
    {
      "latmax": 50.95051637194053, 
      "name": "Katoenstraat", 
      "lonmin": 4.031002308595232, 
      "sanName": "katoenstraat", 
      "numOfAddr": 23, 
      "lonmax": 4.032019629281247, 
      "latmin": 50.95002392040031
    }, 
    {
      "latmax": 50.94077481811764, 
      "name": "Kattestraat", 
      "lonmin": 4.0357586597626804, 
      "sanName": "kattestraat", 
      "numOfAddr": 72, 
      "lonmax": 4.038883362392722, 
      "latmin": 50.938696226610965
    }, 
    {
      "latmax": 50.945039431729526, 
      "name": "Keienberg", 
      "lonmin": 4.055067811439821, 
      "sanName": "keienberg", 
      "numOfAddr": 8, 
      "lonmax": 4.05675822287188, 
      "latmin": 50.94383660191081
    }, 
    {
      "latmax": 50.938040439243295, 
      "name": "Keizersplein", 
      "lonmin": 4.033424427483926, 
      "sanName": "keizersplein", 
      "numOfAddr": 72, 
      "lonmax": 4.038353019652201, 
      "latmin": 50.93531400268941
    }, 
    {
      "latmax": 50.93115047996343, 
      "name": "Kerkhoflaan", 
      "lonmin": 4.0314819257600005, 
      "sanName": "kerkhoflaan", 
      "numOfAddr": 66, 
      "lonmax": 4.035733024050944, 
      "latmin": 50.92858286631512
    }, 
    {
      "latmax": 50.95632995540983, 
      "name": "Kerkstraat", 
      "lonmin": 4.039622404451841, 
      "sanName": "kerkstraat", 
      "numOfAddr": 21, 
      "lonmax": 4.141681513347799, 
      "latmin": 50.9379592757571
    }, 
    {
      "latmax": 50.95184486008024, 
      "name": "Kerrebroekstraat", 
      "lonmin": 4.024429119681507, 
      "sanName": "kerrebroekstraat", 
      "numOfAddr": 135, 
      "lonmax": 4.0305092279979275, 
      "latmin": 50.9486420770087
    }, 
    {
      "latmax": 50.95799109580533, 
      "name": "Klaproosstraat", 
      "lonmin": 4.061487386815773, 
      "sanName": "klaproosstraat", 
      "numOfAddr": 23, 
      "lonmax": 4.063746401017256, 
      "latmin": 50.956763160938856
    }, 
    {
      "latmax": 50.936537634771994, 
      "name": "Klapstraat", 
      "lonmin": 4.040749640012867, 
      "sanName": "klapstraat", 
      "numOfAddr": 17, 
      "lonmax": 4.041963896276457, 
      "latmin": 50.93603645564915
    }, 
    {
      "latmax": 50.939870695608754, 
      "name": "Klaterbaan", 
      "lonmin": 4.062052944801536, 
      "sanName": "klaterbaan", 
      "numOfAddr": 62, 
      "lonmax": 4.065328467844898, 
      "latmin": 50.93793566608986
    }, 
    {
      "latmax": 50.95138136135223, 
      "name": "Klaverstraat", 
      "lonmin": 4.050525233808784, 
      "sanName": "klaverstraat", 
      "numOfAddr": 51, 
      "lonmax": 4.054237737392994, 
      "latmin": 50.94949950392591
    }, 
    {
      "latmax": 50.927447226952964, 
      "name": "Kleine Hoezekouter", 
      "lonmin": 4.029690096914816, 
      "sanName": "kleinehoezekouter", 
      "numOfAddr": 20, 
      "lonmax": 4.0318177923811955, 
      "latmin": 50.92637338456631
    }, 
    {
      "latmax": 50.93805781707873, 
      "name": "Klein Parksken", 
      "lonmin": 4.0284265692584675, 
      "sanName": "kleinparksken", 
      "numOfAddr": 4, 
      "lonmax": 4.028782675025519, 
      "latmin": 50.93766623622856
    }, 
    {
      "latmax": 50.92793597853442, 
      "name": "Kloosterweg", 
      "lonmin": 4.06808830558839, 
      "sanName": "kloosterweg", 
      "numOfAddr": 50, 
      "lonmax": 4.072921566700468, 
      "latmin": 50.9267753594303
    }, 
    {
      "latmax": 50.93483556197744, 
      "name": "Kluisdreef", 
      "lonmin": 4.0646730323291855, 
      "sanName": "kluisdreef", 
      "numOfAddr": 18, 
      "lonmax": 4.074298474446601, 
      "latmin": 50.93006876566367
    }, 
    {
      "latmax": 50.939729510691706, 
      "name": "Koeistraat", 
      "lonmin": 4.074127299951248, 
      "sanName": "koeistraat", 
      "numOfAddr": 47, 
      "lonmax": 4.085225499037837, 
      "latmin": 50.93835619743554
    }, 
    {
      "latmax": 50.93943730707842, 
      "name": "Koningin Astrid Park", 
      "lonmin": 4.027320409911459, 
      "sanName": "koninginastridpark", 
      "numOfAddr": 25, 
      "lonmax": 4.0295527267624, 
      "latmin": 50.93796458449536
    }, 
    {
      "latmax": 50.94069909557599, 
      "name": "Koolstraat", 
      "lonmin": 4.025886095392636, 
      "sanName": "koolstraat", 
      "numOfAddr": 122, 
      "lonmax": 4.030758933304632, 
      "latmin": 50.938126288419916
    }, 
    {
      "latmax": 50.953809363903495, 
      "name": "Koolzaadstraat", 
      "lonmin": 4.063168447111665, 
      "sanName": "koolzaadstraat", 
      "numOfAddr": 14, 
      "lonmax": 4.065812627112063, 
      "latmin": 50.952394092320084
    }, 
    {
      "latmax": 50.94399634560475, 
      "name": "Korte Binnenstraat", 
      "lonmin": 4.047534068331312, 
      "sanName": "kortebinnenstraat", 
      "numOfAddr": 21, 
      "lonmax": 4.048123092148789, 
      "latmin": 50.94366961063836
    }, 
    {
      "latmax": 50.94022315867675, 
      "name": "Korte Lindenstraat", 
      "lonmin": 4.019024558325177, 
      "sanName": "kortelindenstraat", 
      "numOfAddr": 45, 
      "lonmax": 4.020858278787917, 
      "latmin": 50.93965341165709
    }, 
    {
      "latmax": 50.937695519842904, 
      "name": "Korte Nieuwstraat", 
      "lonmin": 4.035456917126117, 
      "sanName": "kortenieuwstraat", 
      "numOfAddr": 10, 
      "lonmax": 4.0364022114932006, 
      "latmin": 50.937197979916554
    }, 
    {
      "latmax": 50.933299732503535, 
      "name": "Korte Sint Janstraat", 
      "lonmin": 4.043297490285544, 
      "sanName": "kortesintjanstraat", 
      "numOfAddr": 39, 
      "lonmax": 4.044047432289972, 
      "latmin": 50.932661430139206
    }, 
    {
      "latmax": 50.94424916043205, 
      "name": "Korte Vooruitzichtstraat", 
      "lonmin": 4.018583349563605, 
      "sanName": "kortevooruitzichtstraat", 
      "numOfAddr": 37, 
      "lonmax": 4.020144452951329, 
      "latmin": 50.943084972171626
    }, 
    {
      "latmax": 50.93639463348722, 
      "name": "Korte Zoutstraat", 
      "lonmin": 4.037831664389935, 
      "sanName": "kortezoutstraat", 
      "numOfAddr": 58, 
      "lonmax": 4.040046173598192, 
      "latmin": 50.93510693969652
    }, 
    {
      "latmax": 50.94681921925899, 
      "name": "Krekelstraat", 
      "lonmin": 4.056719204499645, 
      "sanName": "krekelstraat", 
      "numOfAddr": 19, 
      "lonmax": 4.05869704829142, 
      "latmin": 50.945840362548324
    }, 
    {
      "latmax": 50.942360623028705, 
      "name": "Kreupelveldstraat", 
      "lonmin": 4.008814398824377, 
      "sanName": "kreupelveldstraat", 
      "numOfAddr": 49, 
      "lonmax": 4.0115515116079195, 
      "latmin": 50.94086097377536
    }, 
    {
      "latmax": 50.93926962245583, 
      "name": "Kriekenlaan", 
      "lonmin": 4.016432612163896, 
      "sanName": "kriekenlaan", 
      "numOfAddr": 15, 
      "lonmax": 4.0182048931845005, 
      "latmin": 50.9383926966117
    }, 
    {
      "latmax": 50.94561878953423, 
      "name": "Kroonstraat", 
      "lonmin": 4.057037465217938, 
      "sanName": "kroonstraat", 
      "numOfAddr": 33, 
      "lonmax": 4.059074929799552, 
      "latmin": 50.944751313941175
    }, 
    {
      "latmax": 50.946090480964024, 
      "name": "Kruisveldstraat", 
      "lonmin": 4.057523035838269, 
      "sanName": "kruisveldstraat", 
      "numOfAddr": 17, 
      "lonmax": 4.05846593492986, 
      "latmin": 50.94535438590977
    }, 
    {
      "latmax": 50.93853096242092, 
      "name": "Laborstraat", 
      "lonmin": 4.049712020676833, 
      "sanName": "laborstraat", 
      "numOfAddr": 27, 
      "lonmax": 4.05102177560465, 
      "latmin": 50.93754373700148
    }, 
    {
      "latmax": 50.94253091762039, 
      "name": "Lambrechtstraat", 
      "lonmin": 4.063427378663259, 
      "sanName": "lambrechtstraat", 
      "numOfAddr": 65, 
      "lonmax": 4.0666189169486655, 
      "latmin": 50.941528282948
    }, 
    {
      "latmax": 50.95131008275527, 
      "name": "Landbouwersstraat", 
      "lonmin": 4.042560177080944, 
      "sanName": "landbouwersstraat", 
      "numOfAddr": 30, 
      "lonmax": 4.046605357998839, 
      "latmin": 50.95098543100838
    }, 
    {
      "latmax": 50.94193015121077, 
      "name": "Langestraat", 
      "lonmin": 4.058896634669384, 
      "sanName": "langestraat", 
      "numOfAddr": 223, 
      "lonmax": 4.073468380846344, 
      "latmin": 50.938815859560954
    }, 
    {
      "latmax": 50.93794780703803, 
      "name": "Lange Zoutstraat", 
      "lonmin": 4.038931560365999, 
      "sanName": "langezoutstraat", 
      "numOfAddr": 59, 
      "lonmax": 4.040195945773392, 
      "latmin": 50.9364223337653
    }, 
    {
      "latmax": 50.95505934889743, 
      "name": "Larewei", 
      "lonmin": 4.060814842213076, 
      "sanName": "larewei", 
      "numOfAddr": 33, 
      "lonmax": 4.062569584544858, 
      "latmin": 50.95394266262615
    }, 
    {
      "latmax": 50.9455376982681, 
      "name": "Lazaretstraat", 
      "lonmin": 4.041256158206386, 
      "sanName": "lazaretstraat", 
      "numOfAddr": 20, 
      "lonmax": 4.044667586633491, 
      "latmin": 50.945113920798434
    }, 
    {
      "latmax": 50.95176293876365, 
      "name": "Ledebaan", 
      "lonmin": 4.019098343181758, 
      "sanName": "ledebaan", 
      "numOfAddr": 221, 
      "lonmax": 4.028899592272684, 
      "latmin": 50.94346943788558
    }, 
    {
      "latmax": 50.955163968974155, 
      "name": "Leenlaan", 
      "lonmin": 4.045850041334981, 
      "sanName": "leenlaan", 
      "numOfAddr": 20, 
      "lonmax": 4.048039896466532, 
      "latmin": 50.95368267256146
    }, 
    {
      "latmax": 50.93234576654623, 
      "name": "Leo de B\u0082thunelaan", 
      "lonmin": 4.03044230971265, 
      "sanName": "leodebthunelaan", 
      "numOfAddr": 110, 
      "lonmax": 4.034182162515802, 
      "latmin": 50.927965009014734
    }, 
    {
      "latmax": 50.93513497288688, 
      "name": "Leo Gheeraerdtslaan", 
      "lonmin": 4.04908546173704, 
      "sanName": "leogheeraerdtslaan", 
      "numOfAddr": 1, 
      "lonmax": 4.04908546173704, 
      "latmin": 50.93513497288688
    }, 
    {
      "latmax": 50.94837649723233, 
      "name": "Leopoldlaan", 
      "lonmin": 4.04666259457883, 
      "sanName": "leopoldlaan", 
      "numOfAddr": 93, 
      "lonmax": 4.053868354967064, 
      "latmin": 50.94266264798198
    }, 
    {
      "latmax": 50.945439391885465, 
      "name": "Liefdadigheidstraat", 
      "lonmin": 4.040297379133685, 
      "sanName": "liefdadigheidstraat", 
      "numOfAddr": 3, 
      "lonmax": 4.040592891287769, 
      "latmin": 50.9453330333064
    }, 
    {
      "latmax": 50.95399339423922, 
      "name": "Lijnzaadstraat", 
      "lonmin": 4.06409984637615, 
      "sanName": "lijnzaadstraat", 
      "numOfAddr": 8, 
      "lonmax": 4.065306154923165, 
      "latmin": 50.95309317553991
    }, 
    {
      "latmax": 50.95020762249197, 
      "name": "Lindenstraat", 
      "lonmin": 4.014508026234742, 
      "sanName": "lindenstraat", 
      "numOfAddr": 118, 
      "lonmax": 4.019943759864131, 
      "latmin": 50.94154540697488
    }, 
    {
      "latmax": 50.931630541422415, 
      "name": "Linthout", 
      "lonmin": 4.079569331438059, 
      "sanName": "linthout", 
      "numOfAddr": 37, 
      "lonmax": 4.083950132991058, 
      "latmin": 50.930340789692764
    }, 
    {
      "latmax": 50.954853186881934, 
      "name": "Lion d'Orweg", 
      "lonmin": 4.039012566394845, 
      "sanName": "liondorweg", 
      "numOfAddr": 17, 
      "lonmax": 4.041502463361734, 
      "latmin": 50.95161106148882
    }, 
    {
      "latmax": 50.92685344694402, 
      "name": "Lokerenveldstraat", 
      "lonmin": 4.032539313869734, 
      "sanName": "lokerenveldstraat", 
      "numOfAddr": 48, 
      "lonmax": 4.035225119114507, 
      "latmin": 50.92330371401646
    }, 
    {
      "latmax": 50.959970069687856, 
      "name": "Losweg", 
      "lonmin": 4.049742729411194, 
      "sanName": "losweg", 
      "numOfAddr": 25, 
      "lonmax": 4.0523463191112175, 
      "latmin": 50.958867884378364
    }, 
    {
      "latmax": 50.9294104792054, 
      "name": "Louis Camustraat", 
      "lonmin": 4.059702879628331, 
      "sanName": "louiscamustraat", 
      "numOfAddr": 33, 
      "lonmax": 4.0640962243661045, 
      "latmin": 50.927879478298706
    }, 
    {
      "latmax": 50.95008958719362, 
      "name": "Louis De Rijckestraat", 
      "lonmin": 4.0512853046248605, 
      "sanName": "louisderijckestraat", 
      "numOfAddr": 19, 
      "lonmax": 4.052341423951732, 
      "latmin": 50.949190206830274
    }, 
    {
      "latmax": 50.936460495778, 
      "name": "Louis D'Haeseleerstraat", 
      "lonmin": 4.040034952060727, 
      "sanName": "louisdhaeseleerstraat", 
      "numOfAddr": 50, 
      "lonmax": 4.042840084230796, 
      "latmin": 50.934408564145365
    }, 
    {
      "latmax": 50.9330819338196, 
      "name": "Louis Paul Boonstraat", 
      "lonmin": 4.04190852245982, 
      "sanName": "louispaulboonstraat", 
      "numOfAddr": 35, 
      "lonmax": 4.043038228444688, 
      "latmin": 50.93236650307169
    }, 
    {
      "latmax": 50.934236887586174, 
      "name": "Maanstraat", 
      "lonmin": 4.040729296278383, 
      "sanName": "maanstraat", 
      "numOfAddr": 39, 
      "lonmax": 4.041508867529174, 
      "latmin": 50.93326168232806
    }, 
    {
      "latmax": 50.94367337455444, 
      "name": "Majoor Charles Claserstraat", 
      "lonmin": 4.036594824337506, 
      "sanName": "majoorcharlesclaserstraat", 
      "numOfAddr": 18, 
      "lonmax": 4.038227374163405, 
      "latmin": 50.942913783101154
    }, 
    {
      "latmax": 50.92468503058193, 
      "name": "Marcel De Bisschopstraat", 
      "lonmin": 4.030609527863951, 
      "sanName": "marceldebisschopstraat", 
      "numOfAddr": 9, 
      "lonmax": 4.0309395824504675, 
      "latmin": 50.92203615777191
    }, 
    {
      "latmax": 50.963137670089715, 
      "name": "Marktweg", 
      "lonmin": 4.026174552569891, 
      "sanName": "marktweg", 
      "numOfAddr": 27, 
      "lonmax": 4.06195504097644, 
      "latmin": 50.9334771067198
    }, 
    {
      "latmax": 50.93900173988571, 
      "name": "Merestraat", 
      "lonmin": 4.014082495789609, 
      "sanName": "merestraat", 
      "numOfAddr": 111, 
      "lonmax": 4.02369906678818, 
      "latmin": 50.93488911941032
    }, 
    {
      "latmax": 50.94313343120429, 
      "name": "Meuleschettestraat", 
      "lonmin": 4.028759129118916, 
      "sanName": "meuleschettestraat", 
      "numOfAddr": 86, 
      "lonmax": 4.031108155311209, 
      "latmin": 50.94072113399381
    }, 
    {
      "latmax": 50.94786605709802, 
      "name": "Mijlbekelaan", 
      "lonmin": 4.052227200842926, 
      "sanName": "mijlbekelaan", 
      "numOfAddr": 28, 
      "lonmax": 4.055544826678614, 
      "latmin": 50.94555670291109
    }, 
    {
      "latmax": 50.937679349503796, 
      "name": "Molendreef", 
      "lonmin": 4.021705512154365, 
      "sanName": "molendreef", 
      "numOfAddr": 58, 
      "lonmax": 4.024263082459992, 
      "latmin": 50.9340757635432
    }, 
    {
      "latmax": 50.94197309263468, 
      "name": "Molendries", 
      "lonmin": 4.0437347114113615, 
      "sanName": "molendries", 
      "numOfAddr": 30, 
      "lonmax": 4.045040100291707, 
      "latmin": 50.94110987887255
    }, 
    {
      "latmax": 50.94002914987745, 
      "name": "Molenstraat", 
      "lonmin": 4.039668459624916, 
      "sanName": "molenstraat", 
      "numOfAddr": 85, 
      "lonmax": 4.043182602310109, 
      "latmin": 50.9384597014081
    }, 
    {
      "latmax": 50.946362561414745, 
      "name": "Moorselbaan", 
      "lonmin": 4.046156089642392, 
      "sanName": "moorselbaan", 
      "numOfAddr": 401, 
      "lonmax": 4.082826120551386, 
      "latmin": 50.9410449814349
    }, 
    {
      "latmax": 50.94256539357038, 
      "name": "Moutstraat", 
      "lonmin": 4.043203378830602, 
      "sanName": "moutstraat", 
      "numOfAddr": 14, 
      "lonmax": 4.043990412350091, 
      "latmin": 50.94125384306506
    }, 
    {
      "latmax": 50.94166398278568, 
      "name": "Naarstigheidstraat", 
      "lonmin": 4.0175466748867, 
      "sanName": "naarstigheidstraat", 
      "numOfAddr": 152, 
      "lonmax": 4.024310967355393, 
      "latmin": 50.93894033921625
    }, 
    {
      "latmax": 50.94866026944286, 
      "name": "Nedersteenberg", 
      "lonmin": 4.048218964524689, 
      "sanName": "nedersteenberg", 
      "numOfAddr": 23, 
      "lonmax": 4.049710211874372, 
      "latmin": 50.947748504409596
    }, 
    {
      "latmax": 50.939745701204984, 
      "name": "Nederveldstraat", 
      "lonmin": 4.06555799673027, 
      "sanName": "nederveldstraat", 
      "numOfAddr": 73, 
      "lonmax": 4.067726145843153, 
      "latmin": 50.93702777258601
    }, 
    {
      "latmax": 50.92963262082458, 
      "name": "Negen Dagwand", 
      "lonmin": 4.078792685912126, 
      "sanName": "negendagwand", 
      "numOfAddr": 19, 
      "lonmax": 4.081602847448154, 
      "latmin": 50.92823189193723
    }, 
    {
      "latmax": 50.9404411787288, 
      "name": "Nestor de Ti\u008arestraat", 
      "lonmin": 4.031596518695956, 
      "sanName": "nestordetirestraat", 
      "numOfAddr": 54, 
      "lonmax": 4.0339198352878585, 
      "latmin": 50.93967974622113
    }, 
    {
      "latmax": 50.93713103097601, 
      "name": "Nieuwbeekstraat", 
      "lonmin": 4.0286034458229505, 
      "sanName": "nieuwbeekstraat", 
      "numOfAddr": 147, 
      "lonmax": 4.0324653182555155, 
      "latmin": 50.933044927260305
    }, 
    {
      "latmax": 50.945976641330326, 
      "name": "Nieuwbrugstraat", 
      "lonmin": 4.039427515808767, 
      "sanName": "nieuwbrugstraat", 
      "numOfAddr": 9, 
      "lonmax": 4.040464714024793, 
      "latmin": 50.945702167388504
    }, 
    {
      "latmax": 50.939096220693294, 
      "name": "Nieuwstraat", 
      "lonmin": 4.034146189463413, 
      "sanName": "nieuwstraat", 
      "numOfAddr": 59, 
      "lonmax": 4.0380077119888815, 
      "latmin": 50.937934710376965
    }, 
    {
      "latmax": 50.9534213999684, 
      "name": "Noordstraat", 
      "lonmin": 4.042192111343992, 
      "sanName": "noordstraat", 
      "numOfAddr": 39, 
      "lonmax": 4.044151291427842, 
      "latmin": 50.95293721522752
    }, 
    {
      "latmax": 50.938936904157096, 
      "name": "Onderwijsstraat", 
      "lonmin": 4.041870656095241, 
      "sanName": "onderwijsstraat", 
      "numOfAddr": 3, 
      "lonmax": 4.042981485315163, 
      "latmin": 50.93822328110733
    }, 
    {
      "latmax": 50.95574828440243, 
      "name": "Onegem", 
      "lonmin": 4.009144767180799, 
      "sanName": "onegem", 
      "numOfAddr": 50, 
      "lonmax": 4.0163148615734565, 
      "latmin": 50.95226446254231
    }, 
    {
      "latmax": 50.942502880769474, 
      "name": "Onze Lieve Vrouwplein", 
      "lonmin": 4.052835845584727, 
      "sanName": "onzelievevrouwplein", 
      "numOfAddr": 21, 
      "lonmax": 4.054622874585615, 
      "latmin": 50.94164691285028
    }, 
    {
      "latmax": 50.93486147793898, 
      "name": "Onze Lieve Vrouwstraat", 
      "lonmin": 4.042683872350492, 
      "sanName": "onzelievevrouwstraat", 
      "numOfAddr": 5, 
      "lonmax": 4.043104335114036, 
      "latmin": 50.93463611540008
    }, 
    {
      "latmax": 50.93282741488542, 
      "name": "Osbroekstraat", 
      "lonmin": 4.041041848070917, 
      "sanName": "osbroekstraat", 
      "numOfAddr": 58, 
      "lonmax": 4.042560950044971, 
      "latmin": 50.93102637902686
    }, 
    {
      "latmax": 50.950622820100726, 
      "name": "Oscar Debunnestraat", 
      "lonmin": 4.065430934930471, 
      "sanName": "oscardebunnestraat", 
      "numOfAddr": 3, 
      "lonmax": 4.06878146052804, 
      "latmin": 50.947093845056656
    }, 
    {
      "latmax": 50.95471780983792, 
      "name": "Oude Abdijstraat", 
      "lonmin": 4.0675135730060905, 
      "sanName": "oudeabdijstraat", 
      "numOfAddr": 34, 
      "lonmax": 4.06906473266959, 
      "latmin": 50.952173387747806
    }, 
    {
      "latmax": 50.944070541676055, 
      "name": "Oude Gentbaan", 
      "lonmin": 3.998334649043737, 
      "sanName": "oudegentbaan", 
      "numOfAddr": 166, 
      "lonmax": 4.018439299456498, 
      "latmin": 50.93982995379483
    }, 
    {
      "latmax": 50.94112398022608, 
      "name": "Oude Heerbaan", 
      "lonmin": 3.997477254212749, 
      "sanName": "oudeheerbaan", 
      "numOfAddr": 16, 
      "lonmax": 4.000805575562574, 
      "latmin": 50.94025655991124
    }, 
    {
      "latmax": 50.92720017569696, 
      "name": "Ouden Aardeweg", 
      "lonmin": 4.068142701597096, 
      "sanName": "oudenaardeweg", 
      "numOfAddr": 28, 
      "lonmax": 4.070348606895456, 
      "latmin": 50.925999771452894
    }, 
    {
      "latmax": 50.96125227954032, 
      "name": "Ouden Dendermondse steenweg", 
      "lonmin": 4.045844846471319, 
      "sanName": "oudendendermondsesteenweg", 
      "numOfAddr": 283, 
      "lonmax": 4.059863494740576, 
      "latmin": 50.94859349191519
    }, 
    {
      "latmax": 50.938327945532194, 
      "name": "Oude Vismarkt", 
      "lonmin": 4.042024195309835, 
      "sanName": "oudevismarkt", 
      "numOfAddr": 8, 
      "lonmax": 4.042985856413314, 
      "latmin": 50.93748973717198
    }, 
    {
      "latmax": 50.942738631553446, 
      "name": "Oude Watermolen", 
      "lonmin": 4.062004488044538, 
      "sanName": "oudewatermolen", 
      "numOfAddr": 1, 
      "lonmax": 4.062004488044538, 
      "latmin": 50.942738631553446
    }, 
    {
      "latmax": 50.939046714848665, 
      "name": "Oudstrijdersplein", 
      "lonmin": 4.034396225973921, 
      "sanName": "oudstrijdersplein", 
      "numOfAddr": 4, 
      "lonmax": 4.034483907793077, 
      "latmin": 50.93886088399331
    }, 
    {
      "latmax": 50.930028716840006, 
      "name": "Overhammedreef", 
      "lonmin": 4.056283115562594, 
      "sanName": "overhammedreef", 
      "numOfAddr": 15, 
      "lonmax": 4.061159370824724, 
      "latmin": 50.9283930642517
    }, 
    {
      "latmax": 50.927985291967474, 
      "name": "Overhammekouter", 
      "lonmin": 4.064736534532918, 
      "sanName": "overhammekouter", 
      "numOfAddr": 17, 
      "lonmax": 4.066390847996853, 
      "latmin": 50.92713651280386
    }, 
    {
      "latmax": 50.9473791015901, 
      "name": "Paardendries", 
      "lonmin": 4.063666506752593, 
      "sanName": "paardendries", 
      "numOfAddr": 37, 
      "lonmax": 4.0664530283988425, 
      "latmin": 50.94496440302465
    }, 
    {
      "latmax": 50.94390864492937, 
      "name": "Paddenhoek", 
      "lonmin": 4.0091017536886815, 
      "sanName": "paddenhoek", 
      "numOfAddr": 14, 
      "lonmax": 4.011608470614535, 
      "latmin": 50.94227279754787
    }, 
    {
      "latmax": 50.949407136905215, 
      "name": "Paddenvijverstraat", 
      "lonmin": 4.078415940768901, 
      "sanName": "paddenvijverstraat", 
      "numOfAddr": 43, 
      "lonmax": 4.081627186886989, 
      "latmin": 50.94631909964938
    }, 
    {
      "latmax": 50.95273846095121, 
      "name": "Park De Blieck", 
      "lonmin": 4.043768209333117, 
      "sanName": "parkdeblieck", 
      "numOfAddr": 44, 
      "lonmax": 4.046340348103232, 
      "latmin": 50.95143085965703
    }, 
    {
      "latmax": 50.932861920333465, 
      "name": "Parklaan", 
      "lonmin": 4.0352234567431005, 
      "sanName": "parklaan", 
      "numOfAddr": 134, 
      "lonmax": 4.04556106379228, 
      "latmin": 50.92759903608951
    }, 
    {
      "latmax": 50.944611782948684, 
      "name": "Park Terlinden", 
      "lonmin": 4.01386781746348, 
      "sanName": "parkterlinden", 
      "numOfAddr": 2, 
      "lonmax": 4.015469754461622, 
      "latmin": 50.944030388802545
    }, 
    {
      "latmax": 50.93916362866294, 
      "name": "Passage Pieter van Aelst", 
      "lonmin": 4.036835702550919, 
      "sanName": "passagepietervanaelst", 
      "numOfAddr": 2, 
      "lonmax": 4.0370210727539995, 
      "latmin": 50.93912139570878
    }, 
    {
      "latmax": 50.940146103122466, 
      "name": "Pastoor Lauwereysstraat", 
      "lonmin": 4.051297495756707, 
      "sanName": "pastoorlauwereysstraat", 
      "numOfAddr": 30, 
      "lonmax": 4.052146734805599, 
      "latmin": 50.9396832182321
    }, 
    {
      "latmax": 50.94477976862166, 
      "name": "Paternosterstraat", 
      "lonmin": 4.000387913056579, 
      "sanName": "paternosterstraat", 
      "numOfAddr": 16, 
      "lonmax": 4.004138066200932, 
      "latmin": 50.94359920963369
    }, 
    {
      "latmax": 50.94081631009702, 
      "name": "Peperstraat", 
      "lonmin": 4.037310702697201, 
      "sanName": "peperstraat", 
      "numOfAddr": 18, 
      "lonmax": 4.038198508206502, 
      "latmin": 50.93994722046768
    }, 
    {
      "latmax": 50.94554367341132, 
      "name": "Peter Benoitstraat", 
      "lonmin": 4.0316622878870545, 
      "sanName": "peterbenoitstraat", 
      "numOfAddr": 24, 
      "lonmax": 4.032937752725261, 
      "latmin": 50.94453464958849
    }, 
    {
      "latmax": 50.95009187485962, 
      "name": "Petrus Van Nuffelstraat", 
      "lonmin": 4.055605460547838, 
      "sanName": "petrusvannuffelstraat", 
      "numOfAddr": 48, 
      "lonmax": 4.057647691885463, 
      "latmin": 50.94848298356886
    }, 
    {
      "latmax": 50.94863600880234, 
      "name": "Pierre Corneliskaai", 
      "lonmin": 4.038208122969479, 
      "sanName": "pierrecorneliskaai", 
      "numOfAddr": 18, 
      "lonmax": 4.042232426566489, 
      "latmin": 50.942852703826695
    }, 
    {
      "latmax": 50.944249034856725, 
      "name": "Pieter Coeckestraat", 
      "lonmin": 4.031737848602886, 
      "sanName": "pietercoeckestraat", 
      "numOfAddr": 86, 
      "lonmax": 4.034752018680193, 
      "latmin": 50.94254912775071
    }, 
    {
      "latmax": 50.94629727587693, 
      "name": "Pieter Daensstraat", 
      "lonmin": 4.046190721489012, 
      "sanName": "pieterdaensstraat", 
      "numOfAddr": 23, 
      "lonmax": 4.04812509369994, 
      "latmin": 50.94559253467697
    }, 
    {
      "latmax": 50.95151321059791, 
      "name": "Pieter De Bruynestraat", 
      "lonmin": 4.049369009484384, 
      "sanName": "pieterdebruynestraat", 
      "numOfAddr": 54, 
      "lonmax": 4.052465208497135, 
      "latmin": 50.950064584545295
    }, 
    {
      "latmax": 50.94729656280937, 
      "name": "Politieke Gevangenenstraat", 
      "lonmin": 4.047060607677445, 
      "sanName": "politiekegevangenenstraat", 
      "numOfAddr": 14, 
      "lonmax": 4.0481553422418735, 
      "latmin": 50.94662347627184
    }, 
    {
      "latmax": 50.94668626561146, 
      "name": "Polydoor De Paepestraat", 
      "lonmin": 4.048024200040474, 
      "sanName": "polydoordepaepestraat", 
      "numOfAddr": 31, 
      "lonmax": 4.0488446559406945, 
      "latmin": 50.945310459179005
    }, 
    {
      "latmax": 50.93756568240052, 
      "name": "Pontstraat", 
      "lonmin": 4.04122350348319, 
      "sanName": "pontstraat", 
      "numOfAddr": 55, 
      "lonmax": 4.0441016107945025, 
      "latmin": 50.93509472220673
    }, 
    {
      "latmax": 50.95413058078725, 
      "name": "Popperodedries", 
      "lonmin": 4.045039352809512, 
      "sanName": "popperodedries", 
      "numOfAddr": 68, 
      "lonmax": 4.04987002994547, 
      "latmin": 50.95221668689529
    }, 
    {
      "latmax": 50.93712985348703, 
      "name": "Posthoornstraat", 
      "lonmin": 4.024814996557267, 
      "sanName": "posthoornstraat", 
      "numOfAddr": 93, 
      "lonmax": 4.027174295891588, 
      "latmin": 50.93460302020603
    }, 
    {
      "latmax": 50.93235122900357, 
      "name": "Potaardestraat", 
      "lonmin": 4.074580482826129, 
      "sanName": "potaardestraat", 
      "numOfAddr": 9, 
      "lonmax": 4.075369861701347, 
      "latmin": 50.9319768540797
    }, 
    {
      "latmax": 50.937844023264155, 
      "name": "Priester Daensplein", 
      "lonmin": 4.040136646296468, 
      "sanName": "priesterdaensplein", 
      "numOfAddr": 6, 
      "lonmax": 4.04028056591351, 
      "latmin": 50.937537151306
    }, 
    {
      "latmax": 50.951902466103476, 
      "name": "Prinsenveld", 
      "lonmin": 4.046048597512968, 
      "sanName": "prinsenveld", 
      "numOfAddr": 18, 
      "lonmax": 4.047118822375388, 
      "latmin": 50.951320814264754
    }, 
    {
      "latmax": 50.93345143911914, 
      "name": "Putbosstraat", 
      "lonmin": 4.075108917099851, 
      "sanName": "putbosstraat", 
      "numOfAddr": 16, 
      "lonmax": 4.076409500516515, 
      "latmin": 50.932192122620314
    }, 
    {
      "latmax": 50.94476165726381, 
      "name": "Raffelgemstraat", 
      "lonmin": 4.013993510390581, 
      "sanName": "raffelgemstraat", 
      "numOfAddr": 43, 
      "lonmax": 4.017619511316184, 
      "latmin": 50.94185152226571
    }, 
    {
      "latmax": 50.9441760568721, 
      "name": "Rapenstraat", 
      "lonmin": 4.048852191140093, 
      "sanName": "rapenstraat", 
      "numOfAddr": 29, 
      "lonmax": 4.04958689082344, 
      "latmin": 50.94342020089751
    }, 
    {
      "latmax": 50.953405627622324, 
      "name": "Rederijkersplein", 
      "lonmin": 4.044200714225131, 
      "sanName": "rederijkersplein", 
      "numOfAddr": 19, 
      "lonmax": 4.045626978989483, 
      "latmin": 50.952767051831074
    }, 
    {
      "latmax": 50.93765551287124, 
      "name": "Regelsbruggestraat", 
      "lonmin": 4.023725497232945, 
      "sanName": "regelsbruggestraat", 
      "numOfAddr": 93, 
      "lonmax": 4.0259728892779165, 
      "latmin": 50.93420101283277
    }, 
    {
      "latmax": 50.94397588945497, 
      "name": "Reinaertdreef", 
      "lonmin": 4.0006775193018, 
      "sanName": "reinaertdreef", 
      "numOfAddr": 18, 
      "lonmax": 4.001750600961963, 
      "latmin": 50.943204965036266
    }, 
    {
      "latmax": 50.92946859881108, 
      "name": "Rerum Novarumstraat", 
      "lonmin": 4.069304216519036, 
      "sanName": "rerumnovarumstraat", 
      "numOfAddr": 14, 
      "lonmax": 4.070583096062013, 
      "latmin": 50.92807039365248
    }, 
    {
      "latmax": 50.941918314499226, 
      "name": "Roklijf", 
      "lonmin": 4.017225968417198, 
      "sanName": "roklijf", 
      "numOfAddr": 48, 
      "lonmax": 4.019511562901614, 
      "latmin": 50.94024775939397
    }, 
    {
      "latmax": 50.93869829630633, 
      "name": "Rozemarijnstraat", 
      "lonmin": 4.0404064479370465, 
      "sanName": "rozemarijnstraat", 
      "numOfAddr": 11, 
      "lonmax": 4.040705658008202, 
      "latmin": 50.9383056550798
    }, 
    {
      "latmax": 50.95503256372253, 
      "name": "Rozendreef", 
      "lonmin": 4.055620957603774, 
      "sanName": "rozendreef", 
      "numOfAddr": 108, 
      "lonmax": 4.077759343149533, 
      "latmin": 50.9478293290483
    }, 
    {
      "latmax": 50.94711372722508, 
      "name": "Rozenweg", 
      "lonmin": 4.053870128760456, 
      "sanName": "rozenweg", 
      "numOfAddr": 30, 
      "lonmax": 4.05582060511088, 
      "latmin": 50.94631532825289
    }, 
    {
      "latmax": 50.94249757745614, 
      "name": "Rustoordstraat", 
      "lonmin": 4.062866833156831, 
      "sanName": "rustoordstraat", 
      "numOfAddr": 23, 
      "lonmax": 4.063765405622939, 
      "latmin": 50.941395967891935
    }, 
    {
      "latmax": 50.95408851121164, 
      "name": "Salaartsbos", 
      "lonmin": 4.0597526614165576, 
      "sanName": "salaartsbos", 
      "numOfAddr": 14, 
      "lonmax": 4.0611959613136275, 
      "latmin": 50.95326229824024
    }, 
    {
      "latmax": 50.95658070298217, 
      "name": "Schabbekensstraat", 
      "lonmin": 4.062205353226308, 
      "sanName": "schabbekensstraat", 
      "numOfAddr": 20, 
      "lonmax": 4.063357217668946, 
      "latmin": 50.95582551805344
    }, 
    {
      "latmax": 50.94294812198031, 
      "name": "Schendelbeekhofstraat", 
      "lonmin": 4.057462066471641, 
      "sanName": "schendelbeekhofstraat", 
      "numOfAddr": 35, 
      "lonmax": 4.059381376176665, 
      "latmin": 50.941704611804596
    }, 
    {
      "latmax": 50.93374505271375, 
      "name": "Scherreveldstraat", 
      "lonmin": 4.041562066377481, 
      "sanName": "scherreveldstraat", 
      "numOfAddr": 54, 
      "lonmax": 4.043607537202187, 
      "latmin": 50.93311601408727
    }, 
    {
      "latmax": 50.928122934404705, 
      "name": "Schietbaan", 
      "lonmin": 4.067332488481504, 
      "sanName": "schietbaan", 
      "numOfAddr": 63, 
      "lonmax": 4.071800569527912, 
      "latmin": 50.9275458041558
    }, 
    {
      "latmax": 50.937593975866555, 
      "name": "Siesegemlaan", 
      "lonmin": 4.015941570399934, 
      "sanName": "siesegemlaan", 
      "numOfAddr": 2, 
      "lonmax": 4.015983166841395, 
      "latmin": 50.93743051427843
    }, 
    {
      "latmax": 50.94330660786904, 
      "name": "Sinte Annalaan", 
      "lonmin": 4.023851165553805, 
      "sanName": "sinteannalaan", 
      "numOfAddr": 142, 
      "lonmax": 4.0287358469279395, 
      "latmin": 50.93829969672037
    }, 
    {
      "latmax": 50.94744210749285, 
      "name": "Sinte Apoloniastraat", 
      "lonmin": 4.002284185044959, 
      "sanName": "sinteapoloniastraat", 
      "numOfAddr": 71, 
      "lonmax": 4.01186010090159, 
      "latmin": 50.941836790595985
    }, 
    {
      "latmax": 50.95684582989039, 
      "name": "Sinte-Barbarastraat", 
      "lonmin": 4.059585577285463, 
      "sanName": "sintebarbarastraat", 
      "numOfAddr": 41, 
      "lonmax": 4.063763820120845, 
      "latmin": 50.9553409976506
    }, 
    {
      "latmax": 50.94559299424962, 
      "name": "Sinte Gudulastraat", 
      "lonmin": 4.045687734326494, 
      "sanName": "sintegudulastraat", 
      "numOfAddr": 56, 
      "lonmax": 4.049247216105721, 
      "latmin": 50.94498551102314
    }, 
    {
      "latmax": 50.9563296790747, 
      "name": "Sint-Hubertusstraat", 
      "lonmin": 4.063076122820397, 
      "sanName": "sinthubertusstraat", 
      "numOfAddr": 16, 
      "lonmax": 4.0642256069396145, 
      "latmin": 50.95557223072795
    }, 
    {
      "latmax": 50.934158614869176, 
      "name": "Sint Janstraat", 
      "lonmin": 4.0427750588997595, 
      "sanName": "sintjanstraat", 
      "numOfAddr": 57, 
      "lonmax": 4.044764377951858, 
      "latmin": 50.93295089593929
    }, 
    {
      "latmax": 50.93418069813497, 
      "name": "Sint Jobstraat", 
      "lonmin": 4.0242898245921035, 
      "sanName": "sintjobstraat", 
      "numOfAddr": 183, 
      "lonmax": 4.036619892667252, 
      "latmin": 50.931020275191855
    }, 
    {
      "latmax": 50.937397276883424, 
      "name": "Sint Jorisstraat", 
      "lonmin": 4.037881426802754, 
      "sanName": "sintjorisstraat", 
      "numOfAddr": 26, 
      "lonmax": 4.039070484008761, 
      "latmin": 50.93703714940914
    }, 
    {
      "latmax": 50.94160112616943, 
      "name": "Sint Jozefstraat", 
      "lonmin": 4.032394714465701, 
      "sanName": "sintjozefstraat", 
      "numOfAddr": 22, 
      "lonmax": 4.033604210260557, 
      "latmin": 50.940511725063
    }, 
    {
      "latmax": 50.93400230921492, 
      "name": "Sint Kamielstraat", 
      "lonmin": 4.037231895351275, 
      "sanName": "sintkamielstraat", 
      "numOfAddr": 76, 
      "lonmax": 4.0416245336702605, 
      "latmin": 50.93298321295054
    }, 
    {
      "latmax": 50.93828492431979, 
      "name": "Sint Martensplein", 
      "lonmin": 4.040693208756441, 
      "sanName": "sintmartensplein", 
      "numOfAddr": 8, 
      "lonmax": 4.041867120944541, 
      "latmin": 50.93785833641445
    }, 
    {
      "latmax": 50.94999242112853, 
      "name": "Sint Ursmaarstraat", 
      "lonmin": 4.056603444330068, 
      "sanName": "sintursmaarstraat", 
      "numOfAddr": 14, 
      "lonmax": 4.057646002929388, 
      "latmin": 50.949260676970965
    }, 
    {
      "latmax": 50.94294221723135, 
      "name": "Sint Vincentiusstraat", 
      "lonmin": 4.050052133254426, 
      "sanName": "sintvincentiusstraat", 
      "numOfAddr": 46, 
      "lonmax": 4.0514091196517965, 
      "latmin": 50.94185952663473
    }, 
    {
      "latmax": 50.94300931309433, 
      "name": "Slotstraat", 
      "lonmin": 4.04732900786838, 
      "sanName": "slotstraat", 
      "numOfAddr": 64, 
      "lonmax": 4.050181848968136, 
      "latmin": 50.94232785823364
    }, 
    {
      "latmax": 50.93770335308038, 
      "name": "Sluierstraat", 
      "lonmin": 4.039820409068043, 
      "sanName": "sluierstraat", 
      "numOfAddr": 6, 
      "lonmax": 4.040052471710091, 
      "latmin": 50.93755584442743
    }, 
    {
      "latmax": 50.93464372545699, 
      "name": "Sluisken", 
      "lonmin": 4.0239594614549725, 
      "sanName": "sluisken", 
      "numOfAddr": 28, 
      "lonmax": 4.02577112396551, 
      "latmin": 50.9341288235323
    }, 
    {
      "latmax": 50.932898525251915, 
      "name": "Snoekstraat", 
      "lonmin": 4.073182576194946, 
      "sanName": "snoekstraat", 
      "numOfAddr": 18, 
      "lonmax": 4.075454473883582, 
      "latmin": 50.93185037216363
    }, 
    {
      "latmax": 50.94149591602164, 
      "name": "Spaarzaamheidstraat", 
      "lonmin": 4.020976878014129, 
      "sanName": "spaarzaamheidstraat", 
      "numOfAddr": 82, 
      "lonmax": 4.025243658067968, 
      "latmin": 50.93987876475606
    }, 
    {
      "latmax": 50.94917235146214, 
      "name": "Spinnerstraat", 
      "lonmin": 4.031424873349098, 
      "sanName": "spinnerstraat", 
      "numOfAddr": 11, 
      "lonmax": 4.0322818636981035, 
      "latmin": 50.948874746107656
    }, 
    {
      "latmax": 50.947017954054076, 
      "name": "Spoelstraat", 
      "lonmin": 4.051868757847108, 
      "sanName": "spoelstraat", 
      "numOfAddr": 15, 
      "lonmax": 4.05271001580208, 
      "latmin": 50.946269939490186
    }, 
    {
      "latmax": 50.94147078474679, 
      "name": "Square Jacques Geerinckx", 
      "lonmin": 4.016211031850002, 
      "sanName": "squarejacquesgeerinckx", 
      "numOfAddr": 2, 
      "lonmax": 4.016582024861118, 
      "latmin": 50.94077854512953
    }, 
    {
      "latmax": 50.94309164354615, 
      "name": "Statieplein", 
      "lonmin": 4.0380244398650715, 
      "sanName": "statieplein", 
      "numOfAddr": 12, 
      "lonmax": 4.039609031930847, 
      "latmin": 50.942044997332786
    }, 
    {
      "latmax": 50.94228871921853, 
      "name": "Stationsstraat", 
      "lonmin": 4.036668655848948, 
      "sanName": "stationsstraat", 
      "numOfAddr": 34, 
      "lonmax": 4.038710432457908, 
      "latmin": 50.941073606715705
    }, 
    {
      "latmax": 50.93606286945628, 
      "name": "Steenland", 
      "lonmin": 4.069590665588494, 
      "sanName": "steenland", 
      "numOfAddr": 24, 
      "lonmax": 4.072411431686602, 
      "latmin": 50.93437468907967
    }, 
    {
      "latmax": 50.94053020416043, 
      "name": "Steenstraat", 
      "lonmin": 4.026377260472489, 
      "sanName": "steenstraat", 
      "numOfAddr": 36, 
      "lonmax": 4.028015617272272, 
      "latmin": 50.93982984764216
    }, 
    {
      "latmax": 50.932675791949535, 
      "name": "Stefaan De Jonghestraat", 
      "lonmin": 4.033029146688777, 
      "sanName": "stefaandejonghestraat", 
      "numOfAddr": 53, 
      "lonmax": 4.036085841858293, 
      "latmin": 50.931728657475865
    }, 
    {
      "latmax": 50.9354785303744, 
      "name": "Sterherenstraat", 
      "lonmin": 4.04430027417889, 
      "sanName": "sterherenstraat", 
      "numOfAddr": 3, 
      "lonmax": 4.044476638359738, 
      "latmin": 50.93534868760965
    }, 
    {
      "latmax": 50.93763981310636, 
      "name": "Stoofstraat", 
      "lonmin": 4.0416682382369045, 
      "sanName": "stoofstraat", 
      "numOfAddr": 16, 
      "lonmax": 4.042535746829652, 
      "latmin": 50.93719975680576
    }, 
    {
      "latmax": 50.94310886452742, 
      "name": "Sylvain Van Der Guchtlaan", 
      "lonmin": 4.010652690737007, 
      "sanName": "sylvainvanderguchtlaan", 
      "numOfAddr": 17, 
      "lonmax": 4.015220973457775, 
      "latmin": 50.94152436365645
    }, 
    {
      "latmax": 50.93845180498619, 
      "name": "Ten Berg", 
      "lonmin": 4.062368194012366, 
      "sanName": "tenberg", 
      "numOfAddr": 80, 
      "lonmax": 4.0664202066006405, 
      "latmin": 50.93372389818721
    }, 
    {
      "latmax": 50.94239539941928, 
      "name": "Terlindendreef", 
      "lonmin": 4.015169813798243, 
      "sanName": "terlindendreef", 
      "numOfAddr": 3, 
      "lonmax": 4.015921269181203, 
      "latmin": 50.940381664197304
    }, 
    {
      "latmax": 50.94285717931252, 
      "name": "Terlindenstraat", 
      "lonmin": 4.017287727804514, 
      "sanName": "terlindenstraat", 
      "numOfAddr": 21, 
      "lonmax": 4.018496439602799, 
      "latmin": 50.94227929620683
    }, 
    {
      "latmax": 50.9493876578464, 
      "name": "Tiende Vrijstraat", 
      "lonmin": 4.0647902141033345, 
      "sanName": "tiendevrijstraat", 
      "numOfAddr": 61, 
      "lonmax": 4.066969281073981, 
      "latmin": 50.9476722395932
    }, 
    {
      "latmax": 50.94162980633551, 
      "name": "'t Klein Eeckhout", 
      "lonmin": 4.067371053408116, 
      "sanName": "tkleineeckhout", 
      "numOfAddr": 1, 
      "lonmax": 4.067371053408116, 
      "latmin": 50.94162980633551
    }, 
    {
      "latmax": 50.953679140919995, 
      "name": "Tragel", 
      "lonmin": 4.034674716131077, 
      "sanName": "tragel", 
      "numOfAddr": 13, 
      "lonmax": 4.0382385622048895, 
      "latmin": 50.94550938631098
    }, 
    {
      "latmax": 50.94584505672265, 
      "name": "Tramstraat", 
      "lonmin": 4.039887799929385, 
      "sanName": "tramstraat", 
      "numOfAddr": 10, 
      "lonmax": 4.040386254323495, 
      "latmin": 50.94548394246239
    }, 
    {
      "latmax": 50.94074604935003, 
      "name": "Treinstraat", 
      "lonmin": 4.043963669161045, 
      "sanName": "treinstraat", 
      "numOfAddr": 13, 
      "lonmax": 4.0456907125619574, 
      "latmin": 50.940075249730235
    }, 
    {
      "latmax": 50.95638326413198, 
      "name": "'t Spieken", 
      "lonmin": 4.064563542110183, 
      "sanName": "tspieken", 
      "numOfAddr": 21, 
      "lonmax": 4.066449929143726, 
      "latmin": 50.95505045845446
    }, 
    {
      "latmax": 50.9487384362436, 
      "name": "Tulpstraat", 
      "lonmin": 4.044848258924583, 
      "sanName": "tulpstraat", 
      "numOfAddr": 26, 
      "lonmax": 4.045779817191441, 
      "latmin": 50.94794810352635
    }, 
    {
      "latmax": 50.945121303837304, 
      "name": "Twee Hagenstraat", 
      "lonmin": 4.049657966872286, 
      "sanName": "tweehagenstraat", 
      "numOfAddr": 31, 
      "lonmax": 4.051488626532656, 
      "latmin": 50.944096063327216
    }, 
    {
      "latmax": 50.94988074678458, 
      "name": "Twijnderstraat", 
      "lonmin": 4.031156737979102, 
      "sanName": "twijnderstraat", 
      "numOfAddr": 22, 
      "lonmax": 4.03193731378229, 
      "latmin": 50.94932719430695
    }, 
    {
      "latmax": 50.941149937706484, 
      "name": "Vaartstraat", 
      "lonmin": 4.040208722993793, 
      "sanName": "vaartstraat", 
      "numOfAddr": 9, 
      "lonmax": 4.042258654059061, 
      "latmin": 50.94042903253753
    }, 
    {
      "latmax": 50.94136696246955, 
      "name": "Vakschoolstraat", 
      "lonmin": 4.027385035458982, 
      "sanName": "vakschoolstraat", 
      "numOfAddr": 48, 
      "lonmax": 4.029049181606637, 
      "latmin": 50.940123554513264
    }, 
    {
      "latmax": 50.94510251132135, 
      "name": "Valerius De Saedeleerstraat", 
      "lonmin": 4.028985730611166, 
      "sanName": "valeriusdesaedeleerstraat", 
      "numOfAddr": 106, 
      "lonmax": 4.03394721712132, 
      "latmin": 50.94318844906302
    }, 
    {
      "latmax": 50.944328068252894, 
      "name": "Van Geemstraatje", 
      "lonmin": 4.035195184125145, 
      "sanName": "vangeemstraatje", 
      "numOfAddr": 2, 
      "lonmax": 4.0358727220483495, 
      "latmin": 50.94403351657441
    }, 
    {
      "latmax": 50.93450934439032, 
      "name": "Van Langenhovestraat", 
      "lonmin": 4.044423054552512, 
      "sanName": "vanlangenhovestraat", 
      "numOfAddr": 10, 
      "lonmax": 4.044996568781787, 
      "latmin": 50.93401705050541
    }, 
    {
      "latmax": 50.93964586892221, 
      "name": "Van Wambekekaai", 
      "lonmin": 4.043973261509588, 
      "sanName": "vanwambekekaai", 
      "numOfAddr": 1, 
      "lonmax": 4.043973261509588, 
      "latmin": 50.93964586892221
    }, 
    {
      "latmax": 50.94692747239612, 
      "name": "Varenlaan", 
      "lonmin": 4.029727268040906, 
      "sanName": "varenlaan", 
      "numOfAddr": 21, 
      "lonmax": 4.033858642412987, 
      "latmin": 50.945128192512286
    }, 
    {
      "latmax": 50.94201006579431, 
      "name": "Varkensmarkt", 
      "lonmin": 4.043943556585168, 
      "sanName": "varkensmarkt", 
      "numOfAddr": 10, 
      "lonmax": 4.044803346498588, 
      "latmin": 50.94170075273729
    }, 
    {
      "latmax": 50.942850469321414, 
      "name": "Veldstraat", 
      "lonmin": 4.03524663835874, 
      "sanName": "veldstraat", 
      "numOfAddr": 14, 
      "lonmax": 4.03626707878167, 
      "latmin": 50.942413125853854
    }, 
    {
      "latmax": 50.93976733338092, 
      "name": "Verastenstraat", 
      "lonmin": 4.025699723935955, 
      "sanName": "verastenstraat", 
      "numOfAddr": 22, 
      "lonmax": 4.026742089480095, 
      "latmin": 50.939212523503414
    }, 
    {
      "latmax": 50.95144313799894, 
      "name": "Verbrandhofstraat", 
      "lonmin": 4.039897359560878, 
      "sanName": "verbrandhofstraat", 
      "numOfAddr": 53, 
      "lonmax": 4.04167683949864, 
      "latmin": 50.94819557447883
    }, 
    {
      "latmax": 50.9541295256387, 
      "name": "Victor Bocqu\u0082straat", 
      "lonmin": 4.038507053132063, 
      "sanName": "victorbocqustraat", 
      "numOfAddr": 10, 
      "lonmax": 4.038651881284562, 
      "latmin": 50.95203577677416
    }, 
    {
      "latmax": 50.9462066793093, 
      "name": "Vilainstraat", 
      "lonmin": 4.027657578470868, 
      "sanName": "vilainstraat", 
      "numOfAddr": 49, 
      "lonmax": 4.031487730242035, 
      "latmin": 50.94444293607168
    }, 
    {
      "latmax": 50.94364124193004, 
      "name": "Violettestraat", 
      "lonmin": 4.0434151160191245, 
      "sanName": "violettestraat", 
      "numOfAddr": 22, 
      "lonmax": 4.044388234060076, 
      "latmin": 50.94334230259602
    }, 
    {
      "latmax": 50.93825088945656, 
      "name": "Vlaanderenstraat", 
      "lonmin": 4.031792787380522, 
      "sanName": "vlaanderenstraat", 
      "numOfAddr": 24, 
      "lonmax": 4.03352503377043, 
      "latmin": 50.937681534907824
    }, 
    {
      "latmax": 50.94026840426276, 
      "name": "Volksplaats", 
      "lonmin": 4.022945989492547, 
      "sanName": "volksplaats", 
      "numOfAddr": 16, 
      "lonmax": 4.024186193120471, 
      "latmin": 50.93968464315702
    }, 
    {
      "latmax": 50.94245957037647, 
      "name": "Volksverheffingstraat", 
      "lonmin": 4.020742522977403, 
      "sanName": "volksverheffingstraat", 
      "numOfAddr": 109, 
      "lonmax": 4.025097138056295, 
      "latmin": 50.939128658560655
    }, 
    {
      "latmax": 50.942869355498786, 
      "name": "Vooruitgangstraat", 
      "lonmin": 4.037239802418951, 
      "sanName": "vooruitgangstraat", 
      "numOfAddr": 17, 
      "lonmax": 4.038190385480924, 
      "latmin": 50.94237456152588
    }, 
    {
      "latmax": 50.94224916052657, 
      "name": "Vooruitzichtstraat", 
      "lonmin": 4.0221998884652095, 
      "sanName": "vooruitzichtstraat", 
      "numOfAddr": 89, 
      "lonmax": 4.025930737271748, 
      "latmin": 50.94065932509439
    }, 
    {
      "latmax": 50.93897987563073, 
      "name": "Vredeplein", 
      "lonmin": 4.033238051519377, 
      "sanName": "vredeplein", 
      "numOfAddr": 8, 
      "lonmax": 4.034096874369298, 
      "latmin": 50.93845731430087
    }, 
    {
      "latmax": 50.94085845765194, 
      "name": "Vrijheidstraat", 
      "lonmin": 4.0324774556936855, 
      "sanName": "vrijheidstraat", 
      "numOfAddr": 52, 
      "lonmax": 4.035890738724664, 
      "latmin": 50.938631674744855
    }, 
    {
      "latmax": 50.94535641390683, 
      "name": "Wagenstraat", 
      "lonmin": 4.000961235423279, 
      "sanName": "wagenstraat", 
      "numOfAddr": 6, 
      "lonmax": 4.002160981300429, 
      "latmin": 50.94491048596876
    }, 
    {
      "latmax": 50.94495193537346, 
      "name": "Wateringen", 
      "lonmin": 4.01184819256514, 
      "sanName": "wateringen", 
      "numOfAddr": 28, 
      "lonmax": 4.013800393042308, 
      "latmin": 50.942608883804255
    }, 
    {
      "latmax": 50.93311857126308, 
      "name": "Watertorenstraat", 
      "lonmin": 4.0385515544622805, 
      "sanName": "watertorenstraat", 
      "numOfAddr": 64, 
      "lonmax": 4.0417810521196085, 
      "latmin": 50.93193698093825
    }, 
    {
      "latmax": 50.93962946283849, 
      "name": "Weggevoerdenstraat", 
      "lonmin": 4.02870906303853, 
      "sanName": "weggevoerdenstraat", 
      "numOfAddr": 32, 
      "lonmax": 4.0304899429285435, 
      "latmin": 50.93843836034288
    }, 
    {
      "latmax": 50.943861432981194, 
      "name": "Wellekensstraat", 
      "lonmin": 4.0304217386742485, 
      "sanName": "wellekensstraat", 
      "numOfAddr": 64, 
      "lonmax": 4.032260174871362, 
      "latmin": 50.94175926006142
    }, 
    {
      "latmax": 50.944541919674705, 
      "name": "Welvaartstraat", 
      "lonmin": 4.0184894265927795, 
      "sanName": "welvaartstraat", 
      "numOfAddr": 158, 
      "lonmax": 4.027754125065316, 
      "latmin": 50.93953900347071
    }, 
    {
      "latmax": 50.941220759120775, 
      "name": "Werf", 
      "lonmin": 4.041456958721854, 
      "sanName": "werf", 
      "numOfAddr": 10, 
      "lonmax": 4.043142280919433, 
      "latmin": 50.9398230018458
    }, 
    {
      "latmax": 50.94877670931743, 
      "name": "Weverijstraat", 
      "lonmin": 4.040704168017133, 
      "sanName": "weverijstraat", 
      "numOfAddr": 54, 
      "lonmax": 4.043977988616358, 
      "latmin": 50.94776286459878
    }, 
    {
      "latmax": 50.94072996614125, 
      "name": "Wijngaardstraat", 
      "lonmin": 4.060750525258259, 
      "sanName": "wijngaardstraat", 
      "numOfAddr": 52, 
      "lonmax": 4.063960256844799, 
      "latmin": 50.93925217205267
    }, 
    {
      "latmax": 50.964859485888475, 
      "name": "Wijngaardveld", 
      "lonmin": 4.039009669913518, 
      "sanName": "wijngaardveld", 
      "numOfAddr": 42, 
      "lonmax": 4.0553262317988485, 
      "latmin": 50.95343030677951
    }, 
    {
      "latmax": 50.93506841134758, 
      "name": "Windmolenstraat", 
      "lonmin": 4.040457503850004, 
      "sanName": "windmolenstraat", 
      "numOfAddr": 36, 
      "lonmax": 4.041850941124613, 
      "latmin": 50.934589402358974
    }, 
    {
      "latmax": 50.93765263818842, 
      "name": "Withuisstraat", 
      "lonmin": 4.031262642224273, 
      "sanName": "withuisstraat", 
      "numOfAddr": 27, 
      "lonmax": 4.032025038820806, 
      "latmin": 50.93695572720913
    }, 
    {
      "latmax": 50.952949065494344, 
      "name": "Wolvenveld", 
      "lonmin": 4.044250694709095, 
      "sanName": "wolvenveld", 
      "numOfAddr": 10, 
      "lonmax": 4.044870717029487, 
      "latmin": 50.952550211979094
    }, 
    {
      "latmax": 50.93498734024274, 
      "name": "Wortelland", 
      "lonmin": 4.067467450190276, 
      "sanName": "wortelland", 
      "numOfAddr": 22, 
      "lonmax": 4.069458647432408, 
      "latmin": 50.93374185340334
    }, 
    {
      "latmax": 50.93540786417054, 
      "name": "Zandberg", 
      "lonmin": 4.079826425675536, 
      "sanName": "zandberg", 
      "numOfAddr": 16, 
      "lonmax": 4.087393384686721, 
      "latmin": 50.932133755790424
    }, 
    {
      "latmax": 50.9511635813394, 
      "name": "Zavelbaan", 
      "lonmin": 4.0468587036480255, 
      "sanName": "zavelbaan", 
      "numOfAddr": 102, 
      "lonmax": 4.050835439277328, 
      "latmin": 50.94924065257764
    }, 
    {
      "latmax": 50.93292907953598, 
      "name": "Zavelput", 
      "lonmin": 4.036138406047987, 
      "sanName": "zavelput", 
      "numOfAddr": 1, 
      "lonmax": 4.036138406047987, 
      "latmin": 50.93292907953598
    }, 
    {
      "latmax": 50.93469149464485, 
      "name": "Zeebergkaai", 
      "lonmin": 4.0475207609084585, 
      "sanName": "zeebergkaai", 
      "numOfAddr": 4, 
      "lonmax": 4.04789184507685, 
      "latmin": 50.93411871506301
    }, 
    {
      "latmax": 50.94067990376541, 
      "name": "Zeeldraaierstraat", 
      "lonmin": 3.998828785288531, 
      "sanName": "zeeldraaierstraat", 
      "numOfAddr": 8, 
      "lonmax": 4.002323092718996, 
      "latmin": 50.9380846921689
    }, 
    {
      "latmax": 50.943878248533515, 
      "name": "Zegepraalstraat", 
      "lonmin": 4.041639794813556, 
      "sanName": "zegepraalstraat", 
      "numOfAddr": 1, 
      "lonmax": 4.041639794813556, 
      "latmin": 50.943878248533515
    }, 
    {
      "latmax": 50.9508995470161, 
      "name": "Zesbunderstraat", 
      "lonmin": 4.065390013503367, 
      "sanName": "zesbunderstraat", 
      "numOfAddr": 11, 
      "lonmax": 4.06617961330218, 
      "latmin": 50.95020418662066
    }, 
    {
      "latmax": 50.952381764723654, 
      "name": "Zijpbeekstraat", 
      "lonmin": 4.026468582572842, 
      "sanName": "zijpbeekstraat", 
      "numOfAddr": 20, 
      "lonmax": 4.027384000019682, 
      "latmin": 50.950893434877145
    }, 
    {
      "latmax": 50.93533546460726, 
      "name": "Zonnestraat", 
      "lonmin": 4.038729674948956, 
      "sanName": "zonnestraat", 
      "numOfAddr": 81, 
      "lonmax": 4.04288914453526, 
      "latmin": 50.93414093493204
    }, 
    {
      "latmax": 50.93990014160578, 
      "name": "Zwarte Zustersstraat", 
      "lonmin": 4.039501356454056, 
      "sanName": "zwartezustersstraat", 
      "numOfAddr": 17, 
      "lonmax": 4.041068503817127, 
      "latmin": 50.93891061302032
    }, 
    {
      "latmax": 50.93851591535767, 
      "name": "Zwembadlaan", 
      "lonmin": 4.057322105672091, 
      "sanName": "zwembadlaan", 
      "numOfAddr": 1, 
      "lonmax": 4.057322105672091, 
      "latmin": 50.93851591535767
    }
  ]
}