{
  "streets": [
    {
      "latmax": 50.92035878442486, 
      "name": "Achterbremt", 
      "lonmin": 3.9859801768583707, 
      "sanName": "achterbremt", 
      "numOfAddr": 19, 
      "lonmax": 3.9887622882608205, 
      "latmin": 50.918191372069835
    }, 
    {
      "latmax": 50.935809083282685, 
      "name": "Achtermaal", 
      "lonmin": 3.9923320962086772, 
      "sanName": "achtermaal", 
      "numOfAddr": 45, 
      "lonmax": 4.002428637016136, 
      "latmin": 50.93321935549149
    }, 
    {
      "latmax": 50.91977818635586, 
      "name": "Alfons Van de Maelestraat", 
      "lonmin": 4.043317680504087, 
      "sanName": "alfonsvandemaelestraat", 
      "numOfAddr": 109, 
      "lonmax": 4.054218132237829, 
      "latmin": 50.91771605571549
    }, 
    {
      "latmax": 50.91967788084179, 
      "name": "Ankerstraat", 
      "lonmin": 4.006110263724294, 
      "sanName": "ankerstraat", 
      "numOfAddr": 19, 
      "lonmax": 4.007080267024621, 
      "latmin": 50.91889288617688
    }, 
    {
      "latmax": 50.91683238407317, 
      "name": "Asterstraat", 
      "lonmin": 4.05344953272905, 
      "sanName": "asterstraat", 
      "numOfAddr": 15, 
      "lonmax": 4.054547404274697, 
      "latmin": 50.91604242322834
    }, 
    {
      "latmax": 50.913346600130666, 
      "name": "Autostradelaan", 
      "lonmin": 4.047011488271384, 
      "sanName": "autostradelaan", 
      "numOfAddr": 33, 
      "lonmax": 4.049550494441154, 
      "latmin": 50.911381690793455
    }, 
    {
      "latmax": 50.91725383447117, 
      "name": "Avaanstraat", 
      "lonmin": 4.057307773366981, 
      "sanName": "avaanstraat", 
      "numOfAddr": 25, 
      "lonmax": 4.060115402185252, 
      "latmin": 50.915531397335386
    }, 
    {
      "latmax": 50.91563280939252, 
      "name": "Avondelsbaan", 
      "lonmin": 4.069508345234649, 
      "sanName": "avondelsbaan", 
      "numOfAddr": 18, 
      "lonmax": 4.071387125387082, 
      "latmin": 50.913045807268844
    }, 
    {
      "latmax": 50.91643599138222, 
      "name": "Bergstraat", 
      "lonmin": 3.989050489183114, 
      "sanName": "bergstraat", 
      "numOfAddr": 87, 
      "lonmax": 4.000002945296933, 
      "latmin": 50.91179208413457
    }, 
    {
      "latmax": 50.91994241403539, 
      "name": "Bertha De Dekenlaan", 
      "lonmin": 4.072127176691987, 
      "sanName": "berthadedekenlaan", 
      "numOfAddr": 32, 
      "lonmax": 4.075160370368565, 
      "latmin": 50.91828693546719
    }, 
    {
      "latmax": 50.915473900327115, 
      "name": "Beukenlaan", 
      "lonmin": 4.026141620133758, 
      "sanName": "beukenlaan", 
      "numOfAddr": 70, 
      "lonmax": 4.02967712285792, 
      "latmin": 50.91302081799018
    }, 
    {
      "latmax": 50.93470778502726, 
      "name": "Blauwenbergstraat", 
      "lonmin": 3.9928578244437456, 
      "sanName": "blauwenbergstraat", 
      "numOfAddr": 95, 
      "lonmax": 4.006753285753906, 
      "latmin": 50.92966117825712
    }, 
    {
      "latmax": 50.916904504516545, 
      "name": "Boekhoutweg", 
      "lonmin": 4.088779279395461, 
      "sanName": "boekhoutweg", 
      "numOfAddr": 2, 
      "lonmax": 4.0891059231432925, 
      "latmin": 50.91621055607809
    }, 
    {
      "latmax": 50.91785325105432, 
      "name": "Boonhofstraat", 
      "lonmin": 4.0665065073614945, 
      "sanName": "boonhofstraat", 
      "numOfAddr": 16, 
      "lonmax": 4.0684112270870765, 
      "latmin": 50.91642062736131
    }, 
    {
      "latmax": 50.92272956995013, 
      "name": "Bredeweg", 
      "lonmin": 4.005974488960585, 
      "sanName": "bredeweg", 
      "numOfAddr": 70, 
      "lonmax": 4.013798643759836, 
      "latmin": 50.92045559022314
    }, 
    {
      "latmax": 50.92020468846496, 
      "name": "Bremtstraat", 
      "lonmin": 3.986065516494927, 
      "sanName": "bremtstraat", 
      "numOfAddr": 153, 
      "lonmax": 3.9993674105619443, 
      "latmin": 50.91597696480333
    }, 
    {
      "latmax": 50.90707733843372, 
      "name": "Broeder De Zwaeflaan", 
      "lonmin": 4.028119656560061, 
      "sanName": "broederdezwaeflaan", 
      "numOfAddr": 11, 
      "lonmax": 4.0294038266426435, 
      "latmin": 50.90631057111021
    }, 
    {
      "latmax": 50.92716990392217, 
      "name": "Broekveldstraat", 
      "lonmin": 3.9984801204515366, 
      "sanName": "broekveldstraat", 
      "numOfAddr": 24, 
      "lonmax": 4.000383922818356, 
      "latmin": 50.925398082210656
    }, 
    {
      "latmax": 50.90785609591386, 
      "name": "Bronlaan", 
      "lonmin": 4.076195543081644, 
      "sanName": "bronlaan", 
      "numOfAddr": 16, 
      "lonmax": 4.077903575606824, 
      "latmin": 50.906807246214996
    }, 
    {
      "latmax": 50.915449756620625, 
      "name": "Brugstraat", 
      "lonmin": 4.018012653400099, 
      "sanName": "brugstraat", 
      "numOfAddr": 12, 
      "lonmax": 4.018808691959663, 
      "latmin": 50.914578968954444
    }, 
    {
      "latmax": 50.92561807642106, 
      "name": "Brusselbaan", 
      "lonmin": 4.068081608197408, 
      "sanName": "brusselbaan", 
      "numOfAddr": 274, 
      "lonmax": 4.0928295186134305, 
      "latmin": 50.91514034608793
    }, 
    {
      "latmax": 50.918783038272515, 
      "name": "Burgemeester De Cocklaan", 
      "lonmin": 4.054942981465576, 
      "sanName": "burgemeesterdecocklaan", 
      "numOfAddr": 7, 
      "lonmax": 4.055515464593056, 
      "latmin": 50.91804536404888
    }, 
    {
      "latmax": 50.91988138573453, 
      "name": "Churchillsteenweg", 
      "lonmin": 4.032779503644651, 
      "sanName": "churchillsteenweg", 
      "numOfAddr": 38, 
      "lonmax": 4.038199447633823, 
      "latmin": 50.91312675034261
    }, 
    {
      "latmax": 50.91788350924097, 
      "name": "Damstraat", 
      "lonmin": 4.0043103018732245, 
      "sanName": "damstraat", 
      "numOfAddr": 44, 
      "lonmax": 4.006366770927704, 
      "latmin": 50.9159491705884
    }, 
    {
      "latmax": 50.924592713006334, 
      "name": "De Boomstraat", 
      "lonmin": 4.068894628481805, 
      "sanName": "deboomstraat", 
      "numOfAddr": 33, 
      "lonmax": 4.070483522308394, 
      "latmin": 50.92388221301752
    }, 
    {
      "latmax": 50.91559584979136, 
      "name": "Dennenlaan", 
      "lonmin": 4.029850742174553, 
      "sanName": "dennenlaan", 
      "numOfAddr": 26, 
      "lonmax": 4.031354489863994, 
      "latmin": 50.91394549797783
    }, 
    {
      "latmax": 50.916709013856035, 
      "name": "Dokter Carlierlaan", 
      "lonmin": 4.059080892310593, 
      "sanName": "doktercarlierlaan", 
      "numOfAddr": 28, 
      "lonmax": 4.060809122462616, 
      "latmin": 50.913929291421205
    }, 
    {
      "latmax": 50.91308235376779, 
      "name": "Dom Modest Van Asschelaan", 
      "lonmin": 4.077245334790102, 
      "sanName": "dommodestvanasschelaan", 
      "numOfAddr": 52, 
      "lonmax": 4.081624748046344, 
      "latmin": 50.910757736059104
    }, 
    {
      "latmax": 50.912669747055105, 
      "name": "Dotterbloemstraat", 
      "lonmin": 4.031066637720612, 
      "sanName": "dotterbloemstraat", 
      "numOfAddr": 12, 
      "lonmax": 4.031752940096821, 
      "latmin": 50.9115677049634
    }, 
    {
      "latmax": 50.91332380715327, 
      "name": "Dreefstraat", 
      "lonmin": 4.024658458993777, 
      "sanName": "dreefstraat", 
      "numOfAddr": 51, 
      "lonmax": 4.028178006101447, 
      "latmin": 50.91072833797702
    }, 
    {
      "latmax": 50.91207100961367, 
      "name": "Driehoekstraat", 
      "lonmin": 4.032826330158245, 
      "sanName": "driehoekstraat", 
      "numOfAddr": 43, 
      "lonmax": 4.039136027341177, 
      "latmin": 50.90762306233924
    }, 
    {
      "latmax": 50.92347670890119, 
      "name": "Dries", 
      "lonmin": 4.01423796995796, 
      "sanName": "dries", 
      "numOfAddr": 65, 
      "lonmax": 4.024217417985752, 
      "latmin": 50.91157420151019
    }, 
    {
      "latmax": 50.91901805662329, 
      "name": "D\u0082sir\u0082 Souffreauweg", 
      "lonmin": 4.0037281912401825, 
      "sanName": "dsirsouffreauweg", 
      "numOfAddr": 3, 
      "lonmax": 4.00376456234393, 
      "latmin": 50.91847661754018
    }, 
    {
      "latmax": 50.91884396832725, 
      "name": "d'Uitseweg", 
      "lonmin": 4.047104276663971, 
      "sanName": "duitseweg", 
      "numOfAddr": 120, 
      "lonmax": 4.055335415414237, 
      "latmin": 50.91508647829123
    }, 
    {
      "latmax": 50.92207031376016, 
      "name": "Dwarsstraat", 
      "lonmin": 4.012059703065342, 
      "sanName": "dwarsstraat", 
      "numOfAddr": 25, 
      "lonmax": 4.014685604937522, 
      "latmin": 50.92102433815596
    }, 
    {
      "latmax": 50.92597152316055, 
      "name": "Edixvelde", 
      "lonmin": 3.985458101230272, 
      "sanName": "edixvelde", 
      "numOfAddr": 169, 
      "lonmax": 3.9903432587275973, 
      "latmin": 50.91748162079938
    }, 
    {
      "latmax": 50.92044410556054, 
      "name": "Erembodegem-Dorp", 
      "lonmin": 4.056131074591403, 
      "sanName": "erembodegemdorp", 
      "numOfAddr": 90, 
      "lonmax": 4.060660416362046, 
      "latmin": 50.91866545609743
    }, 
    {
      "latmax": 50.9150460470506, 
      "name": "Erkendries", 
      "lonmin": 4.019879544276757, 
      "sanName": "erkendries", 
      "numOfAddr": 12, 
      "lonmax": 4.020531854723055, 
      "latmin": 50.91406228735695
    }, 
    {
      "latmax": 50.9224760689605, 
      "name": "Eversberg", 
      "lonmin": 4.035101850582412, 
      "sanName": "eversberg", 
      "numOfAddr": 1, 
      "lonmax": 4.035101850582412, 
      "latmin": 50.9224760689605
    }, 
    {
      "latmax": 50.91907966592801, 
      "name": "Fazantenlaan", 
      "lonmin": 4.076852569871927, 
      "sanName": "fazantenlaan", 
      "numOfAddr": 35, 
      "lonmax": 4.081553446420507, 
      "latmin": 50.916519678197574
    }, 
    {
      "latmax": 50.922240112489696, 
      "name": "Fonteinbos", 
      "lonmin": 4.077444922837979, 
      "sanName": "fonteinbos", 
      "numOfAddr": 43, 
      "lonmax": 4.082858499864667, 
      "latmin": 50.91963589215201
    }, 
    {
      "latmax": 50.91927202540823, 
      "name": "Gaston De Schepperstraat", 
      "lonmin": 4.057212938974392, 
      "sanName": "gastondeschepperstraat", 
      "numOfAddr": 77, 
      "lonmax": 4.063282830676463, 
      "latmin": 50.915289755911765
    }, 
    {
      "latmax": 50.91526019030961, 
      "name": "Geraardsbergsesteenweg", 
      "lonmin": 4.024383027835929, 
      "sanName": "geraardsbergsesteenweg", 
      "numOfAddr": 172, 
      "lonmax": 4.03260428794511, 
      "latmin": 50.90678145576498
    }, 
    {
      "latmax": 50.92291997103877, 
      "name": "Gerstenstraat", 
      "lonmin": 4.05852852708173, 
      "sanName": "gerstenstraat", 
      "numOfAddr": 21, 
      "lonmax": 4.06095054641135, 
      "latmin": 50.9208927817305
    }, 
    {
      "latmax": 50.92128983150885, 
      "name": "Groenenbrielstraat", 
      "lonmin": 4.047645430006544, 
      "sanName": "groenenbrielstraat", 
      "numOfAddr": 38, 
      "lonmax": 4.051161322326852, 
      "latmin": 50.91950437717049
    }, 
    {
      "latmax": 50.91782201571555, 
      "name": "Groeneweg", 
      "lonmin": 4.038389323941736, 
      "sanName": "groeneweg", 
      "numOfAddr": 26, 
      "lonmax": 4.041341199497627, 
      "latmin": 50.91612960825734
    }, 
    {
      "latmax": 50.90786114128802, 
      "name": "Haagbeukstraat", 
      "lonmin": 4.023802134641099, 
      "sanName": "haagbeukstraat", 
      "numOfAddr": 6, 
      "lonmax": 4.024305200303363, 
      "latmin": 50.90730024017103
    }, 
    {
      "latmax": 50.916286889946676, 
      "name": "Haaltertstraat", 
      "lonmin": 4.003455528677126, 
      "sanName": "haaltertstraat", 
      "numOfAddr": 32, 
      "lonmax": 4.007670673546046, 
      "latmin": 50.914255184004205
    }, 
    {
      "latmax": 50.91058362965671, 
      "name": "Haantjesweg", 
      "lonmin": 4.028966619555367, 
      "sanName": "haantjesweg", 
      "numOfAddr": 15, 
      "lonmax": 4.0305867564211555, 
      "latmin": 50.90950895664278
    }, 
    {
      "latmax": 50.92223278702811, 
      "name": "Hageveld", 
      "lonmin": 4.076449266988518, 
      "sanName": "hageveld", 
      "numOfAddr": 32, 
      "lonmax": 4.078235666814018, 
      "latmin": 50.91998572975822
    }, 
    {
      "latmax": 50.92297514504587, 
      "name": "Handbos", 
      "lonmin": 4.072659623240209, 
      "sanName": "handbos", 
      "numOfAddr": 17, 
      "lonmax": 4.0742378007506375, 
      "latmin": 50.92222772730316
    }, 
    {
      "latmax": 50.926940940080506, 
      "name": "Hazelaarstraat", 
      "lonmin": 4.019140901947106, 
      "sanName": "hazelaarstraat", 
      "numOfAddr": 17, 
      "lonmax": 4.020215013541332, 
      "latmin": 50.92571896990552
    }, 
    {
      "latmax": 50.917778145791566, 
      "name": "Heilborre", 
      "lonmin": 4.05139311296901, 
      "sanName": "heilborre", 
      "numOfAddr": 13, 
      "lonmax": 4.052361891678269, 
      "latmin": 50.91726362901041
    }, 
    {
      "latmax": 50.9234373287685, 
      "name": "Hekelgemstraat", 
      "lonmin": 4.076242020641594, 
      "sanName": "hekelgemstraat", 
      "numOfAddr": 121, 
      "lonmax": 4.090522449171454, 
      "latmin": 50.92114397093489
    }, 
    {
      "latmax": 50.926052229709654, 
      "name": "Heuvel", 
      "lonmin": 4.06941208595101, 
      "sanName": "heuvel", 
      "numOfAddr": 113, 
      "lonmax": 4.0728789869385995, 
      "latmin": 50.92164260699195
    }, 
    {
      "latmax": 50.915765081548926, 
      "name": "Hinnensveld", 
      "lonmin": 4.026204129043012, 
      "sanName": "hinnensveld", 
      "numOfAddr": 7, 
      "lonmax": 4.027417266154378, 
      "latmin": 50.9150405522327
    }, 
    {
      "latmax": 50.92203502793482, 
      "name": "Hoezestraat", 
      "lonmin": 4.009322197533302, 
      "sanName": "hoezestraat", 
      "numOfAddr": 82, 
      "lonmax": 4.0271649682309825, 
      "latmin": 50.91890760973218
    }, 
    {
      "latmax": 50.927158242172254, 
      "name": "Hof Somergem", 
      "lonmin": 4.078371441207519, 
      "sanName": "hofsomergem", 
      "numOfAddr": 5, 
      "lonmax": 4.079226285270054, 
      "latmin": 50.926241395485775
    }, 
    {
      "latmax": 50.916039875082774, 
      "name": "Hof ter Burghtstraat", 
      "lonmin": 4.06073097168171, 
      "sanName": "hofterburghtstraat", 
      "numOfAddr": 19, 
      "lonmax": 4.062844053015173, 
      "latmin": 50.9146665227523
    }, 
    {
      "latmax": 50.914428403906356, 
      "name": "Hof ter Lokerenstraat", 
      "lonmin": 4.0252344836934535, 
      "sanName": "hofterlokerenstraat", 
      "numOfAddr": 66, 
      "lonmax": 4.030348643195882, 
      "latmin": 50.912734753799505
    }, 
    {
      "latmax": 50.9220729191528, 
      "name": "Hogeweg", 
      "lonmin": 4.060066709636967, 
      "sanName": "hogeweg", 
      "numOfAddr": 135, 
      "lonmax": 4.069513552765689, 
      "latmin": 50.920176307445246
    }, 
    {
      "latmax": 50.91793032342738, 
      "name": "Holleweg", 
      "lonmin": 4.045953787482431, 
      "sanName": "holleweg", 
      "numOfAddr": 15, 
      "lonmax": 4.047689734159595, 
      "latmin": 50.916641548361085
    }, 
    {
      "latmax": 50.91701905023402, 
      "name": "Huytstraat", 
      "lonmin": 3.987145459976451, 
      "sanName": "huytstraat", 
      "numOfAddr": 50, 
      "lonmax": 3.98977290170767, 
      "latmin": 50.913448582763806
    }, 
    {
      "latmax": 50.92236353354937, 
      "name": "Ijzerenwegstraat", 
      "lonmin": 4.054061857431387, 
      "sanName": "ijzerenwegstraat", 
      "numOfAddr": 32, 
      "lonmax": 4.055061178919042, 
      "latmin": 50.91975522118146
    }, 
    {
      "latmax": 50.91505026055446, 
      "name": "Industrielaan", 
      "lonmin": 4.034595452264175, 
      "sanName": "industrielaan", 
      "numOfAddr": 36, 
      "lonmax": 4.050197809224887, 
      "latmin": 50.90739425674805
    }, 
    {
      "latmax": 50.91619149708531, 
      "name": "Itali\u0089nweg", 
      "lonmin": 4.054466149606334, 
      "sanName": "italinweg", 
      "numOfAddr": 58, 
      "lonmax": 4.056909709965842, 
      "latmin": 50.91301886954353
    }, 
    {
      "latmax": 50.92576783459446, 
      "name": "Jagershoek", 
      "lonmin": 4.070247156147443, 
      "sanName": "jagershoek", 
      "numOfAddr": 166, 
      "lonmax": 4.082304025998461, 
      "latmin": 50.92053888809696
    }, 
    {
      "latmax": 50.919912337654914, 
      "name": "Kaardeveldweg", 
      "lonmin": 4.056043026366427, 
      "sanName": "kaardeveldweg", 
      "numOfAddr": 1, 
      "lonmax": 4.056043026366427, 
      "latmin": 50.919912337654914
    }, 
    {
      "latmax": 50.92855354427926, 
      "name": "Kantonstraat", 
      "lonmin": 4.005061102034786, 
      "sanName": "kantonstraat", 
      "numOfAddr": 72, 
      "lonmax": 4.00906442237451, 
      "latmin": 50.92523608133177
    }, 
    {
      "latmax": 50.92355862320311, 
      "name": "Kapellekensbaan", 
      "lonmin": 4.052679005347316, 
      "sanName": "kapellekensbaan", 
      "numOfAddr": 13, 
      "lonmax": 4.054112379287034, 
      "latmin": 50.92291954109119
    }, 
    {
      "latmax": 50.91533514344059, 
      "name": "Kapellestraat", 
      "lonmin": 4.077003899113139, 
      "sanName": "kapellestraat", 
      "numOfAddr": 46, 
      "lonmax": 4.080611342165331, 
      "latmin": 50.913288458523624
    }, 
    {
      "latmax": 50.91370552630346, 
      "name": "Kapelleveld", 
      "lonmin": 4.073114349265071, 
      "sanName": "kapelleveld", 
      "numOfAddr": 13, 
      "lonmax": 4.073973237449595, 
      "latmin": 50.91282118969588
    }, 
    {
      "latmax": 50.93275107596743, 
      "name": "Keizerstraat", 
      "lonmin": 4.003559097757422, 
      "sanName": "keizerstraat", 
      "numOfAddr": 28, 
      "lonmax": 4.005828648111262, 
      "latmin": 50.92944619857762
    }, 
    {
      "latmax": 50.92074258769337, 
      "name": "Kempkensstraat", 
      "lonmin": 4.063332751468962, 
      "sanName": "kempkensstraat", 
      "numOfAddr": 6, 
      "lonmax": 4.063907652090725, 
      "latmin": 50.92001598102059
    }, 
    {
      "latmax": 50.91950610848872, 
      "name": "Keppestraat", 
      "lonmin": 4.045647442171786, 
      "sanName": "keppestraat", 
      "numOfAddr": 124, 
      "lonmax": 4.055109790953175, 
      "latmin": 50.915720707399224
    }, 
    {
      "latmax": 50.924705092601805, 
      "name": "Kerkmeersstraat", 
      "lonmin": 4.008806715657643, 
      "sanName": "kerkmeersstraat", 
      "numOfAddr": 24, 
      "lonmax": 4.010734940733898, 
      "latmin": 50.92343917300829
    }, 
    {
      "latmax": 50.925724225318234, 
      "name": "Kerkveldweg", 
      "lonmin": 4.003369098993091, 
      "sanName": "kerkveldweg", 
      "numOfAddr": 52, 
      "lonmax": 4.007932849930411, 
      "latmin": 50.924414829894445
    }, 
    {
      "latmax": 50.92813822179028, 
      "name": "Kerselaarstraat", 
      "lonmin": 4.003238540902626, 
      "sanName": "kerselaarstraat", 
      "numOfAddr": 12, 
      "lonmax": 4.005005381510417, 
      "latmin": 50.92729923823684
    }, 
    {
      "latmax": 50.92497449780737, 
      "name": "Kleinderbeek", 
      "lonmin": 4.0000820690941925, 
      "sanName": "kleinderbeek", 
      "numOfAddr": 27, 
      "lonmax": 4.002979139494334, 
      "latmin": 50.92307371563517
    }, 
    {
      "latmax": 50.91158898431349, 
      "name": "Kleistraat", 
      "lonmin": 4.072203990994879, 
      "sanName": "kleistraat", 
      "numOfAddr": 117, 
      "lonmax": 4.0798545892588525, 
      "latmin": 50.90519208563721
    }, 
    {
      "latmax": 50.92400793962324, 
      "name": "Kluizerij", 
      "lonmin": 4.084860181363333, 
      "sanName": "kluizerij", 
      "numOfAddr": 6, 
      "lonmax": 4.088473025377122, 
      "latmin": 50.92259357511138
    }, 
    {
      "latmax": 50.924810613101215, 
      "name": "Kluizestraat", 
      "lonmin": 4.070953300354775, 
      "sanName": "kluizestraat", 
      "numOfAddr": 31, 
      "lonmax": 4.079234706578689, 
      "latmin": 50.92303860420208
    }, 
    {
      "latmax": 50.91587669562523, 
      "name": "Korte Keppestraat", 
      "lonmin": 4.040546444748984, 
      "sanName": "kortekeppestraat", 
      "numOfAddr": 7, 
      "lonmax": 4.045557108932559, 
      "latmin": 50.914748566933966
    }, 
    {
      "latmax": 50.91968833710746, 
      "name": "Kortestraat", 
      "lonmin": 4.06192630076116, 
      "sanName": "kortestraat", 
      "numOfAddr": 16, 
      "lonmax": 4.066099330366587, 
      "latmin": 50.91696249786988
    }, 
    {
      "latmax": 50.91565573842225, 
      "name": "Kraaiwinkelstraat", 
      "lonmin": 4.012357856561654, 
      "sanName": "kraaiwinkelstraat", 
      "numOfAddr": 50, 
      "lonmax": 4.019198582016278, 
      "latmin": 50.9140859400284
    }, 
    {
      "latmax": 50.931169166258016, 
      "name": "Kriekstraat", 
      "lonmin": 4.00325616135764, 
      "sanName": "kriekstraat", 
      "numOfAddr": 10, 
      "lonmax": 4.004985703724736, 
      "latmin": 50.930785738838495
    }, 
    {
      "latmax": 50.919055296539945, 
      "name": "Kromme Elleboogstraat", 
      "lonmin": 4.066877212162499, 
      "sanName": "krommeelleboogstraat", 
      "numOfAddr": 47, 
      "lonmax": 4.070769404014257, 
      "latmin": 50.91809309128787
    }, 
    {
      "latmax": 50.91008254687052, 
      "name": "Kwadelapstraat", 
      "lonmin": 4.05363289779941, 
      "sanName": "kwadelapstraat", 
      "numOfAddr": 1, 
      "lonmax": 4.05363289779941, 
      "latmin": 50.91008254687052
    }, 
    {
      "latmax": 50.92791371595493, 
      "name": "Kwadesteenstraat", 
      "lonmin": 4.01504206830264, 
      "sanName": "kwadesteenstraat", 
      "numOfAddr": 17, 
      "lonmax": 4.018829881205839, 
      "latmin": 50.926638023118
    }, 
    {
      "latmax": 50.92178640462095, 
      "name": "Kwalenhoekstraat", 
      "lonmin": 3.9832447107503466, 
      "sanName": "kwalenhoekstraat", 
      "numOfAddr": 57, 
      "lonmax": 3.9870192602814707, 
      "latmin": 50.91918663116224
    }, 
    {
      "latmax": 50.93249421285299, 
      "name": "Kwalestraat", 
      "lonmin": 4.0091080225633124, 
      "sanName": "kwalestraat", 
      "numOfAddr": 124, 
      "lonmax": 4.023750123326051, 
      "latmin": 50.924750185856226
    }, 
    {
      "latmax": 50.919186134635204, 
      "name": "Laarstraat", 
      "lonmin": 4.004696746726349, 
      "sanName": "laarstraat", 
      "numOfAddr": 36, 
      "lonmax": 4.008868306359236, 
      "latmin": 50.91749006471491
    }, 
    {
      "latmax": 50.92601737696198, 
      "name": "Leeuwerikenlaan", 
      "lonmin": 4.070746193933366, 
      "sanName": "leeuwerikenlaan", 
      "numOfAddr": 31, 
      "lonmax": 4.073144366040473, 
      "latmin": 50.92479208570974
    }, 
    {
      "latmax": 50.90677796758538, 
      "name": "Lepelloi", 
      "lonmin": 4.026262320432855, 
      "sanName": "lepelloi", 
      "numOfAddr": 6, 
      "lonmax": 4.026750254200976, 
      "latmin": 50.90656507817282
    }, 
    {
      "latmax": 50.91371160787369, 
      "name": "Letterveldweg", 
      "lonmin": 4.0799100917539635, 
      "sanName": "letterveldweg", 
      "numOfAddr": 33, 
      "lonmax": 4.08457479086611, 
      "latmin": 50.911758643239956
    }, 
    {
      "latmax": 50.92061404665997, 
      "name": "Leuvestraat", 
      "lonmin": 4.061037057105507, 
      "sanName": "leuvestraat", 
      "numOfAddr": 237, 
      "lonmax": 4.077477789274982, 
      "latmin": 50.91295427188796
    }, 
    {
      "latmax": 50.921139447837966, 
      "name": "Lijsterbesstraat", 
      "lonmin": 4.071055411126822, 
      "sanName": "lijsterbesstraat", 
      "numOfAddr": 49, 
      "lonmax": 4.07437754099949, 
      "latmin": 50.919279430149295
    }, 
    {
      "latmax": 50.92733771374212, 
      "name": "Lippenshofweg", 
      "lonmin": 4.0030527839646535, 
      "sanName": "lippenshofweg", 
      "numOfAddr": 5, 
      "lonmax": 4.004618193805605, 
      "latmin": 50.92715128028342
    }, 
    {
      "latmax": 50.92543193086607, 
      "name": "Lokerenveldstraat", 
      "lonmin": 4.03419484336565, 
      "sanName": "lokerenveldstraat", 
      "numOfAddr": 5, 
      "lonmax": 4.034804804134305, 
      "latmin": 50.924641469129284
    }, 
    {
      "latmax": 50.934197171001095, 
      "name": "Louis Callebautstraat", 
      "lonmin": 3.996328587217745, 
      "sanName": "louiscallebautstraat", 
      "numOfAddr": 47, 
      "lonmax": 4.000474446719997, 
      "latmin": 50.93164571415363
    }, 
    {
      "latmax": 50.92162395497651, 
      "name": "Luc Schampstraat", 
      "lonmin": 3.988512759018259, 
      "sanName": "lucschampstraat", 
      "numOfAddr": 13, 
      "lonmax": 4.049037203721016, 
      "latmin": 50.91049366462015
    }, 
    {
      "latmax": 50.92781033965355, 
      "name": "Maaldreef", 
      "lonmin": 4.001824320894825, 
      "sanName": "maaldreef", 
      "numOfAddr": 70, 
      "lonmax": 4.0047320653643235, 
      "latmin": 50.92364467461623
    }, 
    {
      "latmax": 50.92609481466682, 
      "name": "Maatweg", 
      "lonmin": 4.003290137606506, 
      "sanName": "maatweg", 
      "numOfAddr": 21, 
      "lonmax": 4.006041399325836, 
      "latmin": 50.92510694827975
    }, 
    {
      "latmax": 50.935884019665636, 
      "name": "Maleveld", 
      "lonmin": 4.0000944184718605, 
      "sanName": "maleveld", 
      "numOfAddr": 9, 
      "lonmax": 4.000720701546498, 
      "latmin": 50.93512671375648
    }, 
    {
      "latmax": 50.91595895191787, 
      "name": "Meerlaanstraat", 
      "lonmin": 4.0739637785181815, 
      "sanName": "meerlaanstraat", 
      "numOfAddr": 35, 
      "lonmax": 4.075690785546511, 
      "latmin": 50.91385503492281
    }, 
    {
      "latmax": 50.91636750241427, 
      "name": "Meidoornlaan", 
      "lonmin": 4.0245305837158964, 
      "sanName": "meidoornlaan", 
      "numOfAddr": 63, 
      "lonmax": 4.027333430258813, 
      "latmin": 50.91444638759489
    }, 
    {
      "latmax": 50.92276598756661, 
      "name": "Melkweg", 
      "lonmin": 4.049756527299202, 
      "sanName": "melkweg", 
      "numOfAddr": 61, 
      "lonmax": 4.054001912100431, 
      "latmin": 50.92025566814122
    }, 
    {
      "latmax": 50.91972510381143, 
      "name": "Mortelveld", 
      "lonmin": 4.01840696877232, 
      "sanName": "mortelveld", 
      "numOfAddr": 10, 
      "lonmax": 4.021663203998342, 
      "latmin": 50.91725439270911
    }, 
    {
      "latmax": 50.91264646788844, 
      "name": "Nachtegaalstraat", 
      "lonmin": 4.05120851942902, 
      "sanName": "nachtegaalstraat", 
      "numOfAddr": 18, 
      "lonmax": 4.0569648320535325, 
      "latmin": 50.91057135146225
    }, 
    {
      "latmax": 50.90531193462911, 
      "name": "Nekkerspoel", 
      "lonmin": 4.076941563950408, 
      "sanName": "nekkerspoel", 
      "numOfAddr": 16, 
      "lonmax": 4.07952835280074, 
      "latmin": 50.90410938472755
    }, 
    {
      "latmax": 50.93284377963732, 
      "name": "Nieuwenbroekstraat", 
      "lonmin": 4.002293949752469, 
      "sanName": "nieuwenbroekstraat", 
      "numOfAddr": 28, 
      "lonmax": 4.003290760594354, 
      "latmin": 50.92730554048133
    }, 
    {
      "latmax": 50.925144707545506, 
      "name": "Nieuwerkerken-Dorp", 
      "lonmin": 4.004470025176731, 
      "sanName": "nieuwerkerkendorp", 
      "numOfAddr": 72, 
      "lonmax": 4.009115813836045, 
      "latmin": 50.922738731754364
    }, 
    {
      "latmax": 50.92629151308885, 
      "name": "Ninovesteenweg", 
      "lonmin": 4.034805229199848, 
      "sanName": "ninovesteenweg", 
      "numOfAddr": 239, 
      "lonmax": 4.054207258350991, 
      "latmin": 50.90891456430699
    }, 
    {
      "latmax": 50.909205061019584, 
      "name": "Ninovestraat", 
      "lonmin": 4.026753741712944, 
      "sanName": "ninovestraat", 
      "numOfAddr": 59, 
      "lonmax": 4.028794822232283, 
      "latmin": 50.90655684970633
    }, 
    {
      "latmax": 50.91279854227192, 
      "name": "Olmenstraat", 
      "lonmin": 4.032700818022569, 
      "sanName": "olmenstraat", 
      "numOfAddr": 4, 
      "lonmax": 4.033271326712728, 
      "latmin": 50.911968066887894
    }, 
    {
      "latmax": 50.919148983704574, 
      "name": "Orangeriestraat", 
      "lonmin": 4.04203066918046, 
      "sanName": "orangeriestraat", 
      "numOfAddr": 5, 
      "lonmax": 4.042926883067148, 
      "latmin": 50.91816368719715
    }, 
    {
      "latmax": 50.920186610125185, 
      "name": "Paardeput", 
      "lonmin": 4.069184312712466, 
      "sanName": "paardeput", 
      "numOfAddr": 3, 
      "lonmax": 4.0696490017174645, 
      "latmin": 50.91968492980862
    }, 
    {
      "latmax": 50.91457176938494, 
      "name": "Papaverstraat", 
      "lonmin": 4.015991041563642, 
      "sanName": "papaverstraat", 
      "numOfAddr": 5, 
      "lonmax": 4.016410463509019, 
      "latmin": 50.91302450499028
    }, 
    {
      "latmax": 50.92237838310099, 
      "name": "Papestraat", 
      "lonmin": 4.003352763909854, 
      "sanName": "papestraat", 
      "numOfAddr": 42, 
      "lonmax": 4.009105439429639, 
      "latmin": 50.91950533175474
    }, 
    {
      "latmax": 50.912877339745556, 
      "name": "Papeveld", 
      "lonmin": 4.073402128018114, 
      "sanName": "papeveld", 
      "numOfAddr": 48, 
      "lonmax": 4.077147699610933, 
      "latmin": 50.91113469261014
    }, 
    {
      "latmax": 50.92194882786482, 
      "name": "Pastorijstraat", 
      "lonmin": 4.005683063149119, 
      "sanName": "pastorijstraat", 
      "numOfAddr": 6, 
      "lonmax": 4.006169929137475, 
      "latmin": 50.921371040746536
    }, 
    {
      "latmax": 50.91981959757096, 
      "name": "Pater Rasschaertlaan", 
      "lonmin": 4.075191161551994, 
      "sanName": "paterrasschaertlaan", 
      "numOfAddr": 42, 
      "lonmax": 4.078630422528387, 
      "latmin": 50.91664167523506
    }, 
    {
      "latmax": 50.927294693050115, 
      "name": "Patrick Lanckmanstraat", 
      "lonmin": 3.999150653907555, 
      "sanName": "patricklanckmanstraat", 
      "numOfAddr": 7, 
      "lonmax": 4.002086861637952, 
      "latmin": 50.926744284735605
    }, 
    {
      "latmax": 50.922662999630845, 
      "name": "Perenboomstraat", 
      "lonmin": 4.061043974588248, 
      "sanName": "perenboomstraat", 
      "numOfAddr": 23, 
      "lonmax": 4.062923227218055, 
      "latmin": 50.92154409201046
    }, 
    {
      "latmax": 50.920031983745744, 
      "name": "Pijpenbeek", 
      "lonmin": 4.013998582685486, 
      "sanName": "pijpenbeek", 
      "numOfAddr": 81, 
      "lonmax": 4.020153731646953, 
      "latmin": 50.91573387370924
    }, 
    {
      "latmax": 50.914758119631685, 
      "name": "Plataanlaan", 
      "lonmin": 4.028432400486111, 
      "sanName": "plataanlaan", 
      "numOfAddr": 23, 
      "lonmax": 4.0301323873521495, 
      "latmin": 50.91366605457807
    }, 
    {
      "latmax": 50.90530132874122, 
      "name": "Resschebeke", 
      "lonmin": 4.072928079261613, 
      "sanName": "resschebeke", 
      "numOfAddr": 74, 
      "lonmax": 4.079992557244449, 
      "latmin": 50.90174710935215
    }, 
    {
      "latmax": 50.925756799874534, 
      "name": "Restert", 
      "lonmin": 4.012896337743697, 
      "sanName": "restert", 
      "numOfAddr": 131, 
      "lonmax": 4.018671617053045, 
      "latmin": 50.9203894488167
    }, 
    {
      "latmax": 50.921501102590256, 
      "name": "Rietstraat", 
      "lonmin": 4.073908486420771, 
      "sanName": "rietstraat", 
      "numOfAddr": 43, 
      "lonmax": 4.079137779378276, 
      "latmin": 50.91726143293193
    }, 
    {
      "latmax": 50.92214146788713, 
      "name": "Rijdentstraat", 
      "lonmin": 3.987564832695419, 
      "sanName": "rijdentstraat", 
      "numOfAddr": 12, 
      "lonmax": 3.989848344403644, 
      "latmin": 50.92175450407349
    }, 
    {
      "latmax": 50.91521151253496, 
      "name": "Roeveld", 
      "lonmin": 4.08335508015663, 
      "sanName": "roeveld", 
      "numOfAddr": 11, 
      "lonmax": 4.084377992655223, 
      "latmin": 50.913913464627115
    }, 
    {
      "latmax": 50.91337173019328, 
      "name": "Romeinse Weg", 
      "lonmin": 4.093556892402908, 
      "sanName": "romeinseweg", 
      "numOfAddr": 2, 
      "lonmax": 4.098351507445326, 
      "latmin": 50.912694699599115
    }, 
    {
      "latmax": 50.92443114328809, 
      "name": "Ronsevaaldreef", 
      "lonmin": 4.062336279473627, 
      "sanName": "ronsevaaldreef", 
      "numOfAddr": 70, 
      "lonmax": 4.06804628535907, 
      "latmin": 50.92196909021826
    }, 
    {
      "latmax": 50.923478104886655, 
      "name": "Ronsevaalstraat", 
      "lonmin": 4.066382647438393, 
      "sanName": "ronsevaalstraat", 
      "numOfAddr": 55, 
      "lonmax": 4.068685959954759, 
      "latmin": 50.921140833039864
    }, 
    {
      "latmax": 50.922227835740294, 
      "name": "Rooms-Hofstraat", 
      "lonmin": 4.050411240085346, 
      "sanName": "roomshofstraat", 
      "numOfAddr": 35, 
      "lonmax": 4.054546679306552, 
      "latmin": 50.91975675311922
    }, 
    {
      "latmax": 50.91820103137197, 
      "name": "Scherrestraat", 
      "lonmin": 4.069098800932717, 
      "sanName": "scherrestraat", 
      "numOfAddr": 26, 
      "lonmax": 4.070847176391756, 
      "latmin": 50.91720118297543
    }, 
    {
      "latmax": 50.923995882616346, 
      "name": "Schoolstraat", 
      "lonmin": 4.007589000801993, 
      "sanName": "schoolstraat", 
      "numOfAddr": 84, 
      "lonmax": 4.063113464449953, 
      "latmin": 50.920231199191264
    }, 
    {
      "latmax": 50.91423741084264, 
      "name": "Sint-Amandstraat", 
      "lonmin": 4.071239802347888, 
      "sanName": "sintamandstraat", 
      "numOfAddr": 35, 
      "lonmax": 4.07327842582247, 
      "latmin": 50.91120125871259
    }, 
    {
      "latmax": 50.980512854997045, 
      "name": "Sintelstraat", 
      "lonmin": 4.0171261512512, 
      "sanName": "sintelstraat", 
      "numOfAddr": 12, 
      "lonmax": 4.0454201455606285, 
      "latmin": 50.92664121097679
    }, 
    {
      "latmax": 50.91605836946412, 
      "name": "Sparrenlaan", 
      "lonmin": 4.026562197398516, 
      "sanName": "sparrenlaan", 
      "numOfAddr": 22, 
      "lonmax": 4.028393033867909, 
      "latmin": 50.914827092416104
    }, 
    {
      "latmax": 50.919227882600495, 
      "name": "Spechtweg", 
      "lonmin": 3.990171567638879, 
      "sanName": "spechtweg", 
      "numOfAddr": 4, 
      "lonmax": 3.9904745484543276, 
      "latmin": 50.91898850832319
    }, 
    {
      "latmax": 50.917342947036886, 
      "name": "Stationweg", 
      "lonmin": 3.989821954779919, 
      "sanName": "stationweg", 
      "numOfAddr": 10, 
      "lonmax": 3.9928499531544452, 
      "latmin": 50.91545077903105
    }, 
    {
      "latmax": 50.920793280207555, 
      "name": "Steenoven", 
      "lonmin": 4.008060260711863, 
      "sanName": "steenoven", 
      "numOfAddr": 28, 
      "lonmax": 4.010449465867592, 
      "latmin": 50.91968386069436
    }, 
    {
      "latmax": 50.919578656310335, 
      "name": "Sterrebosstraat", 
      "lonmin": 4.011677700743817, 
      "sanName": "sterrebosstraat", 
      "numOfAddr": 23, 
      "lonmax": 4.014055286373142, 
      "latmin": 50.91853546242673
    }, 
    {
      "latmax": 50.91980495346053, 
      "name": "Stijn Streuvelsstraat", 
      "lonmin": 4.076424403850096, 
      "sanName": "stijnstreuvelsstraat", 
      "numOfAddr": 45, 
      "lonmax": 4.07898915126316, 
      "latmin": 50.91837534219766
    }, 
    {
      "latmax": 50.911048312949056, 
      "name": "Stillebreek", 
      "lonmin": 4.071596123743494, 
      "sanName": "stillebreek", 
      "numOfAddr": 26, 
      "lonmax": 4.073263326936367, 
      "latmin": 50.90870903298157
    }, 
    {
      "latmax": 50.92494779713162, 
      "name": "Strekstraat", 
      "lonmin": 3.9873109250263594, 
      "sanName": "strekstraat", 
      "numOfAddr": 12, 
      "lonmax": 3.988547969270436, 
      "latmin": 50.924137223952314
    }, 
    {
      "latmax": 50.918163230393134, 
      "name": "St. Rochusstraat", 
      "lonmin": 3.99948643811162, 
      "sanName": "strochusstraat", 
      "numOfAddr": 51, 
      "lonmax": 4.004265811250975, 
      "latmin": 50.916103594866186
    }, 
    {
      "latmax": 50.922234519150905, 
      "name": "Teerlingveldstraat", 
      "lonmin": 3.9882816621744497, 
      "sanName": "teerlingveldstraat", 
      "numOfAddr": 57, 
      "lonmax": 3.992183136210708, 
      "latmin": 50.92057336438849
    }, 
    {
      "latmax": 50.90885191303048, 
      "name": "Ten Bos", 
      "lonmin": 4.087074797154999, 
      "sanName": "tenbos", 
      "numOfAddr": 58, 
      "lonmax": 4.093210383840321, 
      "latmin": 50.90372910333926
    }, 
    {
      "latmax": 50.927171284395506, 
      "name": "Terbekenstraat", 
      "lonmin": 3.998373591490115, 
      "sanName": "terbekenstraat", 
      "numOfAddr": 53, 
      "lonmax": 4.005625328203693, 
      "latmin": 50.92511141797063
    }, 
    {
      "latmax": 50.925039756982706, 
      "name": "Termurenlaan", 
      "lonmin": 4.052996041989206, 
      "sanName": "termurenlaan", 
      "numOfAddr": 47, 
      "lonmax": 4.058389901781597, 
      "latmin": 50.92042661391987
    }, 
    {
      "latmax": 50.92344385792805, 
      "name": "Tolstraat", 
      "lonmin": 3.9980970617514484, 
      "sanName": "tolstraat", 
      "numOfAddr": 74, 
      "lonmax": 4.004133627350273, 
      "latmin": 50.91998152152028
    }, 
    {
      "latmax": 50.924748591576844, 
      "name": "'t Vestjen", 
      "lonmin": 4.001258343088201, 
      "sanName": "tvestjen", 
      "numOfAddr": 23, 
      "lonmax": 4.002594497677169, 
      "latmin": 50.92420258531921
    }, 
    {
      "latmax": 50.919025746695866, 
      "name": "Tweetegelstraat", 
      "lonmin": 4.053259261786129, 
      "sanName": "tweetegelstraat", 
      "numOfAddr": 1, 
      "lonmax": 4.053259261786129, 
      "latmin": 50.919025746695866
    }, 
    {
      "latmax": 50.92267616983761, 
      "name": "Van de Vijverstraat", 
      "lonmin": 4.064739749069262, 
      "sanName": "vandevijverstraat", 
      "numOfAddr": 41, 
      "lonmax": 4.065784229902086, 
      "latmin": 50.92174944094165
    }, 
    {
      "latmax": 50.91144884520363, 
      "name": "Varent", 
      "lonmin": 4.073859305437701, 
      "sanName": "varent", 
      "numOfAddr": 51, 
      "lonmax": 4.076334378924583, 
      "latmin": 50.908593306995996
    }, 
    {
      "latmax": 50.91531159551084, 
      "name": "Vennestraat", 
      "lonmin": 4.036365277263898, 
      "sanName": "vennestraat", 
      "numOfAddr": 9, 
      "lonmax": 4.0376807452898085, 
      "latmin": 50.91380591967661
    }, 
    {
      "latmax": 50.918532664170755, 
      "name": "Verbindingsstraat", 
      "lonmin": 4.04729160169088, 
      "sanName": "verbindingsstraat", 
      "numOfAddr": 27, 
      "lonmax": 4.048654101543846, 
      "latmin": 50.917269622383884
    }, 
    {
      "latmax": 50.926014314239836, 
      "name": "Verenigde Natiesstraat", 
      "lonmin": 4.012023460295905, 
      "sanName": "verenigdenatiesstraat", 
      "numOfAddr": 22, 
      "lonmax": 4.014240746156916, 
      "latmin": 50.92417041182628
    }, 
    {
      "latmax": 50.921708550825755, 
      "name": "Villalaan", 
      "lonmin": 4.032266948519726, 
      "sanName": "villalaan", 
      "numOfAddr": 19, 
      "lonmax": 4.036305048268111, 
      "latmin": 50.92075289834899
    }, 
    {
      "latmax": 50.91886052406177, 
      "name": "Vinkenlaan", 
      "lonmin": 4.082338668779244, 
      "sanName": "vinkenlaan", 
      "numOfAddr": 22, 
      "lonmax": 4.084677687510974, 
      "latmin": 50.91629151867905
    }, 
    {
      "latmax": 50.923419620143875, 
      "name": "Vlaamsegaaistraat", 
      "lonmin": 4.004407434833958, 
      "sanName": "vlaamsegaaistraat", 
      "numOfAddr": 19, 
      "lonmax": 4.007564934370815, 
      "latmin": 50.92223389896045
    }, 
    {
      "latmax": 50.92390435632464, 
      "name": "Vlierbesstraat", 
      "lonmin": 3.9855688664673727, 
      "sanName": "vlierbesstraat", 
      "numOfAddr": 14, 
      "lonmax": 3.9869778955164588, 
      "latmin": 50.923076922232156
    }, 
    {
      "latmax": 50.922226036760264, 
      "name": "Vogelenzang", 
      "lonmin": 4.081737658528696, 
      "sanName": "vogelenzang", 
      "numOfAddr": 3, 
      "lonmax": 4.082701065584633, 
      "latmin": 50.920928861671335
    }, 
    {
      "latmax": 50.91895270662413, 
      "name": "Vosholleweg", 
      "lonmin": 4.07402039629008, 
      "sanName": "vosholleweg", 
      "numOfAddr": 26, 
      "lonmax": 4.075857347436267, 
      "latmin": 50.91744087503503
    }, 
    {
      "latmax": 50.91900224569898, 
      "name": "Vredestraat", 
      "lonmin": 4.056149523192748, 
      "sanName": "vredestraat", 
      "numOfAddr": 19, 
      "lonmax": 4.057375006365222, 
      "latmin": 50.918162960378126
    }, 
    {
      "latmax": 50.90902635470528, 
      "name": "Waterkeringstraat", 
      "lonmin": 4.03414921118807, 
      "sanName": "waterkeringstraat", 
      "numOfAddr": 2, 
      "lonmax": 4.038350783923316, 
      "latmin": 50.908370489990354
    }, 
    {
      "latmax": 50.909364375831956, 
      "name": "Watermolenstraat", 
      "lonmin": 4.049172579237853, 
      "sanName": "watermolenstraat", 
      "numOfAddr": 18, 
      "lonmax": 4.052030735025566, 
      "latmin": 50.90622537086632
    }, 
    {
      "latmax": 50.92185678472319, 
      "name": "Watervenne", 
      "lonmin": 3.98839314009107, 
      "sanName": "watervenne", 
      "numOfAddr": 15, 
      "lonmax": 4.049294681898411, 
      "latmin": 50.9103624538152
    }, 
    {
      "latmax": 50.92096385125754, 
      "name": "Weidestraat", 
      "lonmin": 4.051882947483248, 
      "sanName": "weidestraat", 
      "numOfAddr": 7, 
      "lonmax": 4.052699999852169, 
      "latmin": 50.91941843199303
    }, 
    {
      "latmax": 50.91792770504516, 
      "name": "Welleweg", 
      "lonmin": 4.045729228637577, 
      "sanName": "welleweg", 
      "numOfAddr": 80, 
      "lonmax": 4.055864941425511, 
      "latmin": 50.91332717933797
    }, 
    {
      "latmax": 50.91850893405684, 
      "name": "Wilgstraat", 
      "lonmin": 4.056461459782189, 
      "sanName": "wilgstraat", 
      "numOfAddr": 32, 
      "lonmax": 4.05800815975241, 
      "latmin": 50.91698580004543
    }, 
    {
      "latmax": 50.90867450585124, 
      "name": "Wingerd", 
      "lonmin": 4.0772140839171325, 
      "sanName": "wingerd", 
      "numOfAddr": 23, 
      "lonmax": 4.079523418865178, 
      "latmin": 50.907808063173796
    }, 
    {
      "latmax": 50.929137847154145, 
      "name": "Zurendries", 
      "lonmin": 4.017217854730222, 
      "sanName": "zurendries", 
      "numOfAddr": 26, 
      "lonmax": 4.0199107401737235, 
      "latmin": 50.92705959785492
    }, 
    {
      "latmax": 50.918049757559885, 
      "name": "Zwalmkouter", 
      "lonmin": 4.0562553563627235, 
      "sanName": "zwalmkouter", 
      "numOfAddr": 21, 
      "lonmax": 4.057376197425195, 
      "latmin": 50.91502985855055
    }
  ]
}