{
  "streets": [
    {
      "latmax": 50.83970728936784, 
      "name": "Beverbeek", 
      "lonmin": 3.9291410928952906, 
      "sanName": "beverbeek", 
      "numOfAddr": 2, 
      "lonmax": 3.929273707332871, 
      "latmin": 50.83966274360023
    }, 
    {
      "latmax": 50.83910122690212, 
      "name": "Bonteveldweg", 
      "lonmin": 3.957031346346705, 
      "sanName": "bonteveldweg", 
      "numOfAddr": 2, 
      "lonmax": 3.9570926736773733, 
      "latmin": 50.83879212691254
    }, 
    {
      "latmax": 50.84189876848916, 
      "name": "Borrekensveldweg", 
      "lonmin": 3.933321727737124, 
      "sanName": "borrekensveldweg", 
      "numOfAddr": 1, 
      "lonmax": 3.933321727737124, 
      "latmin": 50.84189876848916
    }, 
    {
      "latmax": 50.83972155503621, 
      "name": "Bosstraat", 
      "lonmin": 3.957224754362775, 
      "sanName": "bosstraat", 
      "numOfAddr": 24, 
      "lonmax": 3.963641540050734, 
      "latmin": 50.83781426170871
    }, 
    {
      "latmax": 50.84039926763282, 
      "name": "Burgemeester Berleng\u0082estraat", 
      "lonmin": 3.9626930534109217, 
      "sanName": "burgemeesterberlengestraat", 
      "numOfAddr": 40, 
      "lonmax": 3.9641068580419185, 
      "latmin": 50.83850714315704
    }, 
    {
      "latmax": 50.84990334839576, 
      "name": "Cyriel Prie\u0089lsstraat", 
      "lonmin": 3.9259322221859114, 
      "sanName": "cyrielprielsstraat", 
      "numOfAddr": 138, 
      "lonmax": 3.957155470111809, 
      "latmin": 50.843132234316286
    }, 
    {
      "latmax": 50.84053651781802, 
      "name": "Daalstraat", 
      "lonmin": 3.954380735949842, 
      "sanName": "daalstraat", 
      "numOfAddr": 35, 
      "lonmax": 3.9563808394187765, 
      "latmin": 50.83654075435534
    }, 
    {
      "latmax": 50.84257914448903, 
      "name": "Damweg", 
      "lonmin": 3.9608799109246196, 
      "sanName": "damweg", 
      "numOfAddr": 1, 
      "lonmax": 3.9608799109246196, 
      "latmin": 50.84257914448903
    }, 
    {
      "latmax": 50.847449438998126, 
      "name": "Geraardsbergsesteenweg", 
      "lonmin": 3.94835055117007, 
      "sanName": "geraardsbergsesteenweg", 
      "numOfAddr": 117, 
      "lonmax": 3.9591145806786545, 
      "latmin": 50.83509306923161
    }, 
    {
      "latmax": 50.85015730129511, 
      "name": "Goedlangeveldrede", 
      "lonmin": 3.928184525459019, 
      "sanName": "goedlangeveldrede", 
      "numOfAddr": 5, 
      "lonmax": 3.9294925260997173, 
      "latmin": 50.849581017815446
    }, 
    {
      "latmax": 50.84473600905433, 
      "name": "Halfstraat", 
      "lonmin": 3.9498557135491574, 
      "sanName": "halfstraat", 
      "numOfAddr": 15, 
      "lonmax": 3.9538272249238844, 
      "latmin": 50.843192549061015
    }, 
    {
      "latmax": 50.83965164300579, 
      "name": "Heghestraat", 
      "lonmin": 3.946951871932587, 
      "sanName": "heghestraat", 
      "numOfAddr": 25, 
      "lonmax": 3.9503334305681417, 
      "latmin": 50.83629346025087
    }, 
    {
      "latmax": 50.85557308035107, 
      "name": "Keienberg", 
      "lonmin": 3.9519757262270927, 
      "sanName": "keienberg", 
      "numOfAddr": 4, 
      "lonmax": 3.955755018432076, 
      "latmin": 50.85044857864752
    }, 
    {
      "latmax": 50.84847934827277, 
      "name": "Knotwilgenstraat", 
      "lonmin": 3.9308445741601252, 
      "sanName": "knotwilgenstraat", 
      "numOfAddr": 1, 
      "lonmax": 3.9308445741601252, 
      "latmin": 50.84847934827277
    }, 
    {
      "latmax": 50.84058927999401, 
      "name": "Luipendaalstraat", 
      "lonmin": 3.9593813575515653, 
      "sanName": "luipendaalstraat", 
      "numOfAddr": 19, 
      "lonmax": 3.9603003400536014, 
      "latmin": 50.839142539484676
    }, 
    {
      "latmax": 50.84161215784667, 
      "name": "Melkbos", 
      "lonmin": 3.9577548522715933, 
      "sanName": "melkbos", 
      "numOfAddr": 69, 
      "lonmax": 3.968594044027549, 
      "latmin": 50.83933110283277
    }, 
    {
      "latmax": 50.84501135421954, 
      "name": "Nederhasseltstraat", 
      "lonmin": 3.9596091223483127, 
      "sanName": "nederhasseltstraat", 
      "numOfAddr": 21, 
      "lonmax": 3.964818848098194, 
      "latmin": 50.84407882698744
    }, 
    {
      "latmax": 50.84183869030039, 
      "name": "Plekkersstraat", 
      "lonmin": 3.9365137674560446, 
      "sanName": "plekkersstraat", 
      "numOfAddr": 20, 
      "lonmax": 3.956554027754868, 
      "latmin": 50.83872614411674
    }, 
    {
      "latmax": 50.84220777350675, 
      "name": "Roostmeersweg", 
      "lonmin": 3.941209671758662, 
      "sanName": "roostmeersweg", 
      "numOfAddr": 1, 
      "lonmax": 3.941209671758662, 
      "latmin": 50.84220777350675
    }, 
    {
      "latmax": 50.84394801260377, 
      "name": "Schoolstraatje", 
      "lonmin": 3.9570113404615195, 
      "sanName": "schoolstraatje", 
      "numOfAddr": 2, 
      "lonmax": 3.95712087027592, 
      "latmin": 50.843938369405016
    }, 
    {
      "latmax": 50.841980315971554, 
      "name": "Sint-Amandusstraat", 
      "lonmin": 3.9577512872814284, 
      "sanName": "sintamandusstraat", 
      "numOfAddr": 2, 
      "lonmax": 3.9578263860393914, 
      "latmin": 50.84190003134016
    }, 
    {
      "latmax": 50.84710600617158, 
      "name": "Tortelboomstraat", 
      "lonmin": 3.9289220698739142, 
      "sanName": "tortelboomstraat", 
      "numOfAddr": 8, 
      "lonmax": 3.9328055474725514, 
      "latmin": 50.845587744335354
    }, 
    {
      "latmax": 50.842208173491805, 
      "name": "Waagstraat", 
      "lonmin": 3.9380710106588017, 
      "sanName": "waagstraat", 
      "numOfAddr": 2, 
      "lonmax": 3.939182644275886, 
      "latmin": 50.84142393964011
    }, 
    {
      "latmax": 50.85105577808873, 
      "name": "Waalhovestraat", 
      "lonmin": 3.952630853406211, 
      "sanName": "waalhovestraat", 
      "numOfAddr": 37, 
      "lonmax": 3.9582010532467815, 
      "latmin": 50.847195259174356
    }, 
    {
      "latmax": 50.84171816945081, 
      "name": "Watermolenstraat", 
      "lonmin": 3.960018738096403, 
      "sanName": "watermolenstraat", 
      "numOfAddr": 2, 
      "lonmax": 3.9606367724468257, 
      "latmin": 50.84147204121265
    }, 
    {
      "latmax": 50.85614659294599, 
      "name": "Wijwaterstraatje", 
      "lonmin": 3.949744136353193, 
      "sanName": "wijwaterstraatje", 
      "numOfAddr": 1, 
      "lonmax": 3.949744136353193, 
      "latmin": 50.85614659294599
    }, 
    {
      "latmax": 50.84704406583506, 
      "name": "Wildendries", 
      "lonmin": 3.9574842795950276, 
      "sanName": "wildendries", 
      "numOfAddr": 39, 
      "lonmax": 3.9604479674317634, 
      "latmin": 50.84339753578024
    }, 
    {
      "latmax": 50.83881716474031, 
      "name": "Willebroekstraat", 
      "lonmin": 3.929162758221021, 
      "sanName": "willebroekstraat", 
      "numOfAddr": 2, 
      "lonmax": 3.929497978072051, 
      "latmin": 50.838586305180584
    }, 
    {
      "latmax": 50.8393597294959, 
      "name": "Zuurstraat", 
      "lonmin": 3.933153825408352, 
      "sanName": "zuurstraat", 
      "numOfAddr": 3, 
      "lonmax": 3.936089780582962, 
      "latmin": 50.837820939804764
    }
  ]
}