{
  "streets": [
    {
      "latmax": 50.88937073059691, 
      "name": "Beekstraat", 
      "lonmin": 3.9907443004139784, 
      "sanName": "beekstraat", 
      "numOfAddr": 97, 
      "lonmax": 3.9941025061264535, 
      "latmin": 50.88067733212479
    }, 
    {
      "latmax": 50.8945519986377, 
      "name": "Beernaardstraat", 
      "lonmin": 3.9801943516798723, 
      "sanName": "beernaardstraat", 
      "numOfAddr": 13, 
      "lonmax": 3.98822986120383, 
      "latmin": 50.889705636453
    }, 
    {
      "latmax": 50.8849069738639, 
      "name": "Bergstraat", 
      "lonmin": 3.9800807668729705, 
      "sanName": "bergstraat", 
      "numOfAddr": 166, 
      "lonmax": 3.9926910819872123, 
      "latmin": 50.87958942306069
    }, 
    {
      "latmax": 50.88919814448298, 
      "name": "Boekentstraat", 
      "lonmin": 3.9737878978173087, 
      "sanName": "boekentstraat", 
      "numOfAddr": 76, 
      "lonmax": 3.979423257663117, 
      "latmin": 50.88261635746682
    }, 
    {
      "latmax": 50.89365103478312, 
      "name": "Deeskensveld", 
      "lonmin": 3.9854147229023815, 
      "sanName": "deeskensveld", 
      "numOfAddr": 60, 
      "lonmax": 3.989814194793486, 
      "latmin": 50.891805486336914
    }, 
    {
      "latmax": 50.88957093006306, 
      "name": "Driehoekstraat", 
      "lonmin": 3.9830765629403837, 
      "sanName": "driehoekstraat", 
      "numOfAddr": 99, 
      "lonmax": 3.9897221084017187, 
      "latmin": 50.88576603910896
    }, 
    {
      "latmax": 50.909763678605216, 
      "name": "Edestraat", 
      "lonmin": 3.9931909233072096, 
      "sanName": "edestraat", 
      "numOfAddr": 1, 
      "lonmax": 3.9931909233072096, 
      "latmin": 50.909763678605216
    }, 
    {
      "latmax": 50.88997595818373, 
      "name": "Ferdinand Van Hoeymissenstr.", 
      "lonmin": 3.9920861498914877, 
      "sanName": "ferdinandvanhoeymissenstr", 
      "numOfAddr": 30, 
      "lonmax": 3.9958377118648, 
      "latmin": 50.88879300328138
    }, 
    {
      "latmax": 50.88620083783964, 
      "name": "Hofstraat", 
      "lonmin": 3.98162355114848, 
      "sanName": "hofstraat", 
      "numOfAddr": 65, 
      "lonmax": 3.984608829680461, 
      "latmin": 50.88216323149282
    }, 
    {
      "latmax": 50.89438037036972, 
      "name": "Hollestraat", 
      "lonmin": 3.988390871952203, 
      "sanName": "hollestraat", 
      "numOfAddr": 34, 
      "lonmax": 3.9919017894586313, 
      "latmin": 50.890903676216126
    }, 
    {
      "latmax": 50.89084456795564, 
      "name": "Kerkskendorp", 
      "lonmin": 3.9897753297960175, 
      "sanName": "kerkskendorp", 
      "numOfAddr": 44, 
      "lonmax": 3.9929143093329316, 
      "latmin": 50.88913528697702
    }, 
    {
      "latmax": 50.89046169896628, 
      "name": "Kerkskenveld", 
      "lonmin": 3.988277869490391, 
      "sanName": "kerkskenveld", 
      "numOfAddr": 20, 
      "lonmax": 3.990433250673665, 
      "latmin": 50.88984923057806
    }, 
    {
      "latmax": 50.88884160180638, 
      "name": "Kerkweg", 
      "lonmin": 3.985707800650492, 
      "sanName": "kerkweg", 
      "numOfAddr": 54, 
      "lonmax": 3.9908190989605834, 
      "latmin": 50.88686226790058
    }, 
    {
      "latmax": 50.883307949031426, 
      "name": "Landlede", 
      "lonmin": 3.9651036185641635, 
      "sanName": "landlede", 
      "numOfAddr": 41, 
      "lonmax": 3.9716376416732846, 
      "latmin": 50.87772356306621
    }, 
    {
      "latmax": 50.8751069183769, 
      "name": "Leistraat", 
      "lonmin": 3.9659153761781822, 
      "sanName": "leistraat", 
      "numOfAddr": 6, 
      "lonmax": 3.967627635420213, 
      "latmin": 50.87460243542834
    }, 
    {
      "latmax": 50.88856291355484, 
      "name": "Molenbaan", 
      "lonmin": 3.975627486353519, 
      "sanName": "molenbaan", 
      "numOfAddr": 68, 
      "lonmax": 3.9843399283172403, 
      "latmin": 50.88427565675393
    }, 
    {
      "latmax": 50.88970637089993, 
      "name": "Mosveldstraat", 
      "lonmin": 3.9697292280627283, 
      "sanName": "mosveldstraat", 
      "numOfAddr": 29, 
      "lonmax": 3.9738327939584623, 
      "latmin": 50.886627374507896
    }, 
    {
      "latmax": 50.8869948572271, 
      "name": "Pennestraat", 
      "lonmin": 3.9692234820236276, 
      "sanName": "pennestraat", 
      "numOfAddr": 26, 
      "lonmax": 3.9738202632905995, 
      "latmin": 50.88567817476417
    }, 
    {
      "latmax": 50.89146690003106, 
      "name": "Plaatsstraat", 
      "lonmin": 3.989179372844701, 
      "sanName": "plaatsstraat", 
      "numOfAddr": 21, 
      "lonmax": 3.9912220110650254, 
      "latmin": 50.889988814028335
    }, 
    {
      "latmax": 50.87966627103507, 
      "name": "Rijstraat", 
      "lonmin": 3.9784489575548942, 
      "sanName": "rijstraat", 
      "numOfAddr": 20, 
      "lonmax": 3.9808850422138153, 
      "latmin": 50.878649913140016
    }, 
    {
      "latmax": 50.88730104752651, 
      "name": "Terlicht", 
      "lonmin": 3.9678863806097917, 
      "sanName": "terlicht", 
      "numOfAddr": 145, 
      "lonmax": 3.9833362218617983, 
      "latmin": 50.874700405419254
    }, 
    {
      "latmax": 50.879503578826935, 
      "name": "Terwarentstraat", 
      "lonmin": 3.974413214190481, 
      "sanName": "terwarentstraat", 
      "numOfAddr": 7, 
      "lonmax": 3.975473564250505, 
      "latmin": 50.87858057697213
    }, 
    {
      "latmax": 50.8894389819815, 
      "name": "Watervoorstraat", 
      "lonmin": 3.97968726054544, 
      "sanName": "watervoorstraat", 
      "numOfAddr": 52, 
      "lonmax": 3.986525060697248, 
      "latmin": 50.88837679481806
    }, 
    {
      "latmax": 50.89065918896097, 
      "name": "Wijngaardstraat", 
      "lonmin": 3.9928841074769683, 
      "sanName": "wijngaardstraat", 
      "numOfAddr": 12, 
      "lonmax": 3.996150165110993, 
      "latmin": 50.89019077399617
    }, 
    {
      "latmax": 50.88211682556956, 
      "name": "Winkelveld", 
      "lonmin": 3.977124937666208, 
      "sanName": "winkelveld", 
      "numOfAddr": 3, 
      "lonmax": 3.97729420828187, 
      "latmin": 50.882028212940796
    }, 
    {
      "latmax": 50.88831730706026, 
      "name": "Wolvenstraat", 
      "lonmin": 3.992891238693496, 
      "sanName": "wolvenstraat", 
      "numOfAddr": 22, 
      "lonmax": 3.9936518614312013, 
      "latmin": 50.88675204350204
    }
  ]
}