{
  "streets": [
    {
      "latmax": 50.89270369899558, 
      "name": "Acacialaan", 
      "lonmin": 4.057847255855411, 
      "sanName": "acacialaan", 
      "numOfAddr": 59, 
      "lonmax": 4.059770618770992, 
      "latmin": 50.88999144561352
    }, 
    {
      "latmax": 50.880847960237006, 
      "name": "A. De Brabanterstraat", 
      "lonmin": 4.074937310175318, 
      "sanName": "adebrabanterstraat", 
      "numOfAddr": 106, 
      "lonmax": 4.076932408897347, 
      "latmin": 50.875365079657286
    }, 
    {
      "latmax": 50.883342827543025, 
      "name": "A. De Cockstraat", 
      "lonmin": 4.07841959577646, 
      "sanName": "adecockstraat", 
      "numOfAddr": 43, 
      "lonmax": 4.081327822928201, 
      "latmin": 50.88171081025839
    }, 
    {
      "latmax": 50.88979278471005, 
      "name": "Anjelierenlaan", 
      "lonmin": 4.0636869242185405, 
      "sanName": "anjelierenlaan", 
      "numOfAddr": 18, 
      "lonmax": 4.066164311712188, 
      "latmin": 50.887564352902245
    }, 
    {
      "latmax": 50.8985021274003, 
      "name": "Arendsveld", 
      "lonmin": 4.068294590698342, 
      "sanName": "arendsveld", 
      "numOfAddr": 5, 
      "lonmax": 4.06962516190454, 
      "latmin": 50.89800435493353
    }, 
    {
      "latmax": 50.89682575229914, 
      "name": "A. Rodenbachstraat", 
      "lonmin": 4.064055834732387, 
      "sanName": "arodenbachstraat", 
      "numOfAddr": 143, 
      "lonmax": 4.072574668454026, 
      "latmin": 50.893411594914426
    }, 
    {
      "latmax": 50.893204321678745, 
      "name": "Azalealaan", 
      "lonmin": 4.058819201332859, 
      "sanName": "azalealaan", 
      "numOfAddr": 42, 
      "lonmax": 4.060742469819444, 
      "latmin": 50.89047965367728
    }, 
    {
      "latmax": 50.875079141833815, 
      "name": "B. de Saedeleerstraat", 
      "lonmin": 4.072744422089197, 
      "sanName": "bdesaedeleerstraat", 
      "numOfAddr": 13, 
      "lonmax": 4.075097420080594, 
      "latmin": 50.87411654269029
    }, 
    {
      "latmax": 50.88093555305763, 
      "name": "Bergstraat", 
      "lonmin": 4.077037155444586, 
      "sanName": "bergstraat", 
      "numOfAddr": 28, 
      "lonmax": 4.0781043145798845, 
      "latmin": 50.87939993301815
    }, 
    {
      "latmax": 50.899097817342415, 
      "name": "Berkenlaan", 
      "lonmin": 4.072396677261228, 
      "sanName": "berkenlaan", 
      "numOfAddr": 2, 
      "lonmax": 4.072533768880352, 
      "latmin": 50.898745535260154
    }, 
    {
      "latmax": 50.89147833148025, 
      "name": "Bloemendaal", 
      "lonmin": 4.064163295211462, 
      "sanName": "bloemendaal", 
      "numOfAddr": 36, 
      "lonmax": 4.065774592183352, 
      "latmin": 50.88975443509311
    }, 
    {
      "latmax": 50.889430479327274, 
      "name": "Bloemlandstraat", 
      "lonmin": 4.068142469453292, 
      "sanName": "bloemlandstraat", 
      "numOfAddr": 2, 
      "lonmax": 4.069698262975086, 
      "latmin": 50.88915799909674
    }, 
    {
      "latmax": 50.886032681127915, 
      "name": "Boomgaardstraat", 
      "lonmin": 4.077310975829826, 
      "sanName": "boomgaardstraat", 
      "numOfAddr": 21, 
      "lonmax": 4.078964219135182, 
      "latmin": 50.884559778131596
    }, 
    {
      "latmax": 50.898465328313215, 
      "name": "Bordeleenstraat", 
      "lonmin": 4.069557971633818, 
      "sanName": "bordeleenstraat", 
      "numOfAddr": 10, 
      "lonmax": 4.070539980720068, 
      "latmin": 50.89785619319129
    }, 
    {
      "latmax": 50.878992517751755, 
      "name": "Boriaustraat", 
      "lonmin": 4.069037405634371, 
      "sanName": "boriaustraat", 
      "numOfAddr": 44, 
      "lonmax": 4.0707981380638705, 
      "latmin": 50.87654262505281
    }, 
    {
      "latmax": 50.897077646737365, 
      "name": "Bosstraat", 
      "lonmin": 4.070205657424107, 
      "sanName": "bosstraat", 
      "numOfAddr": 19, 
      "lonmax": 4.071601855845646, 
      "latmin": 50.89607100299829
    }, 
    {
      "latmax": 50.88397051431365, 
      "name": "Bouchtstraat", 
      "lonmin": 4.078380962708669, 
      "sanName": "bouchtstraat", 
      "numOfAddr": 17, 
      "lonmax": 4.07988423937012, 
      "latmin": 50.8824381260581
    }, 
    {
      "latmax": 50.88188531115168, 
      "name": "Brandweerstraat", 
      "lonmin": 4.076528777017778, 
      "sanName": "brandweerstraat", 
      "numOfAddr": 21, 
      "lonmax": 4.078205828844414, 
      "latmin": 50.88125627550159
    }, 
    {
      "latmax": 50.887079370761285, 
      "name": "Burg. Rollierstraat", 
      "lonmin": 4.072749903883976, 
      "sanName": "burgrollierstraat", 
      "numOfAddr": 48, 
      "lonmax": 4.07460421088643, 
      "latmin": 50.885060729387035
    }, 
    {
      "latmax": 50.88243906085131, 
      "name": "Collegestraat", 
      "lonmin": 4.0721360044608526, 
      "sanName": "collegestraat", 
      "numOfAddr": 31, 
      "lonmax": 4.073329140353307, 
      "latmin": 50.87997269283466
    }, 
    {
      "latmax": 50.886026085410336, 
      "name": "Coupurestraat", 
      "lonmin": 4.072249681489671, 
      "sanName": "coupurestraat", 
      "numOfAddr": 24, 
      "lonmax": 4.0738892056798655, 
      "latmin": 50.884875321710005
    }, 
    {
      "latmax": 50.89165534251469, 
      "name": "De Nayerstraat", 
      "lonmin": 4.075603338462376, 
      "sanName": "denayerstraat", 
      "numOfAddr": 55, 
      "lonmax": 4.081374493767536, 
      "latmin": 50.89018286809601
    }, 
    {
      "latmax": 50.88264039227935, 
      "name": "Denderweg", 
      "lonmin": 4.082910514092366, 
      "sanName": "denderweg", 
      "numOfAddr": 6, 
      "lonmax": 4.083424910553743, 
      "latmin": 50.88222102272594
    }, 
    {
      "latmax": 50.88364374025138, 
      "name": "Dorp", 
      "lonmin": 4.081299369014269, 
      "sanName": "dorp", 
      "numOfAddr": 17, 
      "lonmax": 4.082978211569831, 
      "latmin": 50.88245101391174
    }, 
    {
      "latmax": 50.87887929932295, 
      "name": "Draaiweg", 
      "lonmin": 4.074746977929199, 
      "sanName": "draaiweg", 
      "numOfAddr": 10, 
      "lonmax": 4.075511262839894, 
      "latmin": 50.878387680892814
    }, 
    {
      "latmax": 50.88290075849499, 
      "name": "Dr. Cochezstraat", 
      "lonmin": 4.076467868229026, 
      "sanName": "drcochezstraat", 
      "numOfAddr": 24, 
      "lonmax": 4.0779741857218985, 
      "latmin": 50.88195331038183
    }, 
    {
      "latmax": 50.89098077606669, 
      "name": "Dreef", 
      "lonmin": 4.06450936309913, 
      "sanName": "dreef", 
      "numOfAddr": 30, 
      "lonmax": 4.067987964929538, 
      "latmin": 50.88914382729076
    }, 
    {
      "latmax": 50.88626050392744, 
      "name": "Dwarsstraat", 
      "lonmin": 4.075828143497799, 
      "sanName": "dwarsstraat", 
      "numOfAddr": 50, 
      "lonmax": 4.077049783031104, 
      "latmin": 50.8829370849914
    }, 
    {
      "latmax": 50.89346501656395, 
      "name": "Eikenlaan", 
      "lonmin": 4.0567505367509735, 
      "sanName": "eikenlaan", 
      "numOfAddr": 42, 
      "lonmax": 4.059583239097671, 
      "latmin": 50.89220038157062
    }, 
    {
      "latmax": 50.89007155075233, 
      "name": "Esdoorn", 
      "lonmin": 4.0571664460437376, 
      "sanName": "esdoorn", 
      "numOfAddr": 20, 
      "lonmax": 4.0589402511194175, 
      "latmin": 50.889567770522994
    }, 
    {
      "latmax": 50.89298817385465, 
      "name": "Fabriekstraat", 
      "lonmin": 4.079415278489496, 
      "sanName": "fabriekstraat", 
      "numOfAddr": 11, 
      "lonmax": 4.081995535278777, 
      "latmin": 50.88930988739769
    }, 
    {
      "latmax": 50.874890114197186, 
      "name": "Fazantenlaan", 
      "lonmin": 4.069057114270762, 
      "sanName": "fazantenlaan", 
      "numOfAddr": 8, 
      "lonmax": 4.069972013130569, 
      "latmin": 50.874242016257135
    }, 
    {
      "latmax": 50.88480815720787, 
      "name": "Fonteinstraat", 
      "lonmin": 4.0813149570904255, 
      "sanName": "fonteinstraat", 
      "numOfAddr": 21, 
      "lonmax": 4.082662758637217, 
      "latmin": 50.88371911637523
    }, 
    {
      "latmax": 50.890207869628995, 
      "name": "F. van de Ponseelelaan", 
      "lonmin": 4.070245367995926, 
      "sanName": "fvandeponseelelaan", 
      "numOfAddr": 34, 
      "lonmax": 4.072459438644137, 
      "latmin": 50.8891405978297
    }, 
    {
      "latmax": 50.884860535690244, 
      "name": "Geallieerdenstraat", 
      "lonmin": 4.074260643824315, 
      "sanName": "geallieerdenstraat", 
      "numOfAddr": 58, 
      "lonmax": 4.080344425282849, 
      "latmin": 50.88401854582986
    }, 
    {
      "latmax": 50.888955367621186, 
      "name": "Guido Gezellestraat", 
      "lonmin": 4.075910033056598, 
      "sanName": "guidogezellestraat", 
      "numOfAddr": 142, 
      "lonmax": 4.0815279210302196, 
      "latmin": 50.88358406762977
    }, 
    {
      "latmax": 50.891793801523946, 
      "name": "Haagbeuk", 
      "lonmin": 4.055352317113881, 
      "sanName": "haagbeuk", 
      "numOfAddr": 10, 
      "lonmax": 4.057021755521105, 
      "latmin": 50.89034525518902
    }, 
    {
      "latmax": 50.87440268548671, 
      "name": "Hageveldstraat", 
      "lonmin": 4.07248025445733, 
      "sanName": "hageveldstraat", 
      "numOfAddr": 43, 
      "lonmax": 4.07583605288059, 
      "latmin": 50.87187965216548
    }, 
    {
      "latmax": 50.892698379243775, 
      "name": "Hazelaarstraat", 
      "lonmin": 4.0559893209432705, 
      "sanName": "hazelaarstraat", 
      "numOfAddr": 33, 
      "lonmax": 4.058898695016584, 
      "latmin": 50.89030544191629
    }, 
    {
      "latmax": 50.89434730770133, 
      "name": "Hemelrijklaan", 
      "lonmin": 4.0585673431761204, 
      "sanName": "hemelrijklaan", 
      "numOfAddr": 7, 
      "lonmax": 4.059846323515832, 
      "latmin": 50.893767462970345
    }, 
    {
      "latmax": 50.88723015533853, 
      "name": "Hofstraat", 
      "lonmin": 4.06942154438096, 
      "sanName": "hofstraat", 
      "numOfAddr": 22, 
      "lonmax": 4.072013302301168, 
      "latmin": 50.886602090042004
    }, 
    {
      "latmax": 50.88797770567975, 
      "name": "Hugo Verrieststraat", 
      "lonmin": 4.070815387025029, 
      "sanName": "hugoverrieststraat", 
      "numOfAddr": 53, 
      "lonmax": 4.074981540014323, 
      "latmin": 50.88528575601736
    }, 
    {
      "latmax": 50.87535504766467, 
      "name": "Huissegemstraat", 
      "lonmin": 4.075404831238929, 
      "sanName": "huissegemstraat", 
      "numOfAddr": 17, 
      "lonmax": 4.076844584731029, 
      "latmin": 50.8743367901295
    }, 
    {
      "latmax": 50.87713154025615, 
      "name": "Iddergemstraat", 
      "lonmin": 4.055553541424368, 
      "sanName": "iddergemstraat", 
      "numOfAddr": 53, 
      "lonmax": 4.06037677117213, 
      "latmin": 50.87543348110121
    }, 
    {
      "latmax": 50.881637211746664, 
      "name": "Jozef Sonckstraat", 
      "lonmin": 4.078170035214182, 
      "sanName": "jozefsonckstraat", 
      "numOfAddr": 22, 
      "lonmax": 4.07894341327188, 
      "latmin": 50.880592964898106
    }, 
    {
      "latmax": 50.896193732802395, 
      "name": "J. Verhavertstraat", 
      "lonmin": 4.07115571097569, 
      "sanName": "jverhavertstraat", 
      "numOfAddr": 59, 
      "lonmax": 4.074188188677359, 
      "latmin": 50.89400306103911
    }, 
    {
      "latmax": 50.87485045073186, 
      "name": "Kaaistraat", 
      "lonmin": 4.076544955564551, 
      "sanName": "kaaistraat", 
      "numOfAddr": 18, 
      "lonmax": 4.0789778660209, 
      "latmin": 50.872871773701895
    }, 
    {
      "latmax": 50.87461683859566, 
      "name": "Kasteelstraat", 
      "lonmin": 4.077067477768184, 
      "sanName": "kasteelstraat", 
      "numOfAddr": 42, 
      "lonmax": 4.080726187311245, 
      "latmin": 50.8715451798387
    }, 
    {
      "latmax": 50.877959495325875, 
      "name": "Keistraat", 
      "lonmin": 4.074604844349039, 
      "sanName": "keistraat", 
      "numOfAddr": 8, 
      "lonmax": 4.075354567884799, 
      "latmin": 50.877367744275595
    }, 
    {
      "latmax": 50.877480209980895, 
      "name": "Kerkhofstraat", 
      "lonmin": 4.073734079403601, 
      "sanName": "kerkhofstraat", 
      "numOfAddr": 20, 
      "lonmax": 4.075310279381489, 
      "latmin": 50.876576291019724
    }, 
    {
      "latmax": 50.885475100739576, 
      "name": "Kiekenborrestraat", 
      "lonmin": 4.0805534284444125, 
      "sanName": "kiekenborrestraat", 
      "numOfAddr": 36, 
      "lonmax": 4.082838700065691, 
      "latmin": 50.88468703168835
    }, 
    {
      "latmax": 50.89252966156218, 
      "name": "Klaverstraat", 
      "lonmin": 4.063546379288699, 
      "sanName": "klaverstraat", 
      "numOfAddr": 21, 
      "lonmax": 4.066215720078404, 
      "latmin": 50.891346477449694
    }, 
    {
      "latmax": 50.88257242594598, 
      "name": "Kon. Astridstraat", 
      "lonmin": 4.075613735522447, 
      "sanName": "konastridstraat", 
      "numOfAddr": 26, 
      "lonmax": 4.0765513417293535, 
      "latmin": 50.881502718017366
    }, 
    {
      "latmax": 50.887758034802715, 
      "name": "Koopwarenstraat", 
      "lonmin": 4.0744551785332, 
      "sanName": "koopwarenstraat", 
      "numOfAddr": 23, 
      "lonmax": 4.077738158167309, 
      "latmin": 50.88638013795644
    }, 
    {
      "latmax": 50.89455070779639, 
      "name": "Kouterbaan", 
      "lonmin": 4.062643596464824, 
      "sanName": "kouterbaan", 
      "numOfAddr": 116, 
      "lonmax": 4.072747303307364, 
      "latmin": 50.88702133174363
    }, 
    {
      "latmax": 50.89739452230908, 
      "name": "Kruisstraat", 
      "lonmin": 4.067061180862194, 
      "sanName": "kruisstraat", 
      "numOfAddr": 64, 
      "lonmax": 4.070329694126517, 
      "latmin": 50.89525554155032
    }, 
    {
      "latmax": 50.893387912708675, 
      "name": "Kwademeersen", 
      "lonmin": 4.074310681487844, 
      "sanName": "kwademeersen", 
      "numOfAddr": 11, 
      "lonmax": 4.075145763034166, 
      "latmin": 50.89273235697429
    }, 
    {
      "latmax": 50.878053444921264, 
      "name": "Landuitstraat", 
      "lonmin": 4.0609865987054174, 
      "sanName": "landuitstraat", 
      "numOfAddr": 193, 
      "lonmax": 4.075245214302632, 
      "latmin": 50.87503044579749
    }, 
    {
      "latmax": 50.89597087955043, 
      "name": "Leeuwbrugstraat", 
      "lonmin": 4.069390492058843, 
      "sanName": "leeuwbrugstraat", 
      "numOfAddr": 20, 
      "lonmax": 4.0708225389383035, 
      "latmin": 50.89503743950333
    }, 
    {
      "latmax": 50.889728869210046, 
      "name": "Leeuwerikenlaan", 
      "lonmin": 4.060778075910709, 
      "sanName": "leeuwerikenlaan", 
      "numOfAddr": 12, 
      "lonmax": 4.0617858527760164, 
      "latmin": 50.88935514985156
    }, 
    {
      "latmax": 50.88503050004938, 
      "name": "Lichtenhoekstraat", 
      "lonmin": 4.0746312563822755, 
      "sanName": "lichtenhoekstraat", 
      "numOfAddr": 37, 
      "lonmax": 4.076426324069984, 
      "latmin": 50.88278011730297
    }, 
    {
      "latmax": 50.88945021049804, 
      "name": "Liefkenshage", 
      "lonmin": 4.057057279932459, 
      "sanName": "liefkenshage", 
      "numOfAddr": 37, 
      "lonmax": 4.060684929996048, 
      "latmin": 50.88826430232634
    }, 
    {
      "latmax": 50.8881945657091, 
      "name": "Lijsterstraat", 
      "lonmin": 4.0667687213733545, 
      "sanName": "lijsterstraat", 
      "numOfAddr": 19, 
      "lonmax": 4.068832967161899, 
      "latmin": 50.887382915049805
    }, 
    {
      "latmax": 50.88322906087265, 
      "name": "Lindestraat", 
      "lonmin": 4.062035014410566, 
      "sanName": "lindestraat", 
      "numOfAddr": 136, 
      "lonmax": 4.075619068542512, 
      "latmin": 50.879788271756894
    }, 
    {
      "latmax": 50.89188795995696, 
      "name": "Lookhaag", 
      "lonmin": 4.064934080669938, 
      "sanName": "lookhaag", 
      "numOfAddr": 34, 
      "lonmax": 4.066808177269165, 
      "latmin": 50.890361006417756
    }, 
    {
      "latmax": 50.88537510120819, 
      "name": "Maanstraat", 
      "lonmin": 4.0806854974633255, 
      "sanName": "maanstraat", 
      "numOfAddr": 6, 
      "lonmax": 4.081175169181577, 
      "latmin": 50.88513992471645
    }, 
    {
      "latmax": 50.89432605462594, 
      "name": "Meiboomlaan", 
      "lonmin": 4.059763626894531, 
      "sanName": "meiboomlaan", 
      "numOfAddr": 80, 
      "lonmax": 4.062431720139707, 
      "latmin": 50.88980673527044
    }, 
    {
      "latmax": 50.884094935853824, 
      "name": "Middenstraat", 
      "lonmin": 4.077140788963339, 
      "sanName": "middenstraat", 
      "numOfAddr": 31, 
      "lonmax": 4.079518423981473, 
      "latmin": 50.882631922617385
    }, 
    {
      "latmax": 50.876117773825925, 
      "name": "Molenstraat", 
      "lonmin": 4.075759631473893, 
      "sanName": "molenstraat", 
      "numOfAddr": 20, 
      "lonmax": 4.0770709846959114, 
      "latmin": 50.875531795966864
    }, 
    {
      "latmax": 50.88259717896049, 
      "name": "Moreelstraat", 
      "lonmin": 4.076853267349819, 
      "sanName": "moreelstraat", 
      "numOfAddr": 95, 
      "lonmax": 4.082888602400518, 
      "latmin": 50.87986071164586
    }, 
    {
      "latmax": 50.87866518784868, 
      "name": "Neerstraat", 
      "lonmin": 4.076155911046304, 
      "sanName": "neerstraat", 
      "numOfAddr": 8, 
      "lonmax": 4.076826691345481, 
      "latmin": 50.8783813426477
    }, 
    {
      "latmax": 50.881067820944686, 
      "name": "Nieuwstraat", 
      "lonmin": 4.0707831742519, 
      "sanName": "nieuwstraat", 
      "numOfAddr": 82, 
      "lonmax": 4.076491106441219, 
      "latmin": 50.87910197084957
    }, 
    {
      "latmax": 50.88521254474288, 
      "name": "Nijverheidszone 'Begijnenmeers'", 
      "lonmin": 4.086478404556607, 
      "sanName": "nijverheidszonebegijnenmeers", 
      "numOfAddr": 4, 
      "lonmax": 4.08763071493705, 
      "latmin": 50.883979241763896
    }, 
    {
      "latmax": 50.8988897272391, 
      "name": "Noordstraat", 
      "lonmin": 4.065271805322109, 
      "sanName": "noordstraat", 
      "numOfAddr": 30, 
      "lonmax": 4.068986352517987, 
      "latmin": 50.89690113334715
    }, 
    {
      "latmax": 50.89370888785897, 
      "name": "Omlooplaan", 
      "lonmin": 4.0781069705902855, 
      "sanName": "omlooplaan", 
      "numOfAddr": 17, 
      "lonmax": 4.079171206281633, 
      "latmin": 50.891441508899135
    }, 
    {
      "latmax": 50.884370503743995, 
      "name": "Opgeeistenstraat", 
      "lonmin": 4.063141672169101, 
      "sanName": "opgeeistenstraat", 
      "numOfAddr": 42, 
      "lonmax": 4.06705145186689, 
      "latmin": 50.882632444934686
    }, 
    {
      "latmax": 50.893121912961824, 
      "name": "Orchidee\u0089nlaan", 
      "lonmin": 4.076966184543774, 
      "sanName": "orchideenlaan", 
      "numOfAddr": 11, 
      "lonmax": 4.078342795579587, 
      "latmin": 50.8918951101302
    }, 
    {
      "latmax": 50.884442451876154, 
      "name": "Oude Molenweg", 
      "lonmin": 4.070357784091488, 
      "sanName": "oudemolenweg", 
      "numOfAddr": 1, 
      "lonmax": 4.070357784091488, 
      "latmin": 50.884442451876154
    }, 
    {
      "latmax": 50.89185035067539, 
      "name": "Paardekastanje", 
      "lonmin": 4.074979852351355, 
      "sanName": "paardekastanje", 
      "numOfAddr": 30, 
      "lonmax": 4.076879953570433, 
      "latmin": 50.8909421336328
    }, 
    {
      "latmax": 50.895187503198905, 
      "name": "Papestraat", 
      "lonmin": 4.071823969428929, 
      "sanName": "papestraat", 
      "numOfAddr": 10, 
      "lonmax": 4.072526358229753, 
      "latmin": 50.89441905415351
    }, 
    {
      "latmax": 50.8927837518357, 
      "name": "Parklaan", 
      "lonmin": 4.07442053940474, 
      "sanName": "parklaan", 
      "numOfAddr": 15, 
      "lonmax": 4.075384341723617, 
      "latmin": 50.89218238225164
    }, 
    {
      "latmax": 50.87361541785275, 
      "name": "Parochiestraat", 
      "lonmin": 4.057154656860691, 
      "sanName": "parochiestraat", 
      "numOfAddr": 2, 
      "lonmax": 4.057409933116312, 
      "latmin": 50.87355613378253
    }, 
    {
      "latmax": 50.875151473895485, 
      "name": "Patrijzenlaan", 
      "lonmin": 4.070825617880698, 
      "sanName": "patrijzenlaan", 
      "numOfAddr": 31, 
      "lonmax": 4.074329699088729, 
      "latmin": 50.87291639166262
    }, 
    {
      "latmax": 50.880397288993095, 
      "name": "Polderstraat", 
      "lonmin": 4.074867902938768, 
      "sanName": "polderstraat", 
      "numOfAddr": 25, 
      "lonmax": 4.076236925118263, 
      "latmin": 50.87917754665667
    }, 
    {
      "latmax": 50.887891332114215, 
      "name": "Populierenlaan", 
      "lonmin": 4.058900538275322, 
      "sanName": "populierenlaan", 
      "numOfAddr": 52, 
      "lonmax": 4.0621902713711915, 
      "latmin": 50.886106954716595
    }, 
    {
      "latmax": 50.88893240763566, 
      "name": "Ringlaan", 
      "lonmin": 4.064631468411855, 
      "sanName": "ringlaan", 
      "numOfAddr": 96, 
      "lonmax": 4.069912440240844, 
      "latmin": 50.88581875097663
    }, 
    {
      "latmax": 50.900222022067474, 
      "name": "Rodestraat", 
      "lonmin": 4.063910439159642, 
      "sanName": "rodestraat", 
      "numOfAddr": 68, 
      "lonmax": 4.066657057100712, 
      "latmin": 50.89688964352543
    }, 
    {
      "latmax": 50.89410601376543, 
      "name": "Rozenlaan", 
      "lonmin": 4.075200274654849, 
      "sanName": "rozenlaan", 
      "numOfAddr": 26, 
      "lonmax": 4.076898617118515, 
      "latmin": 50.89202616586288
    }, 
    {
      "latmax": 50.87760853874452, 
      "name": "R. Segersplein", 
      "lonmin": 4.069871656311812, 
      "sanName": "rsegersplein", 
      "numOfAddr": 4, 
      "lonmax": 4.07005955411211, 
      "latmin": 50.87740972262766
    }, 
    {
      "latmax": 50.87663388099272, 
      "name": "Scherpstraat", 
      "lonmin": 4.061201338861906, 
      "sanName": "scherpstraat", 
      "numOfAddr": 28, 
      "lonmax": 4.064310226881682, 
      "latmin": 50.874867953640994
    }, 
    {
      "latmax": 50.89864517593174, 
      "name": "Schoolstraat", 
      "lonmin": 4.065291862018745, 
      "sanName": "schoolstraat", 
      "numOfAddr": 53, 
      "lonmax": 4.067703298464404, 
      "latmin": 50.896447215282706
    }, 
    {
      "latmax": 50.89028075335187, 
      "name": "Seringenlaan", 
      "lonmin": 4.059229291608174, 
      "sanName": "seringenlaan", 
      "numOfAddr": 29, 
      "lonmax": 4.061601792077898, 
      "latmin": 50.88968908998393
    }, 
    {
      "latmax": 50.87526428828039, 
      "name": "Sijpestraat", 
      "lonmin": 4.056041622753608, 
      "sanName": "sijpestraat", 
      "numOfAddr": 9, 
      "lonmax": 4.05696554625732, 
      "latmin": 50.87368625032182
    }, 
    {
      "latmax": 50.87967967008785, 
      "name": "Sint-Amandstraat", 
      "lonmin": 4.07291725475705, 
      "sanName": "sintamandstraat", 
      "numOfAddr": 20, 
      "lonmax": 4.074328023418527, 
      "latmin": 50.87904488107065
    }, 
    {
      "latmax": 50.89570642071733, 
      "name": "Sint-Annastraat", 
      "lonmin": 4.070823285923371, 
      "sanName": "sintannastraat", 
      "numOfAddr": 19, 
      "lonmax": 4.071956296633522, 
      "latmin": 50.895059053616784
    }, 
    {
      "latmax": 50.89482128106411, 
      "name": "Spoorweglaan", 
      "lonmin": 4.0673388317896535, 
      "sanName": "spoorweglaan", 
      "numOfAddr": 36, 
      "lonmax": 4.071804735298724, 
      "latmin": 50.8929118901425
    }, 
    {
      "latmax": 50.893350752131425, 
      "name": "Sportstraat", 
      "lonmin": 4.0732333113396635, 
      "sanName": "sportstraat", 
      "numOfAddr": 20, 
      "lonmax": 4.074231047167616, 
      "latmin": 50.89242362964768
    }, 
    {
      "latmax": 50.8844150299596, 
      "name": "Stadionlaan", 
      "lonmin": 4.073420111833443, 
      "sanName": "stadionlaan", 
      "numOfAddr": 1, 
      "lonmax": 4.073420111833443, 
      "latmin": 50.8844150299596
    }, 
    {
      "latmax": 50.892385523322424, 
      "name": "Stationsplein", 
      "lonmin": 4.071366173024952, 
      "sanName": "stationsplein", 
      "numOfAddr": 10, 
      "lonmax": 4.072774240559583, 
      "latmin": 50.89184613249348
    }, 
    {
      "latmax": 50.89336163821152, 
      "name": "Stationsstraat", 
      "lonmin": 4.072242791342103, 
      "sanName": "stationsstraat", 
      "numOfAddr": 56, 
      "lonmax": 4.075585569965002, 
      "latmin": 50.89046128510696
    }, 
    {
      "latmax": 50.89558155107146, 
      "name": "Steenveldlaan", 
      "lonmin": 4.0519478924026044, 
      "sanName": "steenveldlaan", 
      "numOfAddr": 19, 
      "lonmax": 4.060007610269595, 
      "latmin": 50.89050222432276
    }, 
    {
      "latmax": 50.904722327630566, 
      "name": "Steenweg", 
      "lonmin": 4.055046851320958, 
      "sanName": "steenweg", 
      "numOfAddr": 240, 
      "lonmax": 4.064194488080258, 
      "latmin": 50.87308917296167
    }, 
    {
      "latmax": 50.89653612883473, 
      "name": "Sterrenboslaan", 
      "lonmin": 4.07163588875818, 
      "sanName": "sterrenboslaan", 
      "numOfAddr": 32, 
      "lonmax": 4.075308576777517, 
      "latmin": 50.894534242710094
    }, 
    {
      "latmax": 50.888085150287246, 
      "name": "Stopweg", 
      "lonmin": 4.076304763021628, 
      "sanName": "stopweg", 
      "numOfAddr": 3, 
      "lonmax": 4.0764739761678905, 
      "latmin": 50.88739169059871
    }, 
    {
      "latmax": 50.8935218443624, 
      "name": "Ten Kouter", 
      "lonmin": 4.063046736271337, 
      "sanName": "tenkouter", 
      "numOfAddr": 30, 
      "lonmax": 4.064649393307153, 
      "latmin": 50.89241050594641
    }, 
    {
      "latmax": 50.876822003495896, 
      "name": "Th. de Bolsterstraat", 
      "lonmin": 4.076253884469368, 
      "sanName": "thdebolsterstraat", 
      "numOfAddr": 14, 
      "lonmax": 4.077355156545184, 
      "latmin": 50.87618012975119
    }, 
    {
      "latmax": 50.8894477380492, 
      "name": "Th.de Cleynlaan", 
      "lonmin": 4.0714646277991395, 
      "sanName": "thdecleynlaan", 
      "numOfAddr": 64, 
      "lonmax": 4.074995743095845, 
      "latmin": 50.887872643642204
    }, 
    {
      "latmax": 50.89005354339799, 
      "name": "Thontlaan", 
      "lonmin": 4.076207918687478, 
      "sanName": "thontlaan", 
      "numOfAddr": 8, 
      "lonmax": 4.0782931579442705, 
      "latmin": 50.88881393693646
    }, 
    {
      "latmax": 50.88042713068046, 
      "name": "Toekomststraat", 
      "lonmin": 4.0723103441279225, 
      "sanName": "toekomststraat", 
      "numOfAddr": 75, 
      "lonmax": 4.075223746749451, 
      "latmin": 50.87612661604319
    }, 
    {
      "latmax": 50.879507756173254, 
      "name": "Trapstraat", 
      "lonmin": 4.076530991209435, 
      "sanName": "trapstraat", 
      "numOfAddr": 43, 
      "lonmax": 4.078156572879774, 
      "latmin": 50.87677873667901
    }, 
    {
      "latmax": 50.894198643750265, 
      "name": "Tulpenlaan", 
      "lonmin": 4.069772412161373, 
      "sanName": "tulpenlaan", 
      "numOfAddr": 15, 
      "lonmax": 4.070839525124614, 
      "latmin": 50.893409715486136
    }, 
    {
      "latmax": 50.88536867815244, 
      "name": "Valkstraat", 
      "lonmin": 4.076640905881773, 
      "sanName": "valkstraat", 
      "numOfAddr": 20, 
      "lonmax": 4.078084703216969, 
      "latmin": 50.88475298958658
    }, 
    {
      "latmax": 50.89470869177649, 
      "name": "Van Lierdestraat", 
      "lonmin": 4.072540574965399, 
      "sanName": "vanlierdestraat", 
      "numOfAddr": 54, 
      "lonmax": 4.075972788466824, 
      "latmin": 50.893440292481614
    }, 
    {
      "latmax": 50.87531962840577, 
      "name": "Veldekensweg", 
      "lonmin": 4.0737686119993795, 
      "sanName": "veldekensweg", 
      "numOfAddr": 14, 
      "lonmax": 4.075573569802237, 
      "latmin": 50.87477165295823
    }, 
    {
      "latmax": 50.88554771073796, 
      "name": "Veldstraat", 
      "lonmin": 4.064305704980679, 
      "sanName": "veldstraat", 
      "numOfAddr": 102, 
      "lonmax": 4.0741212885670075, 
      "latmin": 50.88417067634102
    }, 
    {
      "latmax": 50.88663622702401, 
      "name": "Vijfhoekstraat", 
      "lonmin": 4.069204341628505, 
      "sanName": "vijfhoekstraat", 
      "numOfAddr": 27, 
      "lonmax": 4.070989011334412, 
      "latmin": 50.88537313201189
    }, 
    {
      "latmax": 50.88013056220944, 
      "name": "Vinkenstraat", 
      "lonmin": 4.060167399244999, 
      "sanName": "vinkenstraat", 
      "numOfAddr": 6, 
      "lonmax": 4.060942149186508, 
      "latmin": 50.87986730872245
    }, 
    {
      "latmax": 50.89666889824076, 
      "name": "Vissersstraat", 
      "lonmin": 4.068363842502738, 
      "sanName": "vissersstraat", 
      "numOfAddr": 38, 
      "lonmax": 4.0706058832398195, 
      "latmin": 50.89525211661164
    }, 
    {
      "latmax": 50.877437366619965, 
      "name": "Vrijheidsstraat", 
      "lonmin": 4.069616077275404, 
      "sanName": "vrijheidsstraat", 
      "numOfAddr": 51, 
      "lonmax": 4.073491745860363, 
      "latmin": 50.87567105825818
    }, 
    {
      "latmax": 50.884554055392755, 
      "name": "Walleken", 
      "lonmin": 4.064147510407753, 
      "sanName": "walleken", 
      "numOfAddr": 3, 
      "lonmax": 4.069942216791617, 
      "latmin": 50.88268311415291
    }, 
    {
      "latmax": 50.88572238621795, 
      "name": "Warandestraat", 
      "lonmin": 4.066401160980928, 
      "sanName": "warandestraat", 
      "numOfAddr": 10, 
      "lonmax": 4.067572593272631, 
      "latmin": 50.88490268928464
    }, 
    {
      "latmax": 50.897089427054226, 
      "name": "Wellestraat", 
      "lonmin": 4.060715104984204, 
      "sanName": "wellestraat", 
      "numOfAddr": 22, 
      "lonmax": 4.063653883635321, 
      "latmin": 50.89550424890654
    }, 
    {
      "latmax": 50.895268396814394, 
      "name": "Wijmenierlaan", 
      "lonmin": 4.075403538242124, 
      "sanName": "wijmenierlaan", 
      "numOfAddr": 29, 
      "lonmax": 4.078451082200114, 
      "latmin": 50.89305194983226
    }, 
    {
      "latmax": 50.87970530830471, 
      "name": "Wijngaardstraat", 
      "lonmin": 4.061800549978947, 
      "sanName": "wijngaardstraat", 
      "numOfAddr": 41, 
      "lonmax": 4.065411268712184, 
      "latmin": 50.87792893494044
    }, 
    {
      "latmax": 50.887434483654225, 
      "name": "Witte Wilgenlaan", 
      "lonmin": 4.0661067646218925, 
      "sanName": "wittewilgenlaan", 
      "numOfAddr": 22, 
      "lonmax": 4.068646227532073, 
      "latmin": 50.88666564930599
    }, 
    {
      "latmax": 50.878267260232285, 
      "name": "Wolfsgracht", 
      "lonmin": 4.065579927246612, 
      "sanName": "wolfsgracht", 
      "numOfAddr": 5, 
      "lonmax": 4.0662255846802875, 
      "latmin": 50.878046703438336
    }, 
    {
      "latmax": 50.88014454249754, 
      "name": "Zandplaatstraat", 
      "lonmin": 4.0764526996305115, 
      "sanName": "zandplaatstraat", 
      "numOfAddr": 105, 
      "lonmax": 4.079179121240285, 
      "latmin": 50.87498569807615
    }, 
    {
      "latmax": 50.87521112315595, 
      "name": "Zonnestraat", 
      "lonmin": 4.070136563592502, 
      "sanName": "zonnestraat", 
      "numOfAddr": 49, 
      "lonmax": 4.073202058310044, 
      "latmin": 50.87345018543213
    }
  ]
}