{
  "streets": [
    {
      "latmax": 50.77493389014864, 
      "name": "Abdijstraat", 
      "lonmin": 3.882782605360443, 
      "sanName": "abdijstraat", 
      "numOfAddr": 50, 
      "lonmax": 3.8865527707602445, 
      "latmin": 50.7735751876173
    }, 
    {
      "latmax": 50.76538529804069, 
      "name": "Acasiastraat", 
      "lonmin": 3.861376704629767, 
      "sanName": "acasiastraat", 
      "numOfAddr": 19, 
      "lonmax": 3.8630189231869716, 
      "latmin": 50.76429226816688
    }, 
    {
      "latmax": 50.7716772299737, 
      "name": "Adamstraat", 
      "lonmin": 3.8732977450484176, 
      "sanName": "adamstraat", 
      "numOfAddr": 39, 
      "lonmax": 3.8742593638135827, 
      "latmin": 50.770576387766745
    }, 
    {
      "latmax": 50.74276649886487, 
      "name": "Akrenstraat", 
      "lonmin": 3.899395081499446, 
      "sanName": "akrenstraat", 
      "numOfAddr": 119, 
      "lonmax": 3.9209717005612785, 
      "latmin": 50.73581105923552
    }, 
    {
      "latmax": 50.821784432936475, 
      "name": "Alfonslaan", 
      "lonmin": 3.893107525599084, 
      "sanName": "alfonslaan", 
      "numOfAddr": 82, 
      "lonmax": 3.900020513327977, 
      "latmin": 50.817183653163255
    }, 
    {
      "latmax": 50.74390347720397, 
      "name": "Amandusplein", 
      "lonmin": 3.929187605347825, 
      "sanName": "amandusplein", 
      "numOfAddr": 13, 
      "lonmax": 3.9300434405046283, 
      "latmin": 50.743160190344106
    }, 
    {
      "latmax": 50.76386269053563, 
      "name": "Appelstraat", 
      "lonmin": 3.865500678253579, 
      "sanName": "appelstraat", 
      "numOfAddr": 13, 
      "lonmax": 3.8659787979257736, 
      "latmin": 50.76354290302143
    }, 
    {
      "latmax": 50.75215681751535, 
      "name": "Arduinbos", 
      "lonmin": 3.8872218333370103, 
      "sanName": "arduinbos", 
      "numOfAddr": 1, 
      "lonmax": 3.8872218333370103, 
      "latmin": 50.75215681751535
    }, 
    {
      "latmax": 50.79608572031395, 
      "name": "Astridlaan", 
      "lonmin": 3.8667656251844016, 
      "sanName": "astridlaan", 
      "numOfAddr": 150, 
      "lonmax": 3.87571491671172, 
      "latmin": 50.76674673008058
    }, 
    {
      "latmax": 50.768966931229116, 
      "name": "Atembekestraat", 
      "lonmin": 3.910432333122541, 
      "sanName": "atembekestraat", 
      "numOfAddr": 137, 
      "lonmax": 3.917430289419591, 
      "latmin": 50.75627099866376
    }, 
    {
      "latmax": 50.78205065245327, 
      "name": "Atembekeweg", 
      "lonmin": 3.911498571478309, 
      "sanName": "atembekeweg", 
      "numOfAddr": 26, 
      "lonmax": 3.9181479212309727, 
      "latmin": 50.76924991588113
    }, 
    {
      "latmax": 50.765011403645744, 
      "name": "Baljuwstraat", 
      "lonmin": 3.8880551831384067, 
      "sanName": "baljuwstraat", 
      "numOfAddr": 26, 
      "lonmax": 3.8904804625463463, 
      "latmin": 50.76360595309765
    }, 
    {
      "latmax": 50.77205030172307, 
      "name": "Begijnhofkaai", 
      "lonmin": 3.879335703072458, 
      "sanName": "begijnhofkaai", 
      "numOfAddr": 3, 
      "lonmax": 3.879469047382167, 
      "latmin": 50.77183355678541
    }, 
    {
      "latmax": 50.742255710769676, 
      "name": "Beverstraat", 
      "lonmin": 3.9274528940231375, 
      "sanName": "beverstraat", 
      "numOfAddr": 55, 
      "lonmax": 3.9325099960513055, 
      "latmin": 50.730501742422796
    }, 
    {
      "latmax": 50.820955869285434, 
      "name": "Bildeken", 
      "lonmin": 3.8911552887266336, 
      "sanName": "bildeken", 
      "numOfAddr": 36, 
      "lonmax": 3.8933976591231896, 
      "latmin": 50.81741099766628
    }, 
    {
      "latmax": 50.75793394449892, 
      "name": "Boelarebos", 
      "lonmin": 3.8689929328879815, 
      "sanName": "boelarebos", 
      "numOfAddr": 10, 
      "lonmax": 3.8704469959526366, 
      "latmin": 50.756846056405635
    }, 
    {
      "latmax": 50.77640647963834, 
      "name": "Boelarestraat", 
      "lonmin": 3.8820270521623197, 
      "sanName": "boelarestraat", 
      "numOfAddr": 55, 
      "lonmax": 3.8828299435237845, 
      "latmin": 50.773707619837424
    }, 
    {
      "latmax": 50.770840184539104, 
      "name": "Boerenhol", 
      "lonmin": 3.883724662935563, 
      "sanName": "boerenhol", 
      "numOfAddr": 7, 
      "lonmax": 3.883951698950468, 
      "latmin": 50.770686282947075
    }, 
    {
      "latmax": 50.813481961850044, 
      "name": "Boesberg", 
      "lonmin": 3.900509769616134, 
      "sanName": "boesberg", 
      "numOfAddr": 9, 
      "lonmax": 3.902551901512132, 
      "latmin": 50.812493497933396
    }, 
    {
      "latmax": 50.773638529520206, 
      "name": "Bokerstraat", 
      "lonmin": 3.8830685070920574, 
      "sanName": "bokerstraat", 
      "numOfAddr": 19, 
      "lonmax": 3.8841723152788834, 
      "latmin": 50.77307584903266
    }, 
    {
      "latmax": 50.76764645617562, 
      "name": "Boogstraat", 
      "lonmin": 3.849074163875313, 
      "sanName": "boogstraat", 
      "numOfAddr": 11, 
      "lonmax": 3.850604189932386, 
      "latmin": 50.76678558762198
    }, 
    {
      "latmax": 50.78567903097868, 
      "name": "Bosstraat", 
      "lonmin": 3.917594097457466, 
      "sanName": "bosstraat", 
      "numOfAddr": 107, 
      "lonmax": 3.9236018897116747, 
      "latmin": 50.781088261055956
    }, 
    {
      "latmax": 50.78737374322175, 
      "name": "Botermelkstraat", 
      "lonmin": 3.9075742555673845, 
      "sanName": "botermelkstraat", 
      "numOfAddr": 70, 
      "lonmax": 3.916276483655023, 
      "latmin": 50.78552997024306
    }, 
    {
      "latmax": 50.820745496326666, 
      "name": "Brambroek", 
      "lonmin": 3.865881096181473, 
      "sanName": "brambroek", 
      "numOfAddr": 45, 
      "lonmax": 3.883015312505141, 
      "latmin": 50.819444994661644
    }, 
    {
      "latmax": 50.77110402727281, 
      "name": "Brandstraat", 
      "lonmin": 3.881641396112446, 
      "sanName": "brandstraat", 
      "numOfAddr": 10, 
      "lonmax": 3.8938125178762726, 
      "latmin": 50.77067782111654
    }, 
    {
      "latmax": 50.771520246742284, 
      "name": "Brandveld", 
      "lonmin": 3.893473391063582, 
      "sanName": "brandveld", 
      "numOfAddr": 22, 
      "lonmax": 3.895894118606589, 
      "latmin": 50.77035054633149
    }, 
    {
      "latmax": 50.78577918474812, 
      "name": "Breekpot", 
      "lonmin": 3.9091805368137544, 
      "sanName": "breekpot", 
      "numOfAddr": 24, 
      "lonmax": 3.9121283713787163, 
      "latmin": 50.783697851992926
    }, 
    {
      "latmax": 50.83115280554695, 
      "name": "Breestraat", 
      "lonmin": 3.8807534148936984, 
      "sanName": "breestraat", 
      "numOfAddr": 11, 
      "lonmax": 3.895397749431875, 
      "latmin": 50.82530540899112
    }, 
    {
      "latmax": 50.76384304570968, 
      "name": "Broekstraat", 
      "lonmin": 3.882635258619426, 
      "sanName": "broekstraat", 
      "numOfAddr": 21, 
      "lonmax": 3.8840996526212606, 
      "latmin": 50.76296697161094
    }, 
    {
      "latmax": 50.7682391726993, 
      "name": "Brouwershof", 
      "lonmin": 3.8732966915807316, 
      "sanName": "brouwershof", 
      "numOfAddr": 11, 
      "lonmax": 3.8747835447577867, 
      "latmin": 50.767538813456156
    }, 
    {
      "latmax": 50.7724629407681, 
      "name": "Brouwierstraat", 
      "lonmin": 2.306689562140502, 
      "sanName": "brouwierstraat", 
      "numOfAddr": 37, 
      "lonmax": 3.8217956004913693, 
      "latmin": 49.293335165093566
    }, 
    {
      "latmax": 50.77172589093057, 
      "name": "Brugstraat", 
      "lonmin": 3.8804292969902234, 
      "sanName": "brugstraat", 
      "numOfAddr": 35, 
      "lonmax": 3.882021576859773, 
      "latmin": 50.77099982896075
    }, 
    {
      "latmax": 50.77510633910036, 
      "name": "Brusselsestraat", 
      "lonmin": 3.8986596291435305, 
      "sanName": "brusselsestraat", 
      "numOfAddr": 83, 
      "lonmax": 3.9210252571766144, 
      "latmin": 50.7673379080699
    }, 
    {
      "latmax": 50.77087563238601, 
      "name": "Buizemontstraat", 
      "lonmin": 3.881191039931383, 
      "sanName": "buizemontstraat", 
      "numOfAddr": 235, 
      "lonmax": 3.8835735547019987, 
      "latmin": 50.765357938416074
    }, 
    {
      "latmax": 50.76293712336119, 
      "name": "Burgstraat", 
      "lonmin": 3.8621657284220654, 
      "sanName": "burgstraat", 
      "numOfAddr": 29, 
      "lonmax": 3.862959408668209, 
      "latmin": 50.76232399137847
    }, 
    {
      "latmax": 50.747552262928195, 
      "name": "Clausenweg", 
      "lonmin": 3.8898541033647978, 
      "sanName": "clausenweg", 
      "numOfAddr": 1, 
      "lonmax": 3.8898541033647978, 
      "latmin": 50.747552262928195
    }, 
    {
      "latmax": 50.79640062697898, 
      "name": "Dagmoedstraat", 
      "lonmin": 3.883590733181498, 
      "sanName": "dagmoedstraat", 
      "numOfAddr": 1, 
      "lonmax": 3.883590733181498, 
      "latmin": 50.79640062697898
    }, 
    {
      "latmax": 50.79214018358007, 
      "name": "De Dijk", 
      "lonmin": 3.926585992641745, 
      "sanName": "dedijk", 
      "numOfAddr": 2, 
      "lonmax": 3.9269435557310497, 
      "latmin": 50.792078961537094
    }, 
    {
      "latmax": 50.75520856605263, 
      "name": "Denderoordstraat", 
      "lonmin": 3.8673740237627383, 
      "sanName": "denderoordstraat", 
      "numOfAddr": 28, 
      "lonmax": 3.870768057555631, 
      "latmin": 50.751896579331095
    }, 
    {
      "latmax": 50.773741966284845, 
      "name": "Denderstraat", 
      "lonmin": 3.8795468892156717, 
      "sanName": "denderstraat", 
      "numOfAddr": 46, 
      "lonmax": 3.8823885769310498, 
      "latmin": 50.77317190994043
    }, 
    {
      "latmax": 50.79201530013373, 
      "name": "Diebeke", 
      "lonmin": 3.8776481844258157, 
      "sanName": "diebeke", 
      "numOfAddr": 4, 
      "lonmax": 3.8824406632822126, 
      "latmin": 50.78821735224956
    }, 
    {
      "latmax": 50.770587576188774, 
      "name": "Dierkoststraat", 
      "lonmin": 3.883088355510522, 
      "sanName": "dierkoststraat", 
      "numOfAddr": 21, 
      "lonmax": 3.8841492256086387, 
      "latmin": 50.77002114783121
    }, 
    {
      "latmax": 50.73587798025614, 
      "name": "Dieveketse", 
      "lonmin": 3.9404613833885214, 
      "sanName": "dieveketse", 
      "numOfAddr": 7, 
      "lonmax": 3.9430843011505066, 
      "latmin": 50.7316758811851
    }, 
    {
      "latmax": 50.762079926762006, 
      "name": "Dokter Derolaan", 
      "lonmin": 3.9007609747612584, 
      "sanName": "dokterderolaan", 
      "numOfAddr": 32, 
      "lonmax": 3.905050760649588, 
      "latmin": 50.75981337922964
    }, 
    {
      "latmax": 50.744325988925894, 
      "name": "Dommelstraat", 
      "lonmin": 3.82849783151576, 
      "sanName": "dommelstraat", 
      "numOfAddr": 2, 
      "lonmax": 3.840451465093661, 
      "latmin": 50.74278714652172
    }, 
    {
      "latmax": 50.75632114798634, 
      "name": "Donkerstraat", 
      "lonmin": 3.8329710859637993, 
      "sanName": "donkerstraat", 
      "numOfAddr": 51, 
      "lonmax": 3.844343907136977, 
      "latmin": 50.75057314145461
    }, 
    {
      "latmax": 50.81418335040632, 
      "name": "Doornkouter", 
      "lonmin": 3.8798723777295456, 
      "sanName": "doornkouter", 
      "numOfAddr": 2, 
      "lonmax": 3.8802724883058644, 
      "latmin": 50.8140425225482
    }, 
    {
      "latmax": 50.76549473006786, 
      "name": "Doornweg", 
      "lonmin": 3.888370742857138, 
      "sanName": "doornweg", 
      "numOfAddr": 2, 
      "lonmax": 3.889072142553694, 
      "latmin": 50.76541256750455
    }, 
    {
      "latmax": 50.76895948214649, 
      "name": "Dreef", 
      "lonmin": 3.9050525440561135, 
      "sanName": "dreef", 
      "numOfAddr": 58, 
      "lonmax": 3.9143253046368263, 
      "latmin": 50.76335460990502
    }, 
    {
      "latmax": 50.774059320026566, 
      "name": "Driepikkel", 
      "lonmin": 3.892039590158719, 
      "sanName": "driepikkel", 
      "numOfAddr": 4, 
      "lonmax": 3.8921412528105597, 
      "latmin": 50.773947971784494
    }, 
    {
      "latmax": 50.773413126368965, 
      "name": "Duitsenbroekstraat", 
      "lonmin": 3.8493409364628475, 
      "sanName": "duitsenbroekstraat", 
      "numOfAddr": 48, 
      "lonmax": 3.856133456414974, 
      "latmin": 50.764480821217724
    }, 
    {
      "latmax": 50.771095439156554, 
      "name": "Duivenstraat", 
      "lonmin": 3.8821064849285474, 
      "sanName": "duivenstraat", 
      "numOfAddr": 23, 
      "lonmax": 3.882501316171121, 
      "latmin": 50.77055746617073
    }, 
    {
      "latmax": 50.773439972446425, 
      "name": "Dutskouter", 
      "lonmin": 3.860800982893229, 
      "sanName": "dutskouter", 
      "numOfAddr": 27, 
      "lonmax": 3.863732858260133, 
      "latmin": 50.77007885769961
    }, 
    {
      "latmax": 50.77421859149804, 
      "name": "Edingseweg", 
      "lonmin": 3.89293786360848, 
      "sanName": "edingseweg", 
      "numOfAddr": 409, 
      "lonmax": 3.9516419666402247, 
      "latmin": 50.734359759333906
    }, 
    {
      "latmax": 50.75659652225958, 
      "name": "Eekhoutweg", 
      "lonmin": 3.853055953751871, 
      "sanName": "eekhoutweg", 
      "numOfAddr": 1, 
      "lonmax": 3.853055953751871, 
      "latmin": 50.75659652225958
    }, 
    {
      "latmax": 50.77254740179335, 
      "name": "Eersbekeweg", 
      "lonmin": 3.840129117059516, 
      "sanName": "eersbekeweg", 
      "numOfAddr": 35, 
      "lonmax": 3.8513219870586997, 
      "latmin": 50.76695274395635
    }, 
    {
      "latmax": 50.77246173524715, 
      "name": "Elzenstraat", 
      "lonmin": 3.8364547523784256, 
      "sanName": "elzenstraat", 
      "numOfAddr": 57, 
      "lonmax": 3.841652629687701, 
      "latmin": 50.767478998910704
    }, 
    {
      "latmax": 50.73976853571235, 
      "name": "Embeke", 
      "lonmin": 3.9380179189116062, 
      "sanName": "embeke", 
      "numOfAddr": 43, 
      "lonmax": 3.9463934850623668, 
      "latmin": 50.73553637011403
    }, 
    {
      "latmax": 50.7726599177121, 
      "name": "Ezelberg", 
      "lonmin": 3.8721900002220453, 
      "sanName": "ezelberg", 
      "numOfAddr": 3, 
      "lonmax": 3.8723037742085538, 
      "latmin": 50.77242325971715
    }, 
    {
      "latmax": 50.766048192796696, 
      "name": "Fabriekstraat", 
      "lonmin": 3.867317737605142, 
      "sanName": "fabriekstraat", 
      "numOfAddr": 18, 
      "lonmax": 3.8683512812599288, 
      "latmin": 50.76540515546239
    }, 
    {
      "latmax": 50.77673857756621, 
      "name": "Felicien Cauwelstraat", 
      "lonmin": 3.8654487400686692, 
      "sanName": "feliciencauwelstraat", 
      "numOfAddr": 77, 
      "lonmax": 3.8719112851844977, 
      "latmin": 50.775126507031686
    }, 
    {
      "latmax": 50.776439043721595, 
      "name": "Frans Renswijk", 
      "lonmin": 3.8800102550725626, 
      "sanName": "fransrenswijk", 
      "numOfAddr": 40, 
      "lonmax": 3.881483565123156, 
      "latmin": 50.77575871962548
    }, 
    {
      "latmax": 50.774218715427004, 
      "name": "Gaffelstraat", 
      "lonmin": 3.8749509318573248, 
      "sanName": "gaffelstraat", 
      "numOfAddr": 86, 
      "lonmax": 3.878188805499167, 
      "latmin": 50.77357714142534
    }, 
    {
      "latmax": 50.826398083716, 
      "name": "Gapenberg", 
      "lonmin": 3.8785994893959246, 
      "sanName": "gapenberg", 
      "numOfAddr": 48, 
      "lonmax": 3.883669624306515, 
      "latmin": 50.82040597691142
    }, 
    {
      "latmax": 50.77152104137877, 
      "name": "Gasthuisstraat", 
      "lonmin": 2.306689562140502, 
      "sanName": "gasthuisstraat", 
      "numOfAddr": 134, 
      "lonmax": 3.8774942856824386, 
      "latmin": 49.293335165093566
    }, 
    {
      "latmax": 50.76483506987554, 
      "name": "Gaverstraat", 
      "lonmin": 3.8647286445112816, 
      "sanName": "gaverstraat", 
      "numOfAddr": 167, 
      "lonmax": 3.8812065721608175, 
      "latmin": 50.7558391814469
    }, 
    {
      "latmax": 50.787274890953704, 
      "name": "Gelategem", 
      "lonmin": 3.813517953483715, 
      "sanName": "gelategem", 
      "numOfAddr": 7, 
      "lonmax": 3.8167809631793497, 
      "latmin": 50.78117253208603
    }, 
    {
      "latmax": 50.75568548925389, 
      "name": "Gelembekestraat", 
      "lonmin": 3.8295345738053728, 
      "sanName": "gelembekestraat", 
      "numOfAddr": 12, 
      "lonmax": 3.8347380465756795, 
      "latmin": 50.75025774529489
    }, 
    {
      "latmax": 50.77058746688509, 
      "name": "Gemeentestraat", 
      "lonmin": 3.8516660183219695, 
      "sanName": "gemeentestraat", 
      "numOfAddr": 99, 
      "lonmax": 3.867486365838771, 
      "latmin": 50.76717816054341
    }, 
    {
      "latmax": 50.78339488689595, 
      "name": "Gemeldorpseweg", 
      "lonmin": 3.870223999323851, 
      "sanName": "gemeldorpseweg", 
      "numOfAddr": 6, 
      "lonmax": 3.871845431589266, 
      "latmin": 50.7817434472813
    }, 
    {
      "latmax": 50.78034253050696, 
      "name": "Gentsestraat", 
      "lonmin": 3.8739006659350097, 
      "sanName": "gentsestraat", 
      "numOfAddr": 220, 
      "lonmax": 3.87638594879083, 
      "latmin": 50.77295605678654
    }, 
    {
      "latmax": 50.75381385846228, 
      "name": "Ghoyse Marktweg", 
      "lonmin": 3.84142595096068, 
      "sanName": "ghoysemarktweg", 
      "numOfAddr": 2, 
      "lonmax": 3.845750976214175, 
      "latmin": 50.752188601926036
    }, 
    {
      "latmax": 50.76726245489758, 
      "name": "Goeferdingeplein", 
      "lonmin": 3.8414980365464486, 
      "sanName": "goeferdingeplein", 
      "numOfAddr": 17, 
      "lonmax": 3.84394504661021, 
      "latmin": 50.76594103033487
    }, 
    {
      "latmax": 50.82270184746692, 
      "name": "Gote", 
      "lonmin": 3.89900537789551, 
      "sanName": "gote", 
      "numOfAddr": 29, 
      "lonmax": 3.9043568016447074, 
      "latmin": 50.82156265389721
    }, 
    {
      "latmax": 50.77085731915316, 
      "name": "Groendal", 
      "lonmin": 3.8920409839359684, 
      "sanName": "groendal", 
      "numOfAddr": 47, 
      "lonmax": 3.8952347848515414, 
      "latmin": 50.76824300567423
    }, 
    {
      "latmax": 50.78032126544237, 
      "name": "Groendreef", 
      "lonmin": 3.8721953463906273, 
      "sanName": "groendreef", 
      "numOfAddr": 4, 
      "lonmax": 3.8731546791952485, 
      "latmin": 50.78010010207983
    }, 
    {
      "latmax": 50.77205447820868, 
      "name": "Grotestraat", 
      "lonmin": 3.876314925140816, 
      "sanName": "grotestraat", 
      "numOfAddr": 68, 
      "lonmax": 3.879553660309755, 
      "latmin": 50.77122990013028
    }, 
    {
      "latmax": 50.76788404516102, 
      "name": "Groteweg", 
      "lonmin": 3.844342326793477, 
      "sanName": "groteweg", 
      "numOfAddr": 451, 
      "lonmax": 3.872632480368288, 
      "latmin": 50.746909291963874
    }, 
    {
      "latmax": 50.77208450737892, 
      "name": "Guilleminlaan", 
      "lonmin": 3.8779093338926502, 
      "sanName": "guilleminlaan", 
      "numOfAddr": 125, 
      "lonmax": 3.8942105605022643, 
      "latmin": 50.76458842617575
    }, 
    {
      "latmax": 50.76959486894246, 
      "name": "Halleweg", 
      "lonmin": 3.889937437413038, 
      "sanName": "halleweg", 
      "numOfAddr": 10, 
      "lonmax": 3.897933022756232, 
      "latmin": 50.767368808371465
    }, 
    {
      "latmax": 50.819534743395025, 
      "name": "Hasseltkouter", 
      "lonmin": 3.870717523683241, 
      "sanName": "hasseltkouter", 
      "numOfAddr": 28, 
      "lonmax": 3.881646072134482, 
      "latmin": 50.81575268053066
    }, 
    {
      "latmax": 50.82374630296427, 
      "name": "Hasseltsestraat", 
      "lonmin": 3.8938725708831674, 
      "sanName": "hasseltsestraat", 
      "numOfAddr": 45, 
      "lonmax": 3.9026795599498048, 
      "latmin": 50.82050662300551
    }, 
    {
      "latmax": 50.77687875992935, 
      "name": "Hazelaarstraat", 
      "lonmin": 3.857218428631936, 
      "sanName": "hazelaarstraat", 
      "numOfAddr": 16, 
      "lonmax": 3.8593950154765038, 
      "latmin": 50.77533720007666
    }, 
    {
      "latmax": 50.772925960020785, 
      "name": "Hazendans", 
      "lonmin": 3.9258476097504156, 
      "sanName": "hazendans", 
      "numOfAddr": 1, 
      "lonmax": 3.9258476097504156, 
      "latmin": 50.772925960020785
    }, 
    {
      "latmax": 50.824757875181426, 
      "name": "Heikouter", 
      "lonmin": 3.869899832253628, 
      "sanName": "heikouter", 
      "numOfAddr": 2, 
      "lonmax": 3.8709926976018996, 
      "latmin": 50.82371293985018
    }, 
    {
      "latmax": 50.79672431164185, 
      "name": "Herenveld", 
      "lonmin": 3.883255340274423, 
      "sanName": "herenveld", 
      "numOfAddr": 1, 
      "lonmax": 3.883255340274423, 
      "latmin": 50.79672431164185
    }, 
    {
      "latmax": 50.75500401021626, 
      "name": "Heuvelstraat", 
      "lonmin": 3.8975405530884455, 
      "sanName": "heuvelstraat", 
      "numOfAddr": 129, 
      "lonmax": 3.918586185503767, 
      "latmin": 50.74781658301344
    }, 
    {
      "latmax": 50.76581503012234, 
      "name": "Hoge Buizemont", 
      "lonmin": 3.871957888948375, 
      "sanName": "hogebuizemont", 
      "numOfAddr": 233, 
      "lonmax": 3.8882328397948243, 
      "latmin": 50.74904147910454
    }, 
    {
      "latmax": 50.76677384433153, 
      "name": "Hogeweg", 
      "lonmin": 3.8537104325559306, 
      "sanName": "hogeweg", 
      "numOfAddr": 118, 
      "lonmax": 3.866722985290031, 
      "latmin": 50.763608776788786
    }, 
    {
      "latmax": 50.83679082068078, 
      "name": "Hoog Waterloos", 
      "lonmin": 3.8956477180311735, 
      "sanName": "hoogwaterloos", 
      "numOfAddr": 16, 
      "lonmax": 3.900532217402338, 
      "latmin": 50.833377853473976
    }, 
    {
      "latmax": 50.77195727783419, 
      "name": "Hooiweg", 
      "lonmin": 3.8856194921649436, 
      "sanName": "hooiweg", 
      "numOfAddr": 3, 
      "lonmax": 3.886373853019328, 
      "latmin": 50.77181869466288
    }, 
    {
      "latmax": 50.76818791953456, 
      "name": "Hunnegemstraat", 
      "lonmin": 3.8726353447352566, 
      "sanName": "hunnegemstraat", 
      "numOfAddr": 50, 
      "lonmax": 3.8735751502130076, 
      "latmin": 50.766865114911646
    }, 
    {
      "latmax": 50.77312066210214, 
      "name": "Kaai", 
      "lonmin": 3.879688417014265, 
      "sanName": "kaai", 
      "numOfAddr": 16, 
      "lonmax": 3.880511757238413, 
      "latmin": 50.77174031543815
    }, 
    {
      "latmax": 50.78257628447222, 
      "name": "Kalenberg", 
      "lonmin": 3.808132756986931, 
      "sanName": "kalenberg", 
      "numOfAddr": 10, 
      "lonmax": 3.8112082218638044, 
      "latmin": 50.77875043621249
    }, 
    {
      "latmax": 50.75283569188266, 
      "name": "Kalvariestraat", 
      "lonmin": 3.893808922293718, 
      "sanName": "kalvariestraat", 
      "numOfAddr": 20, 
      "lonmax": 3.8987386272624507, 
      "latmin": 50.750913241720795
    }, 
    {
      "latmax": 50.794103318082065, 
      "name": "Kampstraat", 
      "lonmin": 3.902648700437601, 
      "sanName": "kampstraat", 
      "numOfAddr": 69, 
      "lonmax": 3.910836402944737, 
      "latmin": 50.78319014373839
    }, 
    {
      "latmax": 50.763500760530924, 
      "name": "Kanakkendries", 
      "lonmin": 3.8277244139539994, 
      "sanName": "kanakkendries", 
      "numOfAddr": 46, 
      "lonmax": 3.8349298335686144, 
      "latmin": 50.76261423254094
    }, 
    {
      "latmax": 50.768273419494946, 
      "name": "Kapellestraat", 
      "lonmin": 3.9211849585472764, 
      "sanName": "kapellestraat", 
      "numOfAddr": 42, 
      "lonmax": 3.932726655436925, 
      "latmin": 50.767235747844616
    }, 
    {
      "latmax": 50.75214581946398, 
      "name": "Karel L. De Lensstraat", 
      "lonmin": 3.8943573904839415, 
      "sanName": "karelldelensstraat", 
      "numOfAddr": 19, 
      "lonmax": 3.89873682777722, 
      "latmin": 50.75036498111324
    }, 
    {
      "latmax": 50.76439343659957, 
      "name": "Karkoolstraat", 
      "lonmin": 3.9155259401442946, 
      "sanName": "karkoolstraat", 
      "numOfAddr": 26, 
      "lonmax": 3.918214049586334, 
      "latmin": 50.76323298332697
    }, 
    {
      "latmax": 50.77532978562897, 
      "name": "Karmelietengracht", 
      "lonmin": 3.8748229497724305, 
      "sanName": "karmelietengracht", 
      "numOfAddr": 5, 
      "lonmax": 3.875022942735306, 
      "latmin": 50.77521576080126
    }, 
    {
      "latmax": 50.77457326639419, 
      "name": "Karmelietenstraat", 
      "lonmin": 3.8777376513545687, 
      "sanName": "karmelietenstraat", 
      "numOfAddr": 44, 
      "lonmax": 3.8788424515614253, 
      "latmin": 50.77323912353642
    }, 
    {
      "latmax": 50.767150974524746, 
      "name": "Kastanjestraat", 
      "lonmin": 3.838205453034043, 
      "sanName": "kastanjestraat", 
      "numOfAddr": 33, 
      "lonmax": 3.840936963300227, 
      "latmin": 50.76410554875632
    }, 
    {
      "latmax": 50.78183977782413, 
      "name": "Kasteeldreef", 
      "lonmin": 3.8755083480930397, 
      "sanName": "kasteeldreef", 
      "numOfAddr": 5, 
      "lonmax": 3.8836217017856876, 
      "latmin": 50.780514808424414
    }, 
    {
      "latmax": 50.76582792078389, 
      "name": "Kasteelstraat", 
      "lonmin": 3.863773568092545, 
      "sanName": "kasteelstraat", 
      "numOfAddr": 27, 
      "lonmax": 3.8652732294054695, 
      "latmin": 50.7648247287721
    }, 
    {
      "latmax": 50.77139932598158, 
      "name": "Kattestraat", 
      "lonmin": 3.8762135311312007, 
      "sanName": "kattestraat", 
      "numOfAddr": 50, 
      "lonmax": 3.878990687079778, 
      "latmin": 50.76862486211224
    }, 
    {
      "latmax": 50.754304048531615, 
      "name": "Kerkhofstraat", 
      "lonmin": 3.9185015039299893, 
      "sanName": "kerkhofstraat", 
      "numOfAddr": 16, 
      "lonmax": 3.9190810715779674, 
      "latmin": 50.75363709005901
    }, 
    {
      "latmax": 50.77161751243888, 
      "name": "Kleine Adamstraat", 
      "lonmin": 3.873639579034988, 
      "sanName": "kleineadamstraat", 
      "numOfAddr": 3, 
      "lonmax": 3.8738157581766193, 
      "latmin": 50.771607917849586
    }, 
    {
      "latmax": 50.753327890110405, 
      "name": "Kleine Donkerstraat", 
      "lonmin": 3.8418254762388857, 
      "sanName": "kleinedonkerstraat", 
      "numOfAddr": 4, 
      "lonmax": 3.8430647644473916, 
      "latmin": 50.75308975742898
    }, 
    {
      "latmax": 50.77444324796863, 
      "name": "Kleine Gaffelstraat", 
      "lonmin": 3.8759581128570386, 
      "sanName": "kleinegaffelstraat", 
      "numOfAddr": 17, 
      "lonmax": 3.876298006905572, 
      "latmin": 50.77410623529868
    }, 
    {
      "latmax": 50.775313886447876, 
      "name": "Kleine Karmelietenstraat", 
      "lonmin": 3.875071015458914, 
      "sanName": "kleinekarmelietenstraat", 
      "numOfAddr": 39, 
      "lonmax": 3.87789314724944, 
      "latmin": 50.774427644568924
    }, 
    {
      "latmax": 50.761272431525164, 
      "name": "Kleine Kloosterstraat", 
      "lonmin": 3.8621300281801707, 
      "sanName": "kleinekloosterstraat", 
      "numOfAddr": 2, 
      "lonmax": 3.862433164548994, 
      "latmin": 50.76124199447739
    }, 
    {
      "latmax": 50.77255995093609, 
      "name": "Kleine Nieuwstraat", 
      "lonmin": 3.8818199606381607, 
      "sanName": "kleinenieuwstraat", 
      "numOfAddr": 8, 
      "lonmax": 3.882522233824406, 
      "latmin": 50.772258353269095
    }, 
    {
      "latmax": 50.77393859393822, 
      "name": "Kleine Steenstraat", 
      "lonmin": 3.88472470718194, 
      "sanName": "kleinesteenstraat", 
      "numOfAddr": 7, 
      "lonmax": 3.884915605580488, 
      "latmin": 50.773628152185054
    }, 
    {
      "latmax": 50.773716983237804, 
      "name": "Klein-Frankrijkstraat", 
      "lonmin": 3.8876881991286907, 
      "sanName": "kleinfrankrijkstraat", 
      "numOfAddr": 15, 
      "lonmax": 3.8889660913776214, 
      "latmin": 50.773487491179175
    }, 
    {
      "latmax": 50.827978886879, 
      "name": "Klein Waterloos", 
      "lonmin": 3.8980779669863117, 
      "sanName": "kleinwaterloos", 
      "numOfAddr": 7, 
      "lonmax": 3.8989970387333015, 
      "latmin": 50.827600484682904
    }, 
    {
      "latmax": 50.76972889660929, 
      "name": "Kloefstraat", 
      "lonmin": 3.8875409703849386, 
      "sanName": "kloefstraat", 
      "numOfAddr": 23, 
      "lonmax": 3.889409033473195, 
      "latmin": 50.76936274878876
    }, 
    {
      "latmax": 50.776594595848266, 
      "name": "Kloostermeersstraat", 
      "lonmin": 3.880784741658851, 
      "sanName": "kloostermeersstraat", 
      "numOfAddr": 18, 
      "lonmax": 3.8816018019229745, 
      "latmin": 50.77642071250837
    }, 
    {
      "latmax": 50.762224727114884, 
      "name": "Kloosterstraat", 
      "lonmin": 3.858569532030262, 
      "sanName": "kloosterstraat", 
      "numOfAddr": 72, 
      "lonmax": 3.863283951404668, 
      "latmin": 50.76029984567583
    }, 
    {
      "latmax": 50.756282040554, 
      "name": "Kohoorstraat", 
      "lonmin": 3.8234477629630064, 
      "sanName": "kohoorstraat", 
      "numOfAddr": 10, 
      "lonmax": 3.8326955927606297, 
      "latmin": 50.75315851489541
    }, 
    {
      "latmax": 50.772920473734985, 
      "name": "Kollegestraat", 
      "lonmin": 3.8761138930749683, 
      "sanName": "kollegestraat", 
      "numOfAddr": 21, 
      "lonmax": 3.8768879521885933, 
      "latmin": 50.77191080631144
    }, 
    {
      "latmax": 50.81907525931688, 
      "name": "Kollenhoek", 
      "lonmin": 3.899900108625215, 
      "sanName": "kollenhoek", 
      "numOfAddr": 18, 
      "lonmax": 3.9036534057602754, 
      "latmin": 50.81851415553694
    }, 
    {
      "latmax": 50.76710257664233, 
      "name": "Koppenhollestraat", 
      "lonmin": 3.9211046750343517, 
      "sanName": "koppenhollestraat", 
      "numOfAddr": 72, 
      "lonmax": 3.929118681919855, 
      "latmin": 50.7553792018629
    }, 
    {
      "latmax": 50.76742855526665, 
      "name": "Korendries", 
      "lonmin": 3.8830474900311396, 
      "sanName": "korendries", 
      "numOfAddr": 5, 
      "lonmax": 3.885776354387003, 
      "latmin": 50.763937274804775
    }, 
    {
      "latmax": 50.77442880455879, 
      "name": "Korreelstraat", 
      "lonmin": 3.8163326713127814, 
      "sanName": "korreelstraat", 
      "numOfAddr": 10, 
      "lonmax": 3.822939847838756, 
      "latmin": 50.77094455650654
    }, 
    {
      "latmax": 50.75923840030871, 
      "name": "Kortelakestraat", 
      "lonmin": 3.855696439191755, 
      "sanName": "kortelakestraat", 
      "numOfAddr": 15, 
      "lonmax": 3.8585834243152757, 
      "latmin": 50.757633207795884
    }, 
    {
      "latmax": 50.75055126964773, 
      "name": "Kouterlosrechts", 
      "lonmin": 3.8698039171610663, 
      "sanName": "kouterlosrechts", 
      "numOfAddr": 1, 
      "lonmax": 3.8698039171610663, 
      "latmin": 50.75055126964773
    }, 
    {
      "latmax": 50.741134971162026, 
      "name": "Kouterstraat", 
      "lonmin": 3.9053745492758694, 
      "sanName": "kouterstraat", 
      "numOfAddr": 131, 
      "lonmax": 3.9254210216011365, 
      "latmin": 50.731504502872255
    }, 
    {
      "latmax": 50.76410386671499, 
      "name": "Kruisveldekensstraat", 
      "lonmin": 3.8661800120271197, 
      "sanName": "kruisveldekensstraat", 
      "numOfAddr": 9, 
      "lonmax": 3.868077767816007, 
      "latmin": 50.762671204465576
    }, 
    {
      "latmax": 50.76715915619723, 
      "name": "Kruiwagenstraat", 
      "lonmin": 3.9157966212703896, 
      "sanName": "kruiwagenstraat", 
      "numOfAddr": 31, 
      "lonmax": 3.9209114978683246, 
      "latmin": 50.76482204377714
    }, 
    {
      "latmax": 50.75140485939733, 
      "name": "Kuiperstraat", 
      "lonmin": 3.9205793089556504, 
      "sanName": "kuiperstraat", 
      "numOfAddr": 38, 
      "lonmax": 3.927671387743457, 
      "latmin": 50.7504165974514
    }, 
    {
      "latmax": 50.82085511904322, 
      "name": "Kuregoed", 
      "lonmin": 3.893396070505204, 
      "sanName": "kuregoed", 
      "numOfAddr": 4, 
      "lonmax": 3.893927120816234, 
      "latmin": 50.82027368622416
    }, 
    {
      "latmax": 50.7424246486261, 
      "name": "Kwadestraat", 
      "lonmin": 3.9221785112855367, 
      "sanName": "kwadestraat", 
      "numOfAddr": 24, 
      "lonmax": 3.924303093980302, 
      "latmin": 50.740995684273834
    }, 
    {
      "latmax": 50.77225124936763, 
      "name": "Laverdijstraat", 
      "lonmin": 3.8803766643413513, 
      "sanName": "laverdijstraat", 
      "numOfAddr": 3, 
      "lonmax": 3.8806139167578015, 
      "latmin": 50.77203206041193
    }, 
    {
      "latmax": 50.75445055421174, 
      "name": "Leeuwergemstraat", 
      "lonmin": 3.9211529003036736, 
      "sanName": "leeuwergemstraat", 
      "numOfAddr": 6, 
      "lonmax": 3.921523372188591, 
      "latmin": 50.7535118538542
    }, 
    {
      "latmax": 50.7673963803616, 
      "name": "Leliestraat", 
      "lonmin": 3.8576511320781433, 
      "sanName": "leliestraat", 
      "numOfAddr": 31, 
      "lonmax": 3.85934882391098, 
      "latmin": 50.765343098842216
    }, 
    {
      "latmax": 50.821575135841094, 
      "name": "Leopoldlaan", 
      "lonmin": 3.883584316512744, 
      "sanName": "leopoldlaan", 
      "numOfAddr": 68, 
      "lonmax": 3.893654679241089, 
      "latmin": 50.81999117832905
    }, 
    {
      "latmax": 50.77165232958558, 
      "name": "Lessensestraat", 
      "lonmin": 3.8723901216346186, 
      "sanName": "lessensestraat", 
      "numOfAddr": 131, 
      "lonmax": 3.8763010670880385, 
      "latmin": 50.76807938042746
    }, 
    {
      "latmax": 50.74130073228378, 
      "name": "Lindeberg", 
      "lonmin": 3.917210880861645, 
      "sanName": "lindeberg", 
      "numOfAddr": 21, 
      "lonmax": 3.9189207467788547, 
      "latmin": 50.738921028131934
    }, 
    {
      "latmax": 50.773037323782745, 
      "name": "Lindestraat", 
      "lonmin": 3.8349377884985643, 
      "sanName": "lindestraat", 
      "numOfAddr": 3, 
      "lonmax": 3.8369619035460105, 
      "latmin": 50.77275226699679
    }, 
    {
      "latmax": 50.75893916496077, 
      "name": "Lintjeswerkstraat", 
      "lonmin": 3.9103779736005633, 
      "sanName": "lintjeswerkstraat", 
      "numOfAddr": 26, 
      "lonmax": 3.913578278311211, 
      "latmin": 50.757749725607084
    }, 
    {
      "latmax": 50.74592334557292, 
      "name": "Longpontstraat", 
      "lonmin": 3.817676491145082, 
      "sanName": "longpontstraat", 
      "numOfAddr": 4, 
      "lonmax": 3.8207192742018985, 
      "latmin": 50.74490619424201
    }, 
    {
      "latmax": 50.7748778519021, 
      "name": "Lorreinestraat", 
      "lonmin": 3.8873555872821455, 
      "sanName": "lorreinestraat", 
      "numOfAddr": 15, 
      "lonmax": 3.887475799403823, 
      "latmin": 50.774306861102815
    }, 
    {
      "latmax": 50.755694984586256, 
      "name": "Losweg", 
      "lonmin": 3.8673248627310186, 
      "sanName": "losweg", 
      "numOfAddr": 15, 
      "lonmax": 3.868864883836984, 
      "latmin": 50.75419512905795
    }, 
    {
      "latmax": 50.762888611152256, 
      "name": "Majoor Van Lierdelaan", 
      "lonmin": 3.865706348470301, 
      "sanName": "majoorvanlierdelaan", 
      "numOfAddr": 50, 
      "lonmax": 3.86892185783661, 
      "latmin": 50.757935600459334
    }, 
    {
      "latmax": 50.77229904146188, 
      "name": "Markt", 
      "lonmin": 3.8820266554219107, 
      "sanName": "markt", 
      "numOfAddr": 47, 
      "lonmax": 3.884417835027137, 
      "latmin": 50.770886231972106
    }, 
    {
      "latmax": 50.77150960676388, 
      "name": "Marktweg", 
      "lonmin": 3.850463006379863, 
      "sanName": "marktweg", 
      "numOfAddr": 105, 
      "lonmax": 3.8675998309319843, 
      "latmin": 50.768364639995774
    }, 
    {
      "latmax": 50.737267434398824, 
      "name": "Maroiestraat", 
      "lonmin": 3.9333721647608275, 
      "sanName": "maroiestraat", 
      "numOfAddr": 8, 
      "lonmax": 3.938871259660612, 
      "latmin": 50.73403097979521
    }, 
    {
      "latmax": 50.77668200088999, 
      "name": "Meerminstraat", 
      "lonmin": 3.8883009614521047, 
      "sanName": "meerminstraat", 
      "numOfAddr": 15, 
      "lonmax": 3.8905675807735682, 
      "latmin": 50.77433483103215
    }, 
    {
      "latmax": 50.767570691340154, 
      "name": "Meerslos", 
      "lonmin": 3.85513990441118, 
      "sanName": "meerslos", 
      "numOfAddr": 12, 
      "lonmax": 3.86106433626923, 
      "latmin": 50.76707030926658
    }, 
    {
      "latmax": 50.768642875931846, 
      "name": "Meersstraat", 
      "lonmin": 3.8757374070378554, 
      "sanName": "meersstraat", 
      "numOfAddr": 36, 
      "lonmax": 3.8783242386844012, 
      "latmin": 50.76762418868918
    }, 
    {
      "latmax": 50.74964527249011, 
      "name": "Meirbroekstraat", 
      "lonmin": 3.9212404555471108, 
      "sanName": "meirbroekstraat", 
      "numOfAddr": 12, 
      "lonmax": 3.9236762508730947, 
      "latmin": 50.74891294170358
    }, 
    {
      "latmax": 50.75174347950728, 
      "name": "Mijnwerkersstraat", 
      "lonmin": 3.9077385762290016, 
      "sanName": "mijnwerkersstraat", 
      "numOfAddr": 28, 
      "lonmax": 3.917441431203563, 
      "latmin": 50.750307195066476
    }, 
    {
      "latmax": 50.73826273000937, 
      "name": "Misseweg", 
      "lonmin": 3.942620709172184, 
      "sanName": "misseweg", 
      "numOfAddr": 2, 
      "lonmax": 3.942666111756861, 
      "latmin": 50.73817668180407
    }, 
    {
      "latmax": 50.816888918066866, 
      "name": "Moenebroekstraat", 
      "lonmin": 3.891352323347443, 
      "sanName": "moenebroekstraat", 
      "numOfAddr": 29, 
      "lonmax": 3.900554904209256, 
      "latmin": 50.80119767803097
    }, 
    {
      "latmax": 50.75339676597907, 
      "name": "Moerbekeplein", 
      "lonmin": 3.917229437071141, 
      "sanName": "moerbekeplein", 
      "numOfAddr": 27, 
      "lonmax": 3.9190001133184427, 
      "latmin": 50.752243208482284
    }, 
    {
      "latmax": 50.78187289246317, 
      "name": "Molendreef", 
      "lonmin": 3.866434576591985, 
      "sanName": "molendreef", 
      "numOfAddr": 23, 
      "lonmax": 3.8737740045413314, 
      "latmin": 50.780862890097474
    }, 
    {
      "latmax": 50.77124554574689, 
      "name": "Molenstraat", 
      "lonmin": 3.881177418694841, 
      "sanName": "molenstraat", 
      "numOfAddr": 51, 
      "lonmax": 3.882708025306299, 
      "latmin": 50.77014604790397
    }, 
    {
      "latmax": 50.757873157650955, 
      "name": "Molen-te-veel", 
      "lonmin": 3.834527995467656, 
      "sanName": "molenteveel", 
      "numOfAddr": 3, 
      "lonmax": 3.835589474643202, 
      "latmin": 50.757011803412155
    }, 
    {
      "latmax": 50.77566201475082, 
      "name": "Moutstraat", 
      "lonmin": 3.8242402213733295, 
      "sanName": "moutstraat", 
      "numOfAddr": 11, 
      "lonmax": 3.831080898286248, 
      "latmin": 50.77456601390709
    }, 
    {
      "latmax": 50.76571878436651, 
      "name": "Neermeersen", 
      "lonmin": 3.8777852553558185, 
      "sanName": "neermeersen", 
      "numOfAddr": 1, 
      "lonmax": 3.8777852553558185, 
      "latmin": 50.76571878436651
    }, 
    {
      "latmax": 50.77382467264243, 
      "name": "Nieuweweg", 
      "lonmin": 3.8731552432385787, 
      "sanName": "nieuweweg", 
      "numOfAddr": 35, 
      "lonmax": 3.873880509633114, 
      "latmin": 50.772161692110004
    }, 
    {
      "latmax": 50.77315216903645, 
      "name": "Nieuwstraat", 
      "lonmin": 3.8802395188201464, 
      "sanName": "nieuwstraat", 
      "numOfAddr": 66, 
      "lonmax": 3.882765832910355, 
      "latmin": 50.77263708610853
    }, 
    {
      "latmax": 50.82234670326254, 
      "name": "Ommegangstraat", 
      "lonmin": 3.8938751575642474, 
      "sanName": "ommegangstraat", 
      "numOfAddr": 7, 
      "lonmax": 3.8955268391906657, 
      "latmin": 50.82163539766277
    }, 
    {
      "latmax": 50.7918781627338, 
      "name": "Onkerzelestraat", 
      "lonmin": 3.8939142381561624, 
      "sanName": "onkerzelestraat", 
      "numOfAddr": 307, 
      "lonmax": 3.9271912299875535, 
      "latmin": 50.77400486551841
    }, 
    {
      "latmax": 50.82193134111212, 
      "name": "Opbroek", 
      "lonmin": 3.8843121369952693, 
      "sanName": "opbroek", 
      "numOfAddr": 16, 
      "lonmax": 3.8853547850898673, 
      "latmin": 50.82109290028258
    }, 
    {
      "latmax": 50.772454012369266, 
      "name": "Oudeberg", 
      "lonmin": 3.8892293659565453, 
      "sanName": "oudeberg", 
      "numOfAddr": 3, 
      "lonmax": 3.891616487457288, 
      "latmin": 50.77117799884378
    }, 
    {
      "latmax": 50.773956624926065, 
      "name": "Oudebergstraat", 
      "lonmin": 3.8869850985547667, 
      "sanName": "oudebergstraat", 
      "numOfAddr": 31, 
      "lonmax": 3.8887041757602967, 
      "latmin": 50.77213558653859
    }, 
    {
      "latmax": 50.76909024197722, 
      "name": "Oude Marktweg", 
      "lonmin": 3.8540461549449527, 
      "sanName": "oudemarktweg", 
      "numOfAddr": 10, 
      "lonmax": 3.8563495348754233, 
      "latmin": 50.768116065994
    }, 
    {
      "latmax": 50.78015314472891, 
      "name": "Oudenaardsestraat", 
      "lonmin": 3.8049340038534902, 
      "sanName": "oudenaardsestraat", 
      "numOfAddr": 276, 
      "lonmax": 3.8759916181375953, 
      "latmin": 50.77137009423453
    }, 
    {
      "latmax": 50.77505471934417, 
      "name": "Oude Steenweg", 
      "lonmin": 3.8864953048957296, 
      "sanName": "oudesteenweg", 
      "numOfAddr": 118, 
      "lonmax": 3.8928898372271545, 
      "latmin": 50.77388957590139
    }, 
    {
      "latmax": 50.77290763874184, 
      "name": "Overpoort", 
      "lonmin": 3.862356536445016, 
      "sanName": "overpoort", 
      "numOfAddr": 101, 
      "lonmax": 3.8655703947473747, 
      "latmin": 50.771082053746646
    }, 
    {
      "latmax": 50.77335119743484, 
      "name": "Pachtersstraat", 
      "lonmin": 3.8867691187745588, 
      "sanName": "pachtersstraat", 
      "numOfAddr": 111, 
      "lonmax": 3.8877026505814563, 
      "latmin": 50.7675233463404
    }, 
    {
      "latmax": 50.81382347409393, 
      "name": "Paddepoel", 
      "lonmin": 3.8833547374842596, 
      "sanName": "paddepoel", 
      "numOfAddr": 4, 
      "lonmax": 3.8854037567029938, 
      "latmin": 50.81283347283366
    }, 
    {
      "latmax": 50.7718789661247, 
      "name": "Papiermolenstraat", 
      "lonmin": 3.8692629226581294, 
      "sanName": "papiermolenstraat", 
      "numOfAddr": 90, 
      "lonmax": 3.8720129351468153, 
      "latmin": 50.76764977722384
    }, 
    {
      "latmax": 50.819085395660366, 
      "name": "Parkbos", 
      "lonmin": 3.8734726244153386, 
      "sanName": "parkbos", 
      "numOfAddr": 5, 
      "lonmax": 3.8760864614102575, 
      "latmin": 50.818325572266275
    }, 
    {
      "latmax": 50.77038657836253, 
      "name": "Parkstraat", 
      "lonmin": 3.8843053912585868, 
      "sanName": "parkstraat", 
      "numOfAddr": 6, 
      "lonmax": 3.8845941121761873, 
      "latmin": 50.770240246842334
    }, 
    {
      "latmax": 50.76168161700285, 
      "name": "Pastorijstraat", 
      "lonmin": 3.828413123962619, 
      "sanName": "pastorijstraat", 
      "numOfAddr": 21, 
      "lonmax": 3.8329614176867386, 
      "latmin": 50.756571583508155
    }, 
    {
      "latmax": 50.82358387064494, 
      "name": "Patattenstraat", 
      "lonmin": 3.8828173576993628, 
      "sanName": "patattenstraat", 
      "numOfAddr": 27, 
      "lonmax": 3.8847836764880426, 
      "latmin": 50.82118490322156
    }, 
    {
      "latmax": 50.769273183292114, 
      "name": "Pateelstraat", 
      "lonmin": 3.8742240897195543, 
      "sanName": "pateelstraat", 
      "numOfAddr": 51, 
      "lonmax": 3.8754830165855205, 
      "latmin": 50.768758465174635
    }, 
    {
      "latmax": 50.77296556394984, 
      "name": "Patersstraat", 
      "lonmin": 3.879857726533207, 
      "sanName": "patersstraat", 
      "numOfAddr": 2, 
      "lonmax": 3.879900343901816, 
      "latmin": 50.77276868762234
    }, 
    {
      "latmax": 50.75555942208316, 
      "name": "Pauwelstraat", 
      "lonmin": 3.91918003275794, 
      "sanName": "pauwelstraat", 
      "numOfAddr": 85, 
      "lonmax": 3.933168459065639, 
      "latmin": 50.75363636599139
    }, 
    {
      "latmax": 50.768086750450024, 
      "name": "Pelgrimsweg", 
      "lonmin": 3.8830895096487437, 
      "sanName": "pelgrimsweg", 
      "numOfAddr": 9, 
      "lonmax": 3.8840943745326832, 
      "latmin": 50.767469457947875
    }, 
    {
      "latmax": 50.77322057955549, 
      "name": "Penitentenstraat", 
      "lonmin": 3.879767402121853, 
      "sanName": "penitentenstraat", 
      "numOfAddr": 28, 
      "lonmax": 3.881161330872216, 
      "latmin": 50.77168585852714
    }, 
    {
      "latmax": 50.739738961727454, 
      "name": "Perebaan", 
      "lonmin": 3.9092627655093435, 
      "sanName": "perebaan", 
      "numOfAddr": 9, 
      "lonmax": 3.910857216586318, 
      "latmin": 50.73820515817947
    }, 
    {
      "latmax": 50.753383457421585, 
      "name": "Pirrestraat", 
      "lonmin": 3.924166574885622, 
      "sanName": "pirrestraat", 
      "numOfAddr": 56, 
      "lonmax": 3.930361871662228, 
      "latmin": 50.75135190834271
    }, 
    {
      "latmax": 50.75464288877142, 
      "name": "Plankkouterstraat", 
      "lonmin": 3.8390174291438557, 
      "sanName": "plankkouterstraat", 
      "numOfAddr": 3, 
      "lonmax": 3.8403343382229163, 
      "latmin": 50.75421855124332
    }, 
    {
      "latmax": 50.754372994210605, 
      "name": "Plankweg", 
      "lonmin": 3.8481247965541474, 
      "sanName": "plankweg", 
      "numOfAddr": 1, 
      "lonmax": 3.8481247965541474, 
      "latmin": 50.754372994210605
    }, 
    {
      "latmax": 50.762845143333685, 
      "name": "Pol Antheunisstraat", 
      "lonmin": 3.863063859377697, 
      "sanName": "polantheunisstraat", 
      "numOfAddr": 34, 
      "lonmax": 3.865061418562241, 
      "latmin": 50.76176561266153
    }, 
    {
      "latmax": 50.76827277288865, 
      "name": "Polderstraat", 
      "lonmin": 3.8754103253033, 
      "sanName": "polderstraat", 
      "numOfAddr": 52, 
      "lonmax": 3.8766647797516685, 
      "latmin": 50.767101908047145
    }, 
    {
      "latmax": 50.8172146828818, 
      "name": "Rapidelaan", 
      "lonmin": 3.8842237703642453, 
      "sanName": "rapidelaan", 
      "numOfAddr": 43, 
      "lonmax": 3.892487429220952, 
      "latmin": 50.81556564503001
    }, 
    {
      "latmax": 50.76206031973146, 
      "name": "Rattenhoek", 
      "lonmin": 3.8409364495772755, 
      "sanName": "rattenhoek", 
      "numOfAddr": 3, 
      "lonmax": 3.8410294103047122, 
      "latmin": 50.7618783754377
    }, 
    {
      "latmax": 50.77558962159094, 
      "name": "Reepstraat", 
      "lonmin": 3.870289726585593, 
      "sanName": "reepstraat", 
      "numOfAddr": 82, 
      "lonmax": 3.873424889610356, 
      "latmin": 50.77253539133185
    }, 
    {
      "latmax": 50.762813623107746, 
      "name": "Rekestraat", 
      "lonmin": 3.811251331655281, 
      "sanName": "rekestraat", 
      "numOfAddr": 77, 
      "lonmax": 3.8276791974477966, 
      "latmin": 50.755723016074505
    }, 
    {
      "latmax": 50.74488109939659, 
      "name": "Renskouter", 
      "lonmin": 3.93359228650462, 
      "sanName": "renskouter", 
      "numOfAddr": 21, 
      "lonmax": 3.9373368736505756, 
      "latmin": 50.743620516004356
    }, 
    {
      "latmax": 50.76252346375896, 
      "name": "Resteleustraat", 
      "lonmin": 3.8787819705620197, 
      "sanName": "resteleustraat", 
      "numOfAddr": 14, 
      "lonmax": 3.8835661430642032, 
      "latmin": 50.76115288450481
    }, 
    {
      "latmax": 50.81983881750011, 
      "name": "Reukenstraat", 
      "lonmin": 3.875841849846813, 
      "sanName": "reukenstraat", 
      "numOfAddr": 18, 
      "lonmax": 3.881609621087884, 
      "latmin": 50.8184346012553
    }, 
    {
      "latmax": 50.73969911763464, 
      "name": "Rodeweg", 
      "lonmin": 3.948886976616845, 
      "sanName": "rodeweg", 
      "numOfAddr": 4, 
      "lonmax": 3.9493189390471066, 
      "latmin": 50.73952406579602
    }, 
    {
      "latmax": 50.76734196000078, 
      "name": "Rood-Kruisstraat", 
      "lonmin": 3.877636721157447, 
      "sanName": "roodkruisstraat", 
      "numOfAddr": 5, 
      "lonmax": 3.8779687994581096, 
      "latmin": 50.76685890665625
    }, 
    {
      "latmax": 50.76547750379857, 
      "name": "Rozenstraat", 
      "lonmin": 3.8648570966754145, 
      "sanName": "rozenstraat", 
      "numOfAddr": 79, 
      "lonmax": 3.8681048166393652, 
      "latmin": 50.7626349445923
    }, 
    {
      "latmax": 50.81118440044954, 
      "name": "Ruisenbroek", 
      "lonmin": 3.890981362745934, 
      "sanName": "ruisenbroek", 
      "numOfAddr": 11, 
      "lonmax": 3.8992480498047124, 
      "latmin": 50.808829088048675
    }, 
    {
      "latmax": 50.77126041955889, 
      "name": "Sasweg", 
      "lonmin": 3.8794034925964014, 
      "sanName": "sasweg", 
      "numOfAddr": 7, 
      "lonmax": 3.880705597301126, 
      "latmin": 50.769995693215485
    }, 
    {
      "latmax": 50.76198468010099, 
      "name": "Schillebeeksevoetweg", 
      "lonmin": 3.8848315699120244, 
      "sanName": "schillebeeksevoetweg", 
      "numOfAddr": 5, 
      "lonmax": 3.885984196529149, 
      "latmin": 50.761437685591545
    }, 
    {
      "latmax": 50.7637157605351, 
      "name": "Schillebeekstraat", 
      "lonmin": 3.8861308444404257, 
      "sanName": "schillebeekstraat", 
      "numOfAddr": 76, 
      "lonmax": 3.8982415570288147, 
      "latmin": 50.75265681960287
    }, 
    {
      "latmax": 50.768339124465534, 
      "name": "Schoolstraat", 
      "lonmin": 3.8417097750961635, 
      "sanName": "schoolstraat", 
      "numOfAddr": 56, 
      "lonmax": 3.8499474986343256, 
      "latmin": 50.767340782167544
    }, 
    {
      "latmax": 50.77512008147678, 
      "name": "Sint-Adriaanstraat", 
      "lonmin": 3.887521788448192, 
      "sanName": "sintadriaanstraat", 
      "numOfAddr": 22, 
      "lonmax": 3.8899562664925886, 
      "latmin": 50.774807472046696
    }, 
    {
      "latmax": 50.77562234438278, 
      "name": "Sint-Annastraat", 
      "lonmin": 3.8798366039481347, 
      "sanName": "sintannastraat", 
      "numOfAddr": 49, 
      "lonmax": 3.8813671265685907, 
      "latmin": 50.77524315417663
    }, 
    {
      "latmax": 50.779688147457065, 
      "name": "Sint-Martensstraat", 
      "lonmin": 3.8847970042779907, 
      "sanName": "sintmartensstraat", 
      "numOfAddr": 25, 
      "lonmax": 3.887305544935464, 
      "latmin": 50.77794404701989
    }, 
    {
      "latmax": 50.772310629208626, 
      "name": "Solleveld", 
      "lonmin": 3.853543884150073, 
      "sanName": "solleveld", 
      "numOfAddr": 69, 
      "lonmax": 3.8584985806182157, 
      "latmin": 50.769927961663285
    }, 
    {
      "latmax": 50.7776439866611, 
      "name": "Spoorwegstraat", 
      "lonmin": 3.8729546919732276, 
      "sanName": "spoorwegstraat", 
      "numOfAddr": 21, 
      "lonmax": 3.873856176789458, 
      "latmin": 50.77571562524838
    }, 
    {
      "latmax": 50.77187581234413, 
      "name": "Stadsweg", 
      "lonmin": 3.868755401871578, 
      "sanName": "stadsweg", 
      "numOfAddr": 42, 
      "lonmax": 3.8709849259350224, 
      "latmin": 50.770506668653404
    }, 
    {
      "latmax": 50.77075739062232, 
      "name": "Stationsplein", 
      "lonmin": 3.872872218403926, 
      "sanName": "stationsplein", 
      "numOfAddr": 39, 
      "lonmax": 3.8749982661892006, 
      "latmin": 50.76991807140669
    }, 
    {
      "latmax": 50.74013134878287, 
      "name": "Steenputstraat", 
      "lonmin": 3.9131542631257337, 
      "sanName": "steenputstraat", 
      "numOfAddr": 7, 
      "lonmax": 3.913991651037465, 
      "latmin": 50.73961166540563
    }, 
    {
      "latmax": 50.77402296677619, 
      "name": "Steenstraat", 
      "lonmin": 3.883277078573056, 
      "sanName": "steenstraat", 
      "numOfAddr": 89, 
      "lonmax": 3.886176091018024, 
      "latmin": 50.7725559096435
    }, 
    {
      "latmax": 50.75755700539398, 
      "name": "Stikte", 
      "lonmin": 3.926875350623828, 
      "sanName": "stikte", 
      "numOfAddr": 51, 
      "lonmax": 3.930036050875653, 
      "latmin": 50.7556902477359
    }, 
    {
      "latmax": 50.75462955564334, 
      "name": "Stoffelstraat", 
      "lonmin": 3.920875408051022, 
      "sanName": "stoffelstraat", 
      "numOfAddr": 25, 
      "lonmax": 3.92590771583203, 
      "latmin": 50.75173289515334
    }, 
    {
      "latmax": 50.77631128989039, 
      "name": "Stuivenbergdreef", 
      "lonmin": 3.9043327450318617, 
      "sanName": "stuivenbergdreef", 
      "numOfAddr": 1, 
      "lonmax": 3.9043327450318617, 
      "latmin": 50.77631128989039
    }, 
    {
      "latmax": 50.76764614274477, 
      "name": "Taalmeers", 
      "lonmin": 3.8459093375002174, 
      "sanName": "taalmeers", 
      "numOfAddr": 18, 
      "lonmax": 3.848017252166747, 
      "latmin": 50.76659548900597
    }, 
    {
      "latmax": 50.82472716725068, 
      "name": "Tempelstraat", 
      "lonmin": 3.8845285567978154, 
      "sanName": "tempelstraat", 
      "numOfAddr": 64, 
      "lonmax": 3.894048758244301, 
      "latmin": 50.82158191019162
    }, 
    {
      "latmax": 50.76200292899178, 
      "name": "Torenstraat", 
      "lonmin": 3.823858441222392, 
      "sanName": "torenstraat", 
      "numOfAddr": 20, 
      "lonmax": 3.827885329592521, 
      "latmin": 50.7610709662672
    }, 
    {
      "latmax": 50.741939365717066, 
      "name": "Trapstraat", 
      "lonmin": 3.91256626847459, 
      "sanName": "trapstraat", 
      "numOfAddr": 129, 
      "lonmax": 3.9202535129994938, 
      "latmin": 50.73299223360087
    }, 
    {
      "latmax": 50.78854480607058, 
      "name": "Turfstraat", 
      "lonmin": 3.8881199506780106, 
      "sanName": "turfstraat", 
      "numOfAddr": 1, 
      "lonmax": 3.8881199506780106, 
      "latmin": 50.78854480607058
    }, 
    {
      "latmax": 50.76856597326592, 
      "name": "Van Santenstraat", 
      "lonmin": 3.872234307507915, 
      "sanName": "vansantenstraat", 
      "numOfAddr": 6, 
      "lonmax": 3.8723987009987737, 
      "latmin": 50.768449441033205
    }, 
    {
      "latmax": 50.75524147893833, 
      "name": "Veldekensdreef", 
      "lonmin": 3.862202223854732, 
      "sanName": "veldekensdreef", 
      "numOfAddr": 37, 
      "lonmax": 3.866977138917382, 
      "latmin": 50.75069414464743
    }, 
    {
      "latmax": 50.76260130882029, 
      "name": "Veldekensweg", 
      "lonmin": 3.884450978857786, 
      "sanName": "veldekensweg", 
      "numOfAddr": 8, 
      "lonmax": 3.885912927328629, 
      "latmin": 50.76108434534217
    }, 
    {
      "latmax": 50.775890101406766, 
      "name": "Veldmuisplein", 
      "lonmin": 3.866974190797315, 
      "sanName": "veldmuisplein", 
      "numOfAddr": 9, 
      "lonmax": 3.8673839251838524, 
      "latmin": 50.775660671784706
    }, 
    {
      "latmax": 50.76002880706538, 
      "name": "Veldstraat", 
      "lonmin": 3.854184761089728, 
      "sanName": "veldstraat", 
      "numOfAddr": 6, 
      "lonmax": 3.855161761924672, 
      "latmin": 50.75913964068664
    }, 
    {
      "latmax": 50.764528043575325, 
      "name": "Verbondenenstraat", 
      "lonmin": 3.8588040228200344, 
      "sanName": "verbondenenstraat", 
      "numOfAddr": 57, 
      "lonmax": 3.861498631396479, 
      "latmin": 50.76335881804949
    }, 
    {
      "latmax": 50.774106612858226, 
      "name": "Verbrandhofstraat", 
      "lonmin": 3.8734849027319496, 
      "sanName": "verbrandhofstraat", 
      "numOfAddr": 29, 
      "lonmax": 3.8745281254392023, 
      "latmin": 50.773754962025656
    }, 
    {
      "latmax": 50.77025905553933, 
      "name": "Verhaegenlaan", 
      "lonmin": 3.8754355061270735, 
      "sanName": "verhaegenlaan", 
      "numOfAddr": 26, 
      "lonmax": 3.8779728795573356, 
      "latmin": 50.76946755579222
    }, 
    {
      "latmax": 50.77401075440779, 
      "name": "Vesten", 
      "lonmin": 3.8841098750723777, 
      "sanName": "vesten", 
      "numOfAddr": 95, 
      "lonmax": 3.8868840731080625, 
      "latmin": 50.77066369396724
    }, 
    {
      "latmax": 50.74414231154812, 
      "name": "Vianeplein", 
      "lonmin": 3.9200770931461095, 
      "sanName": "vianeplein", 
      "numOfAddr": 43, 
      "lonmax": 3.9233504434197273, 
      "latmin": 50.742638240993124
    }, 
    {
      "latmax": 50.771459851387654, 
      "name": "Victor Frisstraat", 
      "lonmin": 3.858006986794698, 
      "sanName": "victorfrisstraat", 
      "numOfAddr": 32, 
      "lonmax": 3.8605724837991113, 
      "latmin": 50.77006087531914
    }, 
    {
      "latmax": 50.766470021216875, 
      "name": "Vierbunderweg", 
      "lonmin": 3.8901991210438087, 
      "sanName": "vierbunderweg", 
      "numOfAddr": 6, 
      "lonmax": 3.893033594135682, 
      "latmin": 50.76488391534606
    }, 
    {
      "latmax": 50.76944675329947, 
      "name": "Vierwindenstraat", 
      "lonmin": 3.8885839574740433, 
      "sanName": "vierwindenstraat", 
      "numOfAddr": 44, 
      "lonmax": 3.889931983237793, 
      "latmin": 50.766718594733405
    }, 
    {
      "latmax": 50.73807937390375, 
      "name": "Vijverkouter", 
      "lonmin": 3.9185656019617676, 
      "sanName": "vijverkouter", 
      "numOfAddr": 6, 
      "lonmax": 3.9194884828495, 
      "latmin": 50.73247011583994
    }, 
    {
      "latmax": 50.77224081046662, 
      "name": "Visstraat", 
      "lonmin": 3.8809440663396604, 
      "sanName": "visstraat", 
      "numOfAddr": 32, 
      "lonmax": 3.8819111409354314, 
      "latmin": 50.771669905708045
    }, 
    {
      "latmax": 50.7867590194196, 
      "name": "Voldersstraat", 
      "lonmin": 3.8833417184123586, 
      "sanName": "voldersstraat", 
      "numOfAddr": 243, 
      "lonmax": 3.9072615293537325, 
      "latmin": 50.777514622977776
    }, 
    {
      "latmax": 50.7724333291669, 
      "name": "Vooruitzichtstraat", 
      "lonmin": 3.8718972648515915, 
      "sanName": "vooruitzichtstraat", 
      "numOfAddr": 4, 
      "lonmax": 3.87191428834137, 
      "latmin": 50.77232672682554
    }, 
    {
      "latmax": 50.761383593062384, 
      "name": "Voskensstraat", 
      "lonmin": 3.8775561218434755, 
      "sanName": "voskensstraat", 
      "numOfAddr": 34, 
      "lonmax": 3.8796600759690403, 
      "latmin": 50.75803737171998
    }, 
    {
      "latmax": 50.77359862583725, 
      "name": "Vredestraat", 
      "lonmin": 3.882424689509264, 
      "sanName": "vredestraat", 
      "numOfAddr": 53, 
      "lonmax": 3.8836111520269165, 
      "latmin": 50.77196269608817
    }, 
    {
      "latmax": 50.81981826251582, 
      "name": "Vrijheid", 
      "lonmin": 3.8804807214292567, 
      "sanName": "vrijheid", 
      "numOfAddr": 63, 
      "lonmax": 3.884064860478652, 
      "latmin": 50.81209588903418
    }, 
    {
      "latmax": 50.77385721357085, 
      "name": "Waaienberg", 
      "lonmin": 3.8514429904519765, 
      "sanName": "waaienberg", 
      "numOfAddr": 128, 
      "lonmax": 3.856421114382107, 
      "latmin": 50.76989680763448
    }, 
    {
      "latmax": 50.77295295173651, 
      "name": "Warandestraat", 
      "lonmin": 3.8732625502279965, 
      "sanName": "warandestraat", 
      "numOfAddr": 51, 
      "lonmax": 3.8748974477964495, 
      "latmin": 50.77256929505347
    }, 
    {
      "latmax": 50.82967086580638, 
      "name": "Waterloos", 
      "lonmin": 3.8952837159835703, 
      "sanName": "waterloos", 
      "numOfAddr": 52, 
      "lonmax": 3.9020944782838423, 
      "latmin": 50.82230073354825
    }, 
    {
      "latmax": 50.777214049016216, 
      "name": "Watermolenstraat", 
      "lonmin": 3.8210474851293252, 
      "sanName": "watermolenstraat", 
      "numOfAddr": 100, 
      "lonmax": 3.829322988781042, 
      "latmin": 50.762838475518926
    }, 
    {
      "latmax": 50.77309199970249, 
      "name": "Wegvoeringstraat", 
      "lonmin": 3.8779659667103856, 
      "sanName": "wegvoeringstraat", 
      "numOfAddr": 11, 
      "lonmax": 3.8784035286408725, 
      "latmin": 50.77194522254781
    }, 
    {
      "latmax": 50.745024615150044, 
      "name": "Werfstraat", 
      "lonmin": 3.9302486865195436, 
      "sanName": "werfstraat", 
      "numOfAddr": 8, 
      "lonmax": 3.9321376687458813, 
      "latmin": 50.744235443999386
    }, 
    {
      "latmax": 50.77673486542329, 
      "name": "Weverijstraat", 
      "lonmin": 3.88067101531622, 
      "sanName": "weverijstraat", 
      "numOfAddr": 120, 
      "lonmax": 3.882522854618928, 
      "latmin": 50.77357174656596
    }, 
    {
      "latmax": 50.77340236617915, 
      "name": "Wijngaardstraat", 
      "lonmin": 3.8749699995406592, 
      "sanName": "wijngaardstraat", 
      "numOfAddr": 62, 
      "lonmax": 3.8789206160626026, 
      "latmin": 50.772738100376465
    }, 
    {
      "latmax": 50.754894917421815, 
      "name": "Wilgierlaan", 
      "lonmin": 3.9202303780461145, 
      "sanName": "wilgierlaan", 
      "numOfAddr": 68, 
      "lonmax": 3.9252422897296535, 
      "latmin": 50.75285810557742
    }, 
    {
      "latmax": 50.753822725817884, 
      "name": "Willem Van Moerbekestraat", 
      "lonmin": 3.916511558549647, 
      "sanName": "willemvanmoerbekestraat", 
      "numOfAddr": 27, 
      "lonmax": 3.9201874445678992, 
      "latmin": 50.752144766404804
    }, 
    {
      "latmax": 50.778910291582456, 
      "name": "Zakkaai", 
      "lonmin": 3.8794725635031218, 
      "sanName": "zakkaai", 
      "numOfAddr": 35, 
      "lonmax": 3.881215782537107, 
      "latmin": 50.77343840704284
    }, 
    {
      "latmax": 50.762662915611784, 
      "name": "Zarlardingeplein", 
      "lonmin": 3.827953597230284, 
      "sanName": "zarlardingeplein", 
      "numOfAddr": 27, 
      "lonmax": 3.8312397757126195, 
      "latmin": 50.761729571638014
    }, 
    {
      "latmax": 50.76421610193348, 
      "name": "Zarlardingestraat", 
      "lonmin": 3.8353837786308267, 
      "sanName": "zarlardingestraat", 
      "numOfAddr": 73, 
      "lonmax": 3.8532431737011286, 
      "latmin": 50.762688596101896
    }, 
    {
      "latmax": 50.75517929256378, 
      "name": "Zavelstraat", 
      "lonmin": 3.877934641862387, 
      "sanName": "zavelstraat", 
      "numOfAddr": 102, 
      "lonmax": 3.898357702232792, 
      "latmin": 50.74689947779005
    }, 
    {
      "latmax": 50.75966183675652, 
      "name": "Zikastraat", 
      "lonmin": 3.9011461488517107, 
      "sanName": "zikastraat", 
      "numOfAddr": 96, 
      "lonmax": 3.9159580985583284, 
      "latmin": 50.75241250152586
    }, 
    {
      "latmax": 50.77833070785958, 
      "name": "Zonnebloemstraat", 
      "lonmin": 3.8739377283637917, 
      "sanName": "zonnebloemstraat", 
      "numOfAddr": 35, 
      "lonmax": 3.8938056783274657, 
      "latmin": 50.7746421709036
    }, 
    {
      "latmax": 50.741315712496096, 
      "name": "Zonneveld", 
      "lonmin": 3.9203086085737846, 
      "sanName": "zonneveld", 
      "numOfAddr": 22, 
      "lonmax": 3.9218637005748187, 
      "latmin": 50.740112486088904
    }
  ]
}