{
  "streets": [
    {
      "latmax": 50.82662369905256, 
      "name": "Beekstraat", 
      "lonmin": 3.8340372185865266, 
      "sanName": "beekstraat", 
      "numOfAddr": 10, 
      "lonmax": 3.8352483618572872, 
      "latmin": 50.82496873980073
    }, 
    {
      "latmax": 50.78934444099684, 
      "name": "Boshoekstraat", 
      "lonmin": 3.8148264805726813, 
      "sanName": "boshoekstraat", 
      "numOfAddr": 14, 
      "lonmax": 3.8205360555514445, 
      "latmin": 50.7875797669877
    }, 
    {
      "latmax": 50.79553259547634, 
      "name": "Breebijl", 
      "lonmin": 3.8214911410520696, 
      "sanName": "breebijl", 
      "numOfAddr": 17, 
      "lonmax": 3.82678916449648, 
      "latmin": 50.787832725191564
    }, 
    {
      "latmax": 50.794121016051555, 
      "name": "Broekstraat", 
      "lonmin": 3.8592747349972103, 
      "sanName": "broekstraat", 
      "numOfAddr": 29, 
      "lonmax": 3.8645082148201397, 
      "latmin": 50.7896888929468
    }, 
    {
      "latmax": 50.79650606953182, 
      "name": "Brugstraat", 
      "lonmin": 3.8591966213398528, 
      "sanName": "brugstraat", 
      "numOfAddr": 21, 
      "lonmax": 3.862140072714554, 
      "latmin": 50.794624317096925
    }, 
    {
      "latmax": 50.81892457474349, 
      "name": "Caudenberg", 
      "lonmin": 3.8112694988117393, 
      "sanName": "caudenberg", 
      "numOfAddr": 70, 
      "lonmax": 3.8317099727604647, 
      "latmin": 50.81532071392646
    }, 
    {
      "latmax": 50.82351123356188, 
      "name": "Dorpstraat", 
      "lonmin": 3.843024596643804, 
      "sanName": "dorpstraat", 
      "numOfAddr": 65, 
      "lonmax": 3.8553563522668557, 
      "latmin": 50.81979909709932
    }, 
    {
      "latmax": 50.78942008875121, 
      "name": "Dreefstraat", 
      "lonmin": 3.8397590937194606, 
      "sanName": "dreefstraat", 
      "numOfAddr": 61, 
      "lonmax": 3.8433531154467913, 
      "latmin": 50.78734469395366
    }, 
    {
      "latmax": 50.82276255104332, 
      "name": "Drijhoek", 
      "lonmin": 3.8293130041869152, 
      "sanName": "drijhoek", 
      "numOfAddr": 28, 
      "lonmax": 3.838355709130703, 
      "latmin": 50.818775565492416
    }, 
    {
      "latmax": 50.81744646303177, 
      "name": "Eekhoutdries", 
      "lonmin": 3.843673959962289, 
      "sanName": "eekhoutdries", 
      "numOfAddr": 19, 
      "lonmax": 3.845902065490366, 
      "latmin": 50.81508837209274
    }, 
    {
      "latmax": 50.818599243362875, 
      "name": "Eikenmolen", 
      "lonmin": 3.8054118598942828, 
      "sanName": "eikenmolen", 
      "numOfAddr": 50, 
      "lonmax": 3.8112206251846925, 
      "latmin": 50.81452719744981
    }, 
    {
      "latmax": 50.79588596527021, 
      "name": "Elleboogstraat", 
      "lonmin": 3.8493297632448775, 
      "sanName": "elleboogstraat", 
      "numOfAddr": 71, 
      "lonmax": 3.861210139691386, 
      "latmin": 50.79179508966221
    }, 
    {
      "latmax": 50.80328841869953, 
      "name": "Gentse Steenweg", 
      "lonmin": 3.8722798131872027, 
      "sanName": "gentsesteenweg", 
      "numOfAddr": 1, 
      "lonmax": 3.8722798131872027, 
      "latmin": 50.80328841869953
    }, 
    {
      "latmax": 50.78492032422927, 
      "name": "Geraardsbergsestraat", 
      "lonmin": 3.8435791229252834, 
      "sanName": "geraardsbergsestraat", 
      "numOfAddr": 31, 
      "lonmax": 3.8541259572164175, 
      "latmin": 50.78111986611512
    }, 
    {
      "latmax": 50.81261886511905, 
      "name": "Groenstraat", 
      "lonmin": 3.8233475050130163, 
      "sanName": "groenstraat", 
      "numOfAddr": 12, 
      "lonmax": 3.8285170672708513, 
      "latmin": 50.81061866961481
    }, 
    {
      "latmax": 50.78851144253246, 
      "name": "Hekkouterstraat", 
      "lonmin": 3.8436379687861035, 
      "sanName": "hekkouterstraat", 
      "numOfAddr": 34, 
      "lonmax": 3.8496806968986763, 
      "latmin": 50.78512348568288
    }, 
    {
      "latmax": 50.82773823222332, 
      "name": "Hollaarde", 
      "lonmin": 3.8520547242842698, 
      "sanName": "hollaarde", 
      "numOfAddr": 8, 
      "lonmax": 3.8568720788869557, 
      "latmin": 50.82496425885179
    }, 
    {
      "latmax": 50.812303748362716, 
      "name": "Hoogstraat_01", 
      "lonmin": 3.8084769073990556, 
      "sanName": "hoogstraat01", 
      "numOfAddr": 20, 
      "lonmax": 3.8116292305989754, 
      "latmin": 50.809482222290065
    }, 
    {
      "latmax": 50.82651823205691, 
      "name": "Kakebeke", 
      "lonmin": 3.8559469523227796, 
      "sanName": "kakebeke", 
      "numOfAddr": 28, 
      "lonmax": 3.863103933337685, 
      "latmin": 50.82342204983644
    }, 
    {
      "latmax": 50.82500512272903, 
      "name": "Kapellestraat", 
      "lonmin": 3.848058347787918, 
      "sanName": "kapellestraat", 
      "numOfAddr": 34, 
      "lonmax": 3.8565385148088045, 
      "latmin": 50.82151878930696
    }, 
    {
      "latmax": 50.81210830271932, 
      "name": "Kardinaalshoek", 
      "lonmin": 3.8141848473872066, 
      "sanName": "kardinaalshoek", 
      "numOfAddr": 26, 
      "lonmax": 3.822062290687138, 
      "latmin": 50.81013166935203
    }, 
    {
      "latmax": 50.7837689447687, 
      "name": "Kasteelken", 
      "lonmin": 3.8525575144992614, 
      "sanName": "kasteelken", 
      "numOfAddr": 3, 
      "lonmax": 3.85458371509273, 
      "latmin": 50.7825446120862
    }, 
    {
      "latmax": 50.78716903062993, 
      "name": "Kerkstraat", 
      "lonmin": 3.8384370481525156, 
      "sanName": "kerkstraat", 
      "numOfAddr": 28, 
      "lonmax": 3.8434394798368676, 
      "latmin": 50.78480615599829
    }, 
    {
      "latmax": 50.81896227069617, 
      "name": "Kleinendries", 
      "lonmin": 3.831986946197619, 
      "sanName": "kleinendries", 
      "numOfAddr": 33, 
      "lonmax": 3.842214813446405, 
      "latmin": 50.81785712991017
    }, 
    {
      "latmax": 50.79447227787066, 
      "name": "Kouterstraat", 
      "lonmin": 3.856256600889952, 
      "sanName": "kouterstraat", 
      "numOfAddr": 28, 
      "lonmax": 3.8597806456754253, 
      "latmin": 50.793563226469274
    }, 
    {
      "latmax": 50.78765168139598, 
      "name": "Kruisstraat", 
      "lonmin": 3.8291858791855096, 
      "sanName": "kruisstraat", 
      "numOfAddr": 87, 
      "lonmax": 3.8387991195513114, 
      "latmin": 50.78466105583643
    }, 
    {
      "latmax": 50.810292707534686, 
      "name": "Laerebeke", 
      "lonmin": 3.8263348023391033, 
      "sanName": "laerebeke", 
      "numOfAddr": 11, 
      "lonmax": 3.8356852753621284, 
      "latmin": 50.80791178574065
    }, 
    {
      "latmax": 50.81838192304937, 
      "name": "Langemunte", 
      "lonmin": 3.8457086768485134, 
      "sanName": "langemunte", 
      "numOfAddr": 73, 
      "lonmax": 3.848785612915697, 
      "latmin": 50.809522826532934
    }, 
    {
      "latmax": 50.8257936374037, 
      "name": "Langestraat", 
      "lonmin": 3.8283529577924034, 
      "sanName": "langestraat", 
      "numOfAddr": 28, 
      "lonmax": 3.843088692039416, 
      "latmin": 50.82341604475727
    }, 
    {
      "latmax": 50.79127233208741, 
      "name": "Lindestraat", 
      "lonmin": 3.8591732003261083, 
      "sanName": "lindestraat", 
      "numOfAddr": 7, 
      "lonmax": 3.863832669057156, 
      "latmin": 50.789010846834486
    }, 
    {
      "latmax": 50.782435670576966, 
      "name": "Muizenholstraat", 
      "lonmin": 3.838340302171947, 
      "sanName": "muizenholstraat", 
      "numOfAddr": 14, 
      "lonmax": 3.8395001050460027, 
      "latmin": 50.77686654369616
    }, 
    {
      "latmax": 50.836106320304076, 
      "name": "Nauw", 
      "lonmin": 3.843816850279049, 
      "sanName": "nauw", 
      "numOfAddr": 24, 
      "lonmax": 3.8496872760271295, 
      "latmin": 50.83018828944646
    }, 
    {
      "latmax": 50.817193287838506, 
      "name": "Neerstraat", 
      "lonmin": 3.822423493329025, 
      "sanName": "neerstraat", 
      "numOfAddr": 38, 
      "lonmax": 3.825200438395045, 
      "latmin": 50.815341018638826
    }, 
    {
      "latmax": 50.81485373363379, 
      "name": "Nieuwe Wijk", 
      "lonmin": 3.824807640263055, 
      "sanName": "nieuwewijk", 
      "numOfAddr": 96, 
      "lonmax": 3.830371088708651, 
      "latmin": 50.81205370626872
    }, 
    {
      "latmax": 50.8146288133053, 
      "name": "Nieuwstraat", 
      "lonmin": 3.821433437925543, 
      "sanName": "nieuwstraat", 
      "numOfAddr": 52, 
      "lonmax": 3.825356840000813, 
      "latmin": 50.809434789317024
    }, 
    {
      "latmax": 50.78469726305745, 
      "name": "Ottergemstraat", 
      "lonmin": 3.832071519748306, 
      "sanName": "ottergemstraat", 
      "numOfAddr": 89, 
      "lonmax": 3.84319108392499, 
      "latmin": 50.7771901783278
    }, 
    {
      "latmax": 50.789241181292496, 
      "name": "Pikkelgemstraat", 
      "lonmin": 3.8508476379245846, 
      "sanName": "pikkelgemstraat", 
      "numOfAddr": 10, 
      "lonmax": 3.8532461424254842, 
      "latmin": 50.788745655675555
    }, 
    {
      "latmax": 50.78477727783473, 
      "name": "Pluimbroek", 
      "lonmin": 3.828704557769217, 
      "sanName": "pluimbroek", 
      "numOfAddr": 26, 
      "lonmax": 3.8319962160952312, 
      "latmin": 50.78275207907479
    }, 
    {
      "latmax": 50.81300022464131, 
      "name": "Polenak", 
      "lonmin": 3.8313841511117848, 
      "sanName": "polenak", 
      "numOfAddr": 15, 
      "lonmax": 3.8384485107989743, 
      "latmin": 50.80988123713318
    }, 
    {
      "latmax": 50.79614679803398, 
      "name": "Populierenstraat", 
      "lonmin": 3.83805757226497, 
      "sanName": "populierenstraat", 
      "numOfAddr": 26, 
      "lonmax": 3.840975715056158, 
      "latmin": 50.790483321533486
    }, 
    {
      "latmax": 50.81407168354124, 
      "name": "Roeskouter", 
      "lonmin": 3.820995056307435, 
      "sanName": "roeskouter", 
      "numOfAddr": 11, 
      "lonmax": 3.8222302513682687, 
      "latmin": 50.81178773097617
    }, 
    {
      "latmax": 50.81636170070272, 
      "name": "Schoolstraat", 
      "lonmin": 3.8209986685872415, 
      "sanName": "schoolstraat", 
      "numOfAddr": 21, 
      "lonmax": 3.8221534244874347, 
      "latmin": 50.81494461342173
    }, 
    {
      "latmax": 50.826279055684715, 
      "name": "Spende", 
      "lonmin": 3.8138753250418995, 
      "sanName": "spende", 
      "numOfAddr": 19, 
      "lonmax": 3.827897309640365, 
      "latmin": 50.819709029171776
    }, 
    {
      "latmax": 50.81954040246653, 
      "name": "Steenweg", 
      "lonmin": 3.8081757088606594, 
      "sanName": "steenweg", 
      "numOfAddr": 187, 
      "lonmax": 3.8594340976667, 
      "latmin": 50.81249167908807
    }, 
    {
      "latmax": 50.797020670196574, 
      "name": "Strichtstraat", 
      "lonmin": 3.86154738477643, 
      "sanName": "strichtstraat", 
      "numOfAddr": 43, 
      "lonmax": 3.8694737372839683, 
      "latmin": 50.793797213615775
    }, 
    {
      "latmax": 50.82063722314825, 
      "name": "Struntel", 
      "lonmin": 3.8471679806082055, 
      "sanName": "struntel", 
      "numOfAddr": 15, 
      "lonmax": 3.8494117753814097, 
      "latmin": 50.81909916355453
    }, 
    {
      "latmax": 50.82865161743047, 
      "name": "Stuivenberg", 
      "lonmin": 3.841696318343173, 
      "sanName": "stuivenberg", 
      "numOfAddr": 31, 
      "lonmax": 3.8454595968689227, 
      "latmin": 50.82342559693944
    }, 
    {
      "latmax": 50.83284171965264, 
      "name": "Waesberg", 
      "lonmin": 3.837847403611785, 
      "sanName": "waesberg", 
      "numOfAddr": 28, 
      "lonmax": 3.842622656542777, 
      "latmin": 50.8273098663555
    }, 
    {
      "latmax": 50.832464845641795, 
      "name": "Waesbergdries", 
      "lonmin": 3.849427962517729, 
      "sanName": "waesbergdries", 
      "numOfAddr": 17, 
      "lonmax": 3.852121662175317, 
      "latmin": 50.829674071092015
    }, 
    {
      "latmax": 50.79633256339265, 
      "name": "Wassegemstraat", 
      "lonmin": 3.829401349082077, 
      "sanName": "wassegemstraat", 
      "numOfAddr": 62, 
      "lonmax": 3.839955750395884, 
      "latmin": 50.78739685642392
    }, 
    {
      "latmax": 50.80135655045164, 
      "name": "Watermolenstraat", 
      "lonmin": 3.84193328919495, 
      "sanName": "watermolenstraat", 
      "numOfAddr": 37, 
      "lonmax": 3.8512054863554934, 
      "latmin": 50.789899923491284
    }, 
    {
      "latmax": 50.82259833288372, 
      "name": "Wolfsveld", 
      "lonmin": 3.854636370354917, 
      "sanName": "wolfsveld", 
      "numOfAddr": 1, 
      "lonmax": 3.854636370354917, 
      "latmin": 50.82259833288372
    }
  ]
}