{
  "streets": [
    {
      "latmax": 50.84042314007394, 
      "name": "Arme Kleie", 
      "lonmin": 3.7226063545657286, 
      "sanName": "armekleie", 
      "numOfAddr": 4, 
      "lonmax": 3.7236523184240884, 
      "latmin": 50.84007145734244
    }, 
    {
      "latmax": 50.794875023141465, 
      "name": "Baneike", 
      "lonmin": 3.7548918101421727, 
      "sanName": "baneike", 
      "numOfAddr": 17, 
      "lonmax": 3.757934714903913, 
      "latmin": 50.79323250963101
    }, 
    {
      "latmax": 50.83046087278281, 
      "name": "Bassegem", 
      "lonmin": 3.7401030413789247, 
      "sanName": "bassegem", 
      "numOfAddr": 2, 
      "lonmax": 3.741035993063339, 
      "latmin": 50.83021027604377
    }, 
    {
      "latmax": 50.80687307051803, 
      "name": "Beekstraat", 
      "lonmin": 3.7702531849327925, 
      "sanName": "beekstraat", 
      "numOfAddr": 17, 
      "lonmax": 3.7714872451679446, 
      "latmin": 50.80618935134885
    }, 
    {
      "latmax": 50.837316757003315, 
      "name": "Berendries", 
      "lonmin": 3.7691521827256773, 
      "sanName": "berendries", 
      "numOfAddr": 62, 
      "lonmax": 3.783629258597775, 
      "latmin": 50.83133594770543
    }, 
    {
      "latmax": 50.77460364400478, 
      "name": "Bergstraat", 
      "lonmin": 3.7808710091638376, 
      "sanName": "bergstraat", 
      "numOfAddr": 40, 
      "lonmax": 3.7919827891985607, 
      "latmin": 50.764818591749226
    }, 
    {
      "latmax": 50.819194141851135, 
      "name": "Beukenpad", 
      "lonmin": 3.7430773553074066, 
      "sanName": "beukenpad", 
      "numOfAddr": 1, 
      "lonmax": 3.7430773553074066, 
      "latmin": 50.819194141851135
    }, 
    {
      "latmax": 50.82767095118685, 
      "name": "Bieststraat", 
      "lonmin": 3.7584564761910424, 
      "sanName": "bieststraat", 
      "numOfAddr": 17, 
      "lonmax": 3.7660867134233076, 
      "latmin": 50.81764473852089
    }, 
    {
      "latmax": 50.827886538228825, 
      "name": "Bijstierstraat", 
      "lonmin": 3.7530220984259506, 
      "sanName": "bijstierstraat", 
      "numOfAddr": 15, 
      "lonmax": 3.7584270569185607, 
      "latmin": 50.821188741744216
    }, 
    {
      "latmax": 50.82255290817348, 
      "name": "Bleinstraat", 
      "lonmin": 3.719634570919056, 
      "sanName": "bleinstraat", 
      "numOfAddr": 3, 
      "lonmax": 3.7206554026118948, 
      "latmin": 50.821380512215825
    }, 
    {
      "latmax": 50.83816748251163, 
      "name": "Blomveld", 
      "lonmin": 3.7340067910449837, 
      "sanName": "blomveld", 
      "numOfAddr": 4, 
      "lonmax": 3.73463082431182, 
      "latmin": 50.83683505151079
    }, 
    {
      "latmax": 50.84050076233069, 
      "name": "Boekelstraat", 
      "lonmin": 3.7238119154005775, 
      "sanName": "boekelstraat", 
      "numOfAddr": 28, 
      "lonmax": 3.727692390880563, 
      "latmin": 50.836094445707545
    }, 
    {
      "latmax": 50.83114246470532, 
      "name": "Boekendries", 
      "lonmin": 3.75889218776938, 
      "sanName": "boekendries", 
      "numOfAddr": 27, 
      "lonmax": 3.7621320025961116, 
      "latmin": 50.82806452902663
    }, 
    {
      "latmax": 50.789974262254525, 
      "name": "Boekkouter", 
      "lonmin": 3.7227300224510635, 
      "sanName": "boekkouter", 
      "numOfAddr": 35, 
      "lonmax": 3.731863098779424, 
      "latmin": 50.78831233769595
    }, 
    {
      "latmax": 50.84504297548061, 
      "name": "Boembeke", 
      "lonmin": 3.7563047284242113, 
      "sanName": "boembeke", 
      "numOfAddr": 9, 
      "lonmax": 3.7630082530972713, 
      "latmin": 50.84214418430201
    }, 
    {
      "latmax": 50.84209157347273, 
      "name": "Borgveld", 
      "lonmin": 3.7489359415822725, 
      "sanName": "borgveld", 
      "numOfAddr": 2, 
      "lonmax": 3.7505877742364055, 
      "latmin": 50.84114180798176
    }, 
    {
      "latmax": 50.8182228760806, 
      "name": "Bospad", 
      "lonmin": 3.7484284369008414, 
      "sanName": "bospad", 
      "numOfAddr": 3, 
      "lonmax": 3.7489790877844547, 
      "latmin": 50.81778923652129
    }, 
    {
      "latmax": 50.84148269046051, 
      "name": "Boterhoek", 
      "lonmin": 3.7720632175735314, 
      "sanName": "boterhoek", 
      "numOfAddr": 18, 
      "lonmax": 3.778767686423506, 
      "latmin": 50.83782958135655
    }, 
    {
      "latmax": 50.77509881602548, 
      "name": "Brakelbosstraat", 
      "lonmin": 3.7233139026099518, 
      "sanName": "brakelbosstraat", 
      "numOfAddr": 46, 
      "lonmax": 3.730519909353382, 
      "latmin": 50.770589187955714
    }, 
    {
      "latmax": 50.76511820139532, 
      "name": "Breedstraat", 
      "lonmin": 3.792986986561941, 
      "sanName": "breedstraat", 
      "numOfAddr": 14, 
      "lonmax": 3.7983385256289366, 
      "latmin": 50.76316574547911
    }, 
    {
      "latmax": 50.79327846190082, 
      "name": "Broekweg", 
      "lonmin": 3.7215679453584327, 
      "sanName": "broekweg", 
      "numOfAddr": 2, 
      "lonmax": 3.7216964355003515, 
      "latmin": 50.79231717309317
    }, 
    {
      "latmax": 50.775968464052035, 
      "name": "Brouwierstraat", 
      "lonmin": 3.803930197269228, 
      "sanName": "brouwierstraat", 
      "numOfAddr": 2, 
      "lonmax": 3.8044494908734476, 
      "latmin": 50.77563015587083
    }, 
    {
      "latmax": 50.804129257228624, 
      "name": "Brugstraat", 
      "lonmin": 3.762711922280022, 
      "sanName": "brugstraat", 
      "numOfAddr": 1, 
      "lonmax": 3.762711922280022, 
      "latmin": 50.804129257228624
    }, 
    {
      "latmax": 50.80994458843102, 
      "name": "Brusselsestraat", 
      "lonmin": 3.7687607815725626, 
      "sanName": "brusselsestraat", 
      "numOfAddr": 104, 
      "lonmax": 3.794403156398207, 
      "latmin": 50.80547953021123
    }, 
    {
      "latmax": 50.805893633303015, 
      "name": "Burreken", 
      "lonmin": 3.7062897690333294, 
      "sanName": "burreken", 
      "numOfAddr": 16, 
      "lonmax": 3.7171991424739765, 
      "latmin": 50.79678673031698
    }, 
    {
      "latmax": 50.83686349922519, 
      "name": "Ceutericklos", 
      "lonmin": 3.7721003503497426, 
      "sanName": "ceutericklos", 
      "numOfAddr": 8, 
      "lonmax": 3.7787247112989815, 
      "latmin": 50.83570160272355
    }, 
    {
      "latmax": 50.77611205043595, 
      "name": "Cijnsland", 
      "lonmin": 3.733863251010068, 
      "sanName": "cijnsland", 
      "numOfAddr": 1, 
      "lonmax": 3.733863251010068, 
      "latmin": 50.77611205043595
    }, 
    {
      "latmax": 50.76487730481212, 
      "name": "Cordenuitstraat", 
      "lonmin": 3.811902793588447, 
      "sanName": "cordenuitstraat", 
      "numOfAddr": 3, 
      "lonmax": 3.812582282994335, 
      "latmin": 50.76455193446668
    }, 
    {
      "latmax": 50.82010308897315, 
      "name": "Daalpad", 
      "lonmin": 3.7492578710972944, 
      "sanName": "daalpad", 
      "numOfAddr": 2, 
      "lonmax": 3.749394430312552, 
      "latmin": 50.820003392756405
    }, 
    {
      "latmax": 50.80448582964109, 
      "name": "Dam", 
      "lonmin": 3.7530334517195296, 
      "sanName": "dam", 
      "numOfAddr": 3, 
      "lonmax": 3.7593129553191176, 
      "latmin": 50.80438566061108
    }, 
    {
      "latmax": 50.801165411638074, 
      "name": "Diggieweg", 
      "lonmin": 3.7451059736071586, 
      "sanName": "diggieweg", 
      "numOfAddr": 10, 
      "lonmax": 3.747752541291972, 
      "latmin": 50.799744209515204
    }, 
    {
      "latmax": 50.78644051905013, 
      "name": "Doensberg", 
      "lonmin": 3.7590949221974834, 
      "sanName": "doensberg", 
      "numOfAddr": 4, 
      "lonmax": 3.762984889029016, 
      "latmin": 50.78296978735363
    }, 
    {
      "latmax": 50.820487780101956, 
      "name": "Dompels", 
      "lonmin": 3.7475255339082985, 
      "sanName": "dompels", 
      "numOfAddr": 13, 
      "lonmax": 3.7499079086460276, 
      "latmin": 50.818277161828995
    }, 
    {
      "latmax": 50.77306466337665, 
      "name": "Donkerstraat", 
      "lonmin": 3.787478534795709, 
      "sanName": "donkerstraat", 
      "numOfAddr": 16, 
      "lonmax": 3.79277889005205, 
      "latmin": 50.771497356700664
    }, 
    {
      "latmax": 50.81558579770705, 
      "name": "Donkweg", 
      "lonmin": 3.7239719994109826, 
      "sanName": "donkweg", 
      "numOfAddr": 21, 
      "lonmax": 3.7304525052344952, 
      "latmin": 50.81095308577252
    }, 
    {
      "latmax": 50.83121967084283, 
      "name": "Dorrebeekstraat", 
      "lonmin": 3.7518125361420664, 
      "sanName": "dorrebeekstraat", 
      "numOfAddr": 8, 
      "lonmax": 3.7585601739161643, 
      "latmin": 50.828171085344316
    }, 
    {
      "latmax": 50.79070703965486, 
      "name": "Draaikonk", 
      "lonmin": 3.7222638965068007, 
      "sanName": "draaikonk", 
      "numOfAddr": 4, 
      "lonmax": 3.723173358276868, 
      "latmin": 50.78936363818887
    }, 
    {
      "latmax": 50.80169056606151, 
      "name": "Dr. De Drijverestraat", 
      "lonmin": 3.767304153417063, 
      "sanName": "drdedrijverestraat", 
      "numOfAddr": 47, 
      "lonmax": 3.7699501038205665, 
      "latmin": 50.80030274186195
    }, 
    {
      "latmax": 50.80941629125388, 
      "name": "Driehoekstraat", 
      "lonmin": 3.7623443249927186, 
      "sanName": "driehoekstraat", 
      "numOfAddr": 124, 
      "lonmax": 3.7695168615205805, 
      "latmin": 50.80548780145479
    }, 
    {
      "latmax": 50.77210781271611, 
      "name": "Dries", 
      "lonmin": 3.801879497382033, 
      "sanName": "dries", 
      "numOfAddr": 7, 
      "lonmax": 3.8033723019992136, 
      "latmin": 50.770742633726556
    }, 
    {
      "latmax": 50.7950648928341, 
      "name": "Driestenbroekestraat", 
      "lonmin": 3.7622733424611843, 
      "sanName": "driestenbroekestraat", 
      "numOfAddr": 16, 
      "lonmax": 3.7656154634582584, 
      "latmin": 50.78600221080393
    }, 
    {
      "latmax": 50.796874762040844, 
      "name": "Edg. Tinelstraat", 
      "lonmin": 3.7560436286469563, 
      "sanName": "edgtinelstraat", 
      "numOfAddr": 20, 
      "lonmax": 3.7585181874193494, 
      "latmin": 50.79523779531464
    }, 
    {
      "latmax": 50.801558538424956, 
      "name": "Eikkouterweg", 
      "lonmin": 3.771044549835124, 
      "sanName": "eikkouterweg", 
      "numOfAddr": 5, 
      "lonmax": 3.771412324806239, 
      "latmin": 50.80145220223396
    }, 
    {
      "latmax": 50.797801978353014, 
      "name": "Ekeveldstraat", 
      "lonmin": 3.7531330088538724, 
      "sanName": "ekeveldstraat", 
      "numOfAddr": 8, 
      "lonmax": 3.7539206528815647, 
      "latmin": 50.796501759408066
    }, 
    {
      "latmax": 50.823986429271365, 
      "name": "Elverenberg", 
      "lonmin": 3.7823781015522973, 
      "sanName": "elverenberg", 
      "numOfAddr": 19, 
      "lonmax": 3.788053021271042, 
      "latmin": 50.816975861643144
    }, 
    {
      "latmax": 50.7899651711705, 
      "name": "Evensveldstraat", 
      "lonmin": 3.7578253171910583, 
      "sanName": "evensveldstraat", 
      "numOfAddr": 9, 
      "lonmax": 3.7687437518499802, 
      "latmin": 50.78598622498248
    }, 
    {
      "latmax": 50.763847449108304, 
      "name": "Everbeekplaats", 
      "lonmin": 3.8081893821109944, 
      "sanName": "everbeekplaats", 
      "numOfAddr": 14, 
      "lonmax": 3.8101300066596044, 
      "latmin": 50.76289073617205
    }, 
    {
      "latmax": 50.786239731928724, 
      "name": "Fayte", 
      "lonmin": 3.7793967184886936, 
      "sanName": "fayte", 
      "numOfAddr": 78, 
      "lonmax": 3.789646441608734, 
      "latmin": 50.77711229425239
    }, 
    {
      "latmax": 50.798130088429026, 
      "name": "Fonteinweg", 
      "lonmin": 3.775331808991031, 
      "sanName": "fonteinweg", 
      "numOfAddr": 8, 
      "lonmax": 3.7764538903529243, 
      "latmin": 50.79753351256934
    }, 
    {
      "latmax": 50.77566163486615, 
      "name": "Fraan", 
      "lonmin": 3.790943545169462, 
      "sanName": "fraan", 
      "numOfAddr": 4, 
      "lonmax": 3.7918827081280275, 
      "latmin": 50.77512800884814
    }, 
    {
      "latmax": 50.78147619634942, 
      "name": "Fransbeke", 
      "lonmin": 3.7362308479584483, 
      "sanName": "fransbeke", 
      "numOfAddr": 2, 
      "lonmax": 3.7381091287673844, 
      "latmin": 50.78088271741575
    }, 
    {
      "latmax": 50.79641085916853, 
      "name": "Gauwinkel", 
      "lonmin": 3.7262330759045663, 
      "sanName": "gauwinkel", 
      "numOfAddr": 6, 
      "lonmax": 3.7407685481353767, 
      "latmin": 50.79404265720532
    }, 
    {
      "latmax": 50.80416075142959, 
      "name": "Gauwstraat", 
      "lonmin": 3.766969922494101, 
      "sanName": "gauwstraat", 
      "numOfAddr": 38, 
      "lonmax": 3.7692342260581126, 
      "latmin": 50.80290662073152
    }, 
    {
      "latmax": 50.8398477277681, 
      "name": "Gentsestraat", 
      "lonmin": 3.7305472601375333, 
      "sanName": "gentsestraat", 
      "numOfAddr": 62, 
      "lonmax": 3.734600746655157, 
      "latmin": 50.81498218984962
    }, 
    {
      "latmax": 50.79820289453764, 
      "name": "Geraardsbergsestraat", 
      "lonmin": 3.7591210112014677, 
      "sanName": "geraardsbergsestraat", 
      "numOfAddr": 109, 
      "lonmax": 3.7786037405475903, 
      "latmin": 50.79135762187846
    }, 
    {
      "latmax": 50.8297602870325, 
      "name": "Geutelingenstraat", 
      "lonmin": 3.7376077830924035, 
      "sanName": "geutelingenstraat", 
      "numOfAddr": 9, 
      "lonmax": 3.739121807091319, 
      "latmin": 50.82929498585176
    }, 
    {
      "latmax": 50.8337742621263, 
      "name": "G.Gezellestraat", 
      "lonmin": 3.7621415974874926, 
      "sanName": "ggezellestraat", 
      "numOfAddr": 10, 
      "lonmax": 3.763109230811989, 
      "latmin": 50.83267477321641
    }, 
    {
      "latmax": 50.83044543717359, 
      "name": "Griezelendries", 
      "lonmin": 3.723011879037917, 
      "sanName": "griezelendries", 
      "numOfAddr": 1, 
      "lonmax": 3.723011879037917, 
      "latmin": 50.83044543717359
    }, 
    {
      "latmax": 50.789048113641975, 
      "name": "Groeneweg", 
      "lonmin": 3.764100928718446, 
      "sanName": "groeneweg", 
      "numOfAddr": 3, 
      "lonmax": 3.7642570623267377, 
      "latmin": 50.78846148515378
    }, 
    {
      "latmax": 50.83479333636849, 
      "name": "Groenstraat", 
      "lonmin": 3.762897199977271, 
      "sanName": "groenstraat", 
      "numOfAddr": 31, 
      "lonmax": 3.7685338503315906, 
      "latmin": 50.833329543093036
    }, 
    {
      "latmax": 50.825880789677655, 
      "name": "Groot Kapittel", 
      "lonmin": 3.746024222786186, 
      "sanName": "grootkapittel", 
      "numOfAddr": 6, 
      "lonmax": 3.7471678996459477, 
      "latmin": 50.82565695572896
    }, 
    {
      "latmax": 50.83040335415734, 
      "name": "Haaghoek", 
      "lonmin": 3.709508522114732, 
      "sanName": "haaghoek", 
      "numOfAddr": 25, 
      "lonmax": 3.7159578095479535, 
      "latmin": 50.82256523491915
    }, 
    {
      "latmax": 50.804064804782804, 
      "name": "Haeyershoek", 
      "lonmin": 2.306689562140502, 
      "sanName": "haeyershoek", 
      "numOfAddr": 61, 
      "lonmax": 3.7500262443407024, 
      "latmin": 49.293335165093566
    }, 
    {
      "latmax": 50.804382099325025, 
      "name": "Halsembergweg", 
      "lonmin": 3.7816081803561383, 
      "sanName": "halsembergweg", 
      "numOfAddr": 6, 
      "lonmax": 3.7824987123769995, 
      "latmin": 50.80407539309642
    }, 
    {
      "latmax": 50.81301132825917, 
      "name": "Hauwstraat", 
      "lonmin": 3.718170175052022, 
      "sanName": "hauwstraat", 
      "numOfAddr": 50, 
      "lonmax": 3.7342466758056094, 
      "latmin": 50.80600277807266
    }, 
    {
      "latmax": 50.784398476325286, 
      "name": "Hayestraat", 
      "lonmin": 3.7611317554254393, 
      "sanName": "hayestraat", 
      "numOfAddr": 5, 
      "lonmax": 3.768053393261069, 
      "latmin": 50.78118926496187
    }, 
    {
      "latmax": 50.80787946093639, 
      "name": "H. De Coenestraat", 
      "lonmin": 3.768713127895867, 
      "sanName": "hdecoenestraat", 
      "numOfAddr": 14, 
      "lonmax": 3.76936172369554, 
      "latmin": 50.80654169427716
    }, 
    {
      "latmax": 50.77495318328535, 
      "name": "Heinestraat", 
      "lonmin": 3.7305955354496487, 
      "sanName": "heinestraat", 
      "numOfAddr": 12, 
      "lonmax": 3.733261574918887, 
      "latmin": 50.771924352990126
    }, 
    {
      "latmax": 50.84008798434537, 
      "name": "Heksteelstraat", 
      "lonmin": 3.7592484952515264, 
      "sanName": "heksteelstraat", 
      "numOfAddr": 17, 
      "lonmax": 3.7622823182220606, 
      "latmin": 50.833988566551035
    }, 
    {
      "latmax": 50.796444054545134, 
      "name": "Hellenhoek", 
      "lonmin": 3.727471291933578, 
      "sanName": "hellenhoek", 
      "numOfAddr": 3, 
      "lonmax": 3.7288972241774547, 
      "latmin": 50.79567931081377
    }, 
    {
      "latmax": 50.758511041368294, 
      "name": "Hemelrijk", 
      "lonmin": 3.779553389114182, 
      "sanName": "hemelrijk", 
      "numOfAddr": 22, 
      "lonmax": 3.7943146405195303, 
      "latmin": 50.755525940859826
    }, 
    {
      "latmax": 50.790931398526865, 
      "name": "Herenhof", 
      "lonmin": 3.739459117040758, 
      "sanName": "herenhof", 
      "numOfAddr": 5, 
      "lonmax": 3.7407958342013603, 
      "latmin": 50.789857997372835
    }, 
    {
      "latmax": 50.834056898611585, 
      "name": "Heringstraat", 
      "lonmin": 3.7365614334067043, 
      "sanName": "heringstraat", 
      "numOfAddr": 14, 
      "lonmax": 3.74047274445039, 
      "latmin": 50.83063055451167
    }, 
    {
      "latmax": 50.80095208434008, 
      "name": "Herreweg", 
      "lonmin": 3.7566647619799443, 
      "sanName": "herreweg", 
      "numOfAddr": 51, 
      "lonmax": 3.75902115069864, 
      "latmin": 50.798825813040764
    }, 
    {
      "latmax": 50.814468233750105, 
      "name": "Herthuizen", 
      "lonmin": 3.7517443262526595, 
      "sanName": "herthuizen", 
      "numOfAddr": 8, 
      "lonmax": 3.753930779184884, 
      "latmin": 50.812720023510124
    }, 
    {
      "latmax": 50.84115539144195, 
      "name": "Heuvelgem", 
      "lonmin": 3.724785504228612, 
      "sanName": "heuvelgem", 
      "numOfAddr": 3, 
      "lonmax": 3.726871660402282, 
      "latmin": 50.84093863769481
    }, 
    {
      "latmax": 50.81327858704501, 
      "name": "Heyveld", 
      "lonmin": 3.78447452514339, 
      "sanName": "heyveld", 
      "numOfAddr": 17, 
      "lonmax": 3.790097424218131, 
      "latmin": 50.80423256872526
    }, 
    {
      "latmax": 50.79602975629134, 
      "name": "Hoevestraat", 
      "lonmin": 3.772681770164889, 
      "sanName": "hoevestraat", 
      "numOfAddr": 3, 
      "lonmax": 3.7748502502335146, 
      "latmin": 50.79546551598243
    }, 
    {
      "latmax": 50.79062349871544, 
      "name": "Hofveld", 
      "lonmin": 3.7310232051716996, 
      "sanName": "hofveld", 
      "numOfAddr": 3, 
      "lonmax": 3.7344412421822226, 
      "latmin": 50.789901860089806
    }, 
    {
      "latmax": 50.79715155053297, 
      "name": "Hogezavel", 
      "lonmin": 3.7649575616908306, 
      "sanName": "hogezavel", 
      "numOfAddr": 6, 
      "lonmax": 3.770719419892009, 
      "latmin": 50.79434020173381
    }, 
    {
      "latmax": 50.7919150498222, 
      "name": "Holenbroek", 
      "lonmin": 3.7464336136586684, 
      "sanName": "holenbroek", 
      "numOfAddr": 34, 
      "lonmax": 3.75005017104489, 
      "latmin": 50.78928127316837
    }, 
    {
      "latmax": 50.784660434369364, 
      "name": "Hoogbos", 
      "lonmin": 3.7649941612711695, 
      "sanName": "hoogbos", 
      "numOfAddr": 32, 
      "lonmax": 3.769797789302012, 
      "latmin": 50.77887245479024
    }, 
    {
      "latmax": 50.82630963969996, 
      "name": "Hoogkouterstraat", 
      "lonmin": 3.75818789189459, 
      "sanName": "hoogkouterstraat", 
      "numOfAddr": 3, 
      "lonmax": 3.759463203669186, 
      "latmin": 50.824231027016275
    }, 
    {
      "latmax": 50.80340554734221, 
      "name": "Hoogstraat", 
      "lonmin": 3.763520727834327, 
      "sanName": "hoogstraat", 
      "numOfAddr": 22, 
      "lonmax": 3.764696346834892, 
      "latmin": 50.80272698131145
    }, 
    {
      "latmax": 50.83772495851162, 
      "name": "Hovendaal", 
      "lonmin": 3.7609650527408864, 
      "sanName": "hovendaal", 
      "numOfAddr": 97, 
      "lonmax": 3.7648386754161276, 
      "latmin": 50.83435767539949
    }, 
    {
      "latmax": 50.798533412248844, 
      "name": "Hul", 
      "lonmin": 3.7156021589437698, 
      "sanName": "hul", 
      "numOfAddr": 14, 
      "lonmax": 3.722538795541595, 
      "latmin": 50.79714129632011
    }, 
    {
      "latmax": 50.784185137121554, 
      "name": "Hutte", 
      "lonmin": 3.714703456552432, 
      "sanName": "hutte", 
      "numOfAddr": 7, 
      "lonmax": 3.7187318282458053, 
      "latmin": 50.78209123759566
    }, 
    {
      "latmax": 50.7950294562326, 
      "name": "Ijskelderweg", 
      "lonmin": 3.71326521478873, 
      "sanName": "ijskelderweg", 
      "numOfAddr": 4, 
      "lonmax": 3.714345550137671, 
      "latmin": 50.793013641221386
    }, 
    {
      "latmax": 50.79548365401049, 
      "name": "Industrielaan", 
      "lonmin": 3.753384681197415, 
      "sanName": "industrielaan", 
      "numOfAddr": 22, 
      "lonmax": 3.760525270997279, 
      "latmin": 50.79115486145346
    }, 
    {
      "latmax": 50.80416946830716, 
      "name": "Jagersstraat", 
      "lonmin": 3.7509573545447887, 
      "sanName": "jagersstraat", 
      "numOfAddr": 51, 
      "lonmax": 3.7551009174486176, 
      "latmin": 50.80137117683699
    }, 
    {
      "latmax": 50.79534912243646, 
      "name": "J. Sadonespad", 
      "lonmin": 3.7425801414269824, 
      "sanName": "jsadonespad", 
      "numOfAddr": 1, 
      "lonmax": 3.7425801414269824, 
      "latmin": 50.79534912243646
    }, 
    {
      "latmax": 50.839128778229444, 
      "name": "Kammeland", 
      "lonmin": 3.7654459247505674, 
      "sanName": "kammeland", 
      "numOfAddr": 5, 
      "lonmax": 3.7672374200430148, 
      "latmin": 50.83424293339272
    }, 
    {
      "latmax": 50.805960981591554, 
      "name": "Kanakkendries", 
      "lonmin": 3.7178962782013087, 
      "sanName": "kanakkendries", 
      "numOfAddr": 37, 
      "lonmax": 3.730762010511898, 
      "latmin": 50.79870152452059
    }, 
    {
      "latmax": 50.75924012716437, 
      "name": "Kapellen", 
      "lonmin": 3.7663087069010275, 
      "sanName": "kapellen", 
      "numOfAddr": 11, 
      "lonmax": 3.775074398636554, 
      "latmin": 50.756972207762864
    }, 
    {
      "latmax": 50.831610194206256, 
      "name": "Kapittel", 
      "lonmin": 3.7788451941882877, 
      "sanName": "kapittel", 
      "numOfAddr": 39, 
      "lonmax": 3.7831058726634605, 
      "latmin": 50.82910732017575
    }, 
    {
      "latmax": 50.83109213002417, 
      "name": "Kasteeldreef", 
      "lonmin": 3.775094027771941, 
      "sanName": "kasteeldreef", 
      "numOfAddr": 14, 
      "lonmax": 3.785186092430282, 
      "latmin": 50.82203795620857
    }, 
    {
      "latmax": 50.802765654068466, 
      "name": "Kasteelstraat", 
      "lonmin": 3.759362391076976, 
      "sanName": "kasteelstraat", 
      "numOfAddr": 79, 
      "lonmax": 3.76386544411217, 
      "latmin": 50.798585131612185
    }, 
    {
      "latmax": 50.79931329545006, 
      "name": "Katsijnenhoek", 
      "lonmin": 3.7647213976625524, 
      "sanName": "katsijnenhoek", 
      "numOfAddr": 21, 
      "lonmax": 3.7675915593211426, 
      "latmin": 50.797986380622476
    }, 
    {
      "latmax": 50.8272598224156, 
      "name": "Keiweg", 
      "lonmin": 3.7110269609391264, 
      "sanName": "keiweg", 
      "numOfAddr": 12, 
      "lonmax": 3.7213124896447676, 
      "latmin": 50.82594162974399
    }, 
    {
      "latmax": 50.81208077754915, 
      "name": "Kerkhofstraat", 
      "lonmin": 3.7583933844372783, 
      "sanName": "kerkhofstraat", 
      "numOfAddr": 83, 
      "lonmax": 3.7622935497898644, 
      "latmin": 50.805896284735184
    }, 
    {
      "latmax": 50.805040444294335, 
      "name": "Kerkmeers", 
      "lonmin": 3.7708171377473754, 
      "sanName": "kerkmeers", 
      "numOfAddr": 1, 
      "lonmax": 3.7708171377473754, 
      "latmin": 50.805040444294335
    }, 
    {
      "latmax": 50.828630258530225, 
      "name": "Keuzelweg", 
      "lonmin": 3.736512945520056, 
      "sanName": "keuzelweg", 
      "numOfAddr": 1, 
      "lonmax": 3.736512945520056, 
      "latmin": 50.828630258530225
    }, 
    {
      "latmax": 50.818883909052474, 
      "name": "Kiekenstraat", 
      "lonmin": 3.7533618641155444, 
      "sanName": "kiekenstraat", 
      "numOfAddr": 3, 
      "lonmax": 3.7538237888887047, 
      "latmin": 50.81745279831648
    }, 
    {
      "latmax": 50.794241248488184, 
      "name": "Kimpestraat", 
      "lonmin": 3.7253199715253293, 
      "sanName": "kimpestraat", 
      "numOfAddr": 26, 
      "lonmax": 3.7305721227646935, 
      "latmin": 50.790111473496076
    }, 
    {
      "latmax": 50.77647928706117, 
      "name": "Klaaie", 
      "lonmin": 3.7997869115123346, 
      "sanName": "klaaie", 
      "numOfAddr": 38, 
      "lonmax": 3.805895689263753, 
      "latmin": 50.76797411372611
    }, 
    {
      "latmax": 50.810926744645805, 
      "name": "Kleibergstraat", 
      "lonmin": 3.736085714556713, 
      "sanName": "kleibergstraat", 
      "numOfAddr": 39, 
      "lonmax": 3.7511707038969386, 
      "latmin": 50.80433309773844
    }, 
    {
      "latmax": 50.82507780680387, 
      "name": "Kleine Gastenhoek", 
      "lonmin": 3.721336918770465, 
      "sanName": "kleinegastenhoek", 
      "numOfAddr": 8, 
      "lonmax": 3.729624890475483, 
      "latmin": 50.822088663646355
    }, 
    {
      "latmax": 50.83489120134139, 
      "name": "Klein Kapittel", 
      "lonmin": 3.73890588178449, 
      "sanName": "kleinkapittel", 
      "numOfAddr": 8, 
      "lonmax": 3.7401374931979654, 
      "latmin": 50.833530225626845
    }, 
    {
      "latmax": 50.807024292369476, 
      "name": "Kleistraat", 
      "lonmin": 3.7390070653817293, 
      "sanName": "kleistraat", 
      "numOfAddr": 16, 
      "lonmax": 3.7438036465398072, 
      "latmin": 50.80048080339394
    }, 
    {
      "latmax": 50.75159853553877, 
      "name": "Kloosterstraat", 
      "lonmin": 3.787811363679688, 
      "sanName": "kloosterstraat", 
      "numOfAddr": 22, 
      "lonmax": 3.8155813857508023, 
      "latmin": 50.748574074639436
    }, 
    {
      "latmax": 50.815847030777746, 
      "name": "Knoopsweg", 
      "lonmin": 3.763742687600079, 
      "sanName": "knoopsweg", 
      "numOfAddr": 6, 
      "lonmax": 3.7647507177495307, 
      "latmin": 50.81543335461538
    }, 
    {
      "latmax": 50.78056020146505, 
      "name": "Koestraat", 
      "lonmin": 3.7944619087703453, 
      "sanName": "koestraat", 
      "numOfAddr": 1, 
      "lonmax": 3.7944619087703453, 
      "latmin": 50.78056020146505
    }, 
    {
      "latmax": 50.80712320379474, 
      "name": "Kokerbergstraat", 
      "lonmin": 3.7797607423183583, 
      "sanName": "kokerbergstraat", 
      "numOfAddr": 17, 
      "lonmax": 3.7808715854774158, 
      "latmin": 50.804865022299964
    }, 
    {
      "latmax": 50.77968584417582, 
      "name": "Koningsweg", 
      "lonmin": 3.727171871131257, 
      "sanName": "koningsweg", 
      "numOfAddr": 4, 
      "lonmax": 3.7280022083992828, 
      "latmin": 50.77643886334995
    }, 
    {
      "latmax": 50.767932652057645, 
      "name": "Koreelweg", 
      "lonmin": 3.8064032265610184, 
      "sanName": "koreelweg", 
      "numOfAddr": 2, 
      "lonmax": 3.806537039590542, 
      "latmin": 50.76790818682805
    }, 
    {
      "latmax": 50.777079165589534, 
      "name": "Kortedreef", 
      "lonmin": 3.7353035551011704, 
      "sanName": "kortedreef", 
      "numOfAddr": 6, 
      "lonmax": 3.736924902886731, 
      "latmin": 50.77466807484161
    }, 
    {
      "latmax": 50.80785643989304, 
      "name": "Kouterstraat", 
      "lonmin": 3.7487187694441673, 
      "sanName": "kouterstraat", 
      "numOfAddr": 27, 
      "lonmax": 3.759340471201444, 
      "latmin": 50.80597620958236
    }, 
    {
      "latmax": 50.82277678965586, 
      "name": "Kraaiestee", 
      "lonmin": 3.7648352723390675, 
      "sanName": "kraaiestee", 
      "numOfAddr": 7, 
      "lonmax": 3.7715238944430456, 
      "latmin": 50.821981790870694
    }, 
    {
      "latmax": 50.7625089221417, 
      "name": "Kremerstraat", 
      "lonmin": 3.774990596872687, 
      "sanName": "kremerstraat", 
      "numOfAddr": 17, 
      "lonmax": 3.7804006626082454, 
      "latmin": 50.7588833007145
    }, 
    {
      "latmax": 50.778697613792396, 
      "name": "Kroonstraat", 
      "lonmin": 3.765192874871453, 
      "sanName": "kroonstraat", 
      "numOfAddr": 62, 
      "lonmax": 3.774706946710249, 
      "latmin": 50.77470890763624
    }, 
    {
      "latmax": 50.80375645577116, 
      "name": "Kruisstraat", 
      "lonmin": 3.7709184721052256, 
      "sanName": "kruisstraat", 
      "numOfAddr": 104, 
      "lonmax": 3.7880402071083465, 
      "latmin": 50.79728322244008
    }, 
    {
      "latmax": 50.79372270274908, 
      "name": "Kuipersweg", 
      "lonmin": 3.7183731471608072, 
      "sanName": "kuipersweg", 
      "numOfAddr": 4, 
      "lonmax": 3.719425306266756, 
      "latmin": 50.792040291192215
    }, 
    {
      "latmax": 50.83683964092917, 
      "name": "Kuiterlos", 
      "lonmin": 3.7769837318873902, 
      "sanName": "kuiterlos", 
      "numOfAddr": 18, 
      "lonmax": 3.7801682574584463, 
      "latmin": 50.833375942999325
    }, 
    {
      "latmax": 50.809113391528875, 
      "name": "Kulkadetstraat", 
      "lonmin": 3.728957631822211, 
      "sanName": "kulkadetstraat", 
      "numOfAddr": 9, 
      "lonmax": 3.731682572867236, 
      "latmin": 50.80638844388141
    }, 
    {
      "latmax": 50.81491604536766, 
      "name": "Kunnenbergstraat", 
      "lonmin": 3.758654595189674, 
      "sanName": "kunnenbergstraat", 
      "numOfAddr": 35, 
      "lonmax": 3.7622395246833573, 
      "latmin": 50.81220549657139
    }, 
    {
      "latmax": 50.776321149283234, 
      "name": "Laaistok", 
      "lonmin": 3.7252764718831637, 
      "sanName": "laaistok", 
      "numOfAddr": 5, 
      "lonmax": 3.729842532863922, 
      "latmin": 50.77545020699634
    }, 
    {
      "latmax": 50.802359957187846, 
      "name": "Langakkerstraat", 
      "lonmin": 3.741151189050988, 
      "sanName": "langakkerstraat", 
      "numOfAddr": 6, 
      "lonmax": 3.742399412866075, 
      "latmin": 50.8021012072616
    }, 
    {
      "latmax": 50.827903990537344, 
      "name": "Leberg", 
      "lonmin": 3.716755043434982, 
      "sanName": "leberg", 
      "numOfAddr": 23, 
      "lonmax": 3.7244997995411357, 
      "latmin": 50.822911104369894
    }, 
    {
      "latmax": 50.817922714963146, 
      "name": "Leierwaarde", 
      "lonmin": 3.715717288765455, 
      "sanName": "leierwaarde", 
      "numOfAddr": 37, 
      "lonmax": 3.7197735585823946, 
      "latmin": 50.80673410390598
    }, 
    {
      "latmax": 50.78749051517472, 
      "name": "Leinstraat", 
      "lonmin": 3.7306203329250707, 
      "sanName": "leinstraat", 
      "numOfAddr": 69, 
      "lonmax": 3.7439060697259317, 
      "latmin": 50.77554632150962
    }, 
    {
      "latmax": 50.79682234506074, 
      "name": "Leizemooie", 
      "lonmin": 3.742675699306691, 
      "sanName": "leizemooie", 
      "numOfAddr": 7, 
      "lonmax": 3.7446957956083122, 
      "latmin": 50.79631308605044
    }, 
    {
      "latmax": 50.83382731900768, 
      "name": "Lepelstraat", 
      "lonmin": 3.73286348213196, 
      "sanName": "lepelstraat", 
      "numOfAddr": 78, 
      "lonmax": 3.7618612639752493, 
      "latmin": 50.830130280148374
    }, 
    {
      "latmax": 50.76277473525355, 
      "name": "Lessensestraat", 
      "lonmin": 3.807300984204981, 
      "sanName": "lessensestraat", 
      "numOfAddr": 42, 
      "lonmax": 3.814288874086576, 
      "latmin": 50.754120620094476
    }, 
    {
      "latmax": 50.80798006209823, 
      "name": "Lindeberm", 
      "lonmin": 3.7418530574696396, 
      "sanName": "lindeberm", 
      "numOfAddr": 1, 
      "lonmax": 3.7418530574696396, 
      "latmin": 50.80798006209823
    }, 
    {
      "latmax": 50.805802922753585, 
      "name": "Lindeplein", 
      "lonmin": 3.7613323220213153, 
      "sanName": "lindeplein", 
      "numOfAddr": 4, 
      "lonmax": 3.7615497157884468, 
      "latmin": 50.8053993105446
    }, 
    {
      "latmax": 50.78076938620869, 
      "name": "Livierenstraat", 
      "lonmin": 3.7467390058816945, 
      "sanName": "livierenstraat", 
      "numOfAddr": 16, 
      "lonmax": 3.750735363943574, 
      "latmin": 50.77867516165509
    }, 
    {
      "latmax": 50.76861337908337, 
      "name": "Lobe", 
      "lonmin": 3.7697827396914865, 
      "sanName": "lobe", 
      "numOfAddr": 8, 
      "lonmax": 3.776921850724453, 
      "latmin": 50.763032316130946
    }, 
    {
      "latmax": 50.814208340934194, 
      "name": "Loofweg", 
      "lonmin": 3.7310055791555947, 
      "sanName": "loofweg", 
      "numOfAddr": 3, 
      "lonmax": 3.7312028218429933, 
      "latmin": 50.81374089614424
    }, 
    {
      "latmax": 50.815514046245404, 
      "name": "Lozelandstraat", 
      "lonmin": 3.762813848498071, 
      "sanName": "lozelandstraat", 
      "numOfAddr": 20, 
      "lonmax": 3.765196379087842, 
      "latmin": 50.81382553818065
    }, 
    {
      "latmax": 50.788460382967926, 
      "name": "Maaistraat", 
      "lonmin": 3.731747789800298, 
      "sanName": "maaistraat", 
      "numOfAddr": 5, 
      "lonmax": 3.7355375461722193, 
      "latmin": 50.78298587014865
    }, 
    {
      "latmax": 50.77387085592793, 
      "name": "Maandagstraat", 
      "lonmin": 3.7650327933000454, 
      "sanName": "maandagstraat", 
      "numOfAddr": 59, 
      "lonmax": 3.775764596673405, 
      "latmin": 50.769261121041694
    }, 
    {
      "latmax": 50.804604239125986, 
      "name": "Marktplein", 
      "lonmin": 3.763655937096225, 
      "sanName": "marktplein", 
      "numOfAddr": 24, 
      "lonmax": 3.7652258339662836, 
      "latmin": 50.80342017143387
    }, 
    {
      "latmax": 50.80609774247683, 
      "name": "Meerbeekstraat", 
      "lonmin": 3.7513241883118655, 
      "sanName": "meerbeekstraat", 
      "numOfAddr": 113, 
      "lonmax": 3.7613222450205894, 
      "latmin": 50.80424190402901
    }, 
    {
      "latmax": 50.78378192271622, 
      "name": "Meersweg", 
      "lonmin": 3.730825463584955, 
      "sanName": "meersweg", 
      "numOfAddr": 1, 
      "lonmax": 3.730825463584955, 
      "latmin": 50.78378192271622
    }, 
    {
      "latmax": 50.83245782500089, 
      "name": "Meierij", 
      "lonmin": 3.7633069826033236, 
      "sanName": "meierij", 
      "numOfAddr": 43, 
      "lonmax": 3.7709054750887856, 
      "latmin": 50.824472707762986
    }, 
    {
      "latmax": 50.82468575334128, 
      "name": "Miegelweg", 
      "lonmin": 3.754304590790327, 
      "sanName": "miegelweg", 
      "numOfAddr": 2, 
      "lonmax": 3.756362572620786, 
      "latmin": 50.822280093190145
    }, 
    {
      "latmax": 50.75825481974031, 
      "name": "Mierenhoek", 
      "lonmin": 3.806587421690627, 
      "sanName": "mierenhoek", 
      "numOfAddr": 13, 
      "lonmax": 3.8104814178982425, 
      "latmin": 50.75680532725304
    }, 
    {
      "latmax": 50.821526391340015, 
      "name": "Molenberg", 
      "lonmin": 3.7695890338781277, 
      "sanName": "molenberg", 
      "numOfAddr": 23, 
      "lonmax": 3.7736590108197325, 
      "latmin": 50.81472609364994
    }, 
    {
      "latmax": 50.81308552021685, 
      "name": "Molenhoekstraat", 
      "lonmin": 3.770122553301938, 
      "sanName": "molenhoekstraat", 
      "numOfAddr": 57, 
      "lonmax": 3.77866956748216, 
      "latmin": 50.81086543449814
    }, 
    {
      "latmax": 50.83327636630081, 
      "name": "Molenkouterweg", 
      "lonmin": 3.7323302114001473, 
      "sanName": "molenkouterweg", 
      "numOfAddr": 2, 
      "lonmax": 3.7350701544309755, 
      "latmin": 50.83156720247993
    }, 
    {
      "latmax": 50.81437516544367, 
      "name": "Moriaanstraat", 
      "lonmin": 3.7691247083681945, 
      "sanName": "moriaanstraat", 
      "numOfAddr": 41, 
      "lonmax": 3.7704097386155926, 
      "latmin": 50.810865033799594
    }, 
    {
      "latmax": 50.775314742299926, 
      "name": "Muiterij", 
      "lonmin": 3.7748578846231178, 
      "sanName": "muiterij", 
      "numOfAddr": 47, 
      "lonmax": 3.780315009051495, 
      "latmin": 50.773481885361385
    }, 
    {
      "latmax": 50.828730833994115, 
      "name": "Muizeveld", 
      "lonmin": 3.743809684975171, 
      "sanName": "muizeveld", 
      "numOfAddr": 3, 
      "lonmax": 3.7453638103911286, 
      "latmin": 50.82866439480982
    }, 
    {
      "latmax": 50.771642652008985, 
      "name": "Munkweg", 
      "lonmin": 3.7263040459735337, 
      "sanName": "munkweg", 
      "numOfAddr": 10, 
      "lonmax": 3.7267986545579124, 
      "latmin": 50.77057241817141
    }, 
    {
      "latmax": 50.84071812098056, 
      "name": "Nederpoorterij", 
      "lonmin": 3.7479499312464215, 
      "sanName": "nederpoorterij", 
      "numOfAddr": 4, 
      "lonmax": 3.7539666161474963, 
      "latmin": 50.83729931736093
    }, 
    {
      "latmax": 50.80899714220838, 
      "name": "Nederstenkouter", 
      "lonmin": 3.7621439156424237, 
      "sanName": "nederstenkouter", 
      "numOfAddr": 59, 
      "lonmax": 3.7655376266615797, 
      "latmin": 50.80676831536008
    }, 
    {
      "latmax": 50.8176468657044, 
      "name": "Neerhofstraat", 
      "lonmin": 3.7655151976749606, 
      "sanName": "neerhofstraat", 
      "numOfAddr": 15, 
      "lonmax": 3.7690124248675327, 
      "latmin": 50.814419758055195
    }, 
    {
      "latmax": 50.80575629994662, 
      "name": "Neerstraat", 
      "lonmin": 3.7650609812797096, 
      "sanName": "neerstraat", 
      "numOfAddr": 76, 
      "lonmax": 3.768684163351687, 
      "latmin": 50.80301259596887
    }, 
    {
      "latmax": 50.7631008811988, 
      "name": "Nestor Debeckstraat", 
      "lonmin": 3.807125336830348, 
      "sanName": "nestordebeckstraat", 
      "numOfAddr": 17, 
      "lonmax": 3.8082516644857085, 
      "latmin": 50.762316894482844
    }, 
    {
      "latmax": 50.773426024951064, 
      "name": "Nieuwpoort", 
      "lonmin": 3.777547102270219, 
      "sanName": "nieuwpoort", 
      "numOfAddr": 28, 
      "lonmax": 3.7818665992529197, 
      "latmin": 50.76628775176442
    }, 
    {
      "latmax": 50.83256245535288, 
      "name": "Nieuwstraat", 
      "lonmin": 3.74477855316298, 
      "sanName": "nieuwstraat", 
      "numOfAddr": 63, 
      "lonmax": 3.7632176245901605, 
      "latmin": 50.82160536710903
    }, 
    {
      "latmax": 50.83019965044613, 
      "name": "Noordhoek", 
      "lonmin": 3.734032118345193, 
      "sanName": "noordhoek", 
      "numOfAddr": 25, 
      "lonmax": 3.7369314991738887, 
      "latmin": 50.8286844215844
    }, 
    {
      "latmax": 50.779210112682804, 
      "name": "Okkerbeke", 
      "lonmin": 3.743320799540184, 
      "sanName": "okkerbeke", 
      "numOfAddr": 2, 
      "lonmax": 3.7465432071422042, 
      "latmin": 50.777541774269174
    }, 
    {
      "latmax": 50.79716011677581, 
      "name": "Olifantstraat", 
      "lonmin": 3.7703576230992355, 
      "sanName": "olifantstraat", 
      "numOfAddr": 29, 
      "lonmax": 3.7723603529474232, 
      "latmin": 50.79392782048755
    }, 
    {
      "latmax": 50.82929671086157, 
      "name": "Ommegangstraat", 
      "lonmin": 3.733545806728941, 
      "sanName": "ommegangstraat", 
      "numOfAddr": 54, 
      "lonmax": 3.7400817974575795, 
      "latmin": 50.826581970463195
    }, 
    {
      "latmax": 50.77096750324422, 
      "name": "Oolstraat", 
      "lonmin": 3.7728463158053898, 
      "sanName": "oolstraat", 
      "numOfAddr": 9, 
      "lonmax": 3.7795043761893137, 
      "latmin": 50.76988886695919
    }, 
    {
      "latmax": 50.809361114481284, 
      "name": "Oorloge", 
      "lonmin": 3.7469543848569407, 
      "sanName": "oorloge", 
      "numOfAddr": 32, 
      "lonmax": 3.7501616089328333, 
      "latmin": 50.80621054071861
    }, 
    {
      "latmax": 50.79747193822483, 
      "name": "Opbrakelsestraat", 
      "lonmin": 3.7501406252329317, 
      "sanName": "opbrakelsestraat", 
      "numOfAddr": 64, 
      "lonmax": 3.7582325469491145, 
      "latmin": 50.79237015376668
    }, 
    {
      "latmax": 50.81193783104639, 
      "name": "Oude Blekerijstraat", 
      "lonmin": 3.77602759050547, 
      "sanName": "oudeblekerijstraat", 
      "numOfAddr": 23, 
      "lonmax": 3.779398146403099, 
      "latmin": 50.807598291843334
    }, 
    {
      "latmax": 50.81848209348101, 
      "name": "Oudenaardsestraat", 
      "lonmin": 3.7179466211357908, 
      "sanName": "oudenaardsestraat", 
      "numOfAddr": 76, 
      "lonmax": 3.7354599299350237, 
      "latmin": 50.81255521936199
    }, 
    {
      "latmax": 50.78922581989041, 
      "name": "Oude Pastorijstraat", 
      "lonmin": 3.74723310407655, 
      "sanName": "oudepastorijstraat", 
      "numOfAddr": 1, 
      "lonmax": 3.74723310407655, 
      "latmin": 50.78922581989041
    }, 
    {
      "latmax": 50.81052552339479, 
      "name": "Papestraat", 
      "lonmin": 3.766482439407404, 
      "sanName": "papestraat", 
      "numOfAddr": 15, 
      "lonmax": 3.768743544925428, 
      "latmin": 50.80934977436323
    }, 
    {
      "latmax": 50.80491306556212, 
      "name": "Parkweg", 
      "lonmin": 3.772540438016519, 
      "sanName": "parkweg", 
      "numOfAddr": 10, 
      "lonmax": 3.7733739604100065, 
      "latmin": 50.80424632694735
    }, 
    {
      "latmax": 50.832610060571, 
      "name": "Perlinkweg", 
      "lonmin": 3.7134429403461144, 
      "sanName": "perlinkweg", 
      "numOfAddr": 2, 
      "lonmax": 3.7144802829599133, 
      "latmin": 50.828729985296214
    }, 
    {
      "latmax": 50.81634062866046, 
      "name": "Perreveld", 
      "lonmin": 3.7026383309597386, 
      "sanName": "perreveld", 
      "numOfAddr": 27, 
      "lonmax": 3.712608956192268, 
      "latmin": 50.80480039368472
    }, 
    {
      "latmax": 50.769620659488915, 
      "name": "Pevenage", 
      "lonmin": 3.7665264415201807, 
      "sanName": "pevenage", 
      "numOfAddr": 13, 
      "lonmax": 3.7705610322265275, 
      "latmin": 50.765154242670846
    }, 
    {
      "latmax": 50.789807916054116, 
      "name": "Pieter Hoelmanstraat", 
      "lonmin": 3.7176860741967808, 
      "sanName": "pieterhoelmanstraat", 
      "numOfAddr": 23, 
      "lonmax": 3.7394902849602607, 
      "latmin": 50.78129417039493
    }, 
    {
      "latmax": 50.76739421772848, 
      "name": "Plaatsbeek", 
      "lonmin": 3.79992442994754, 
      "sanName": "plaatsbeek", 
      "numOfAddr": 10, 
      "lonmax": 3.8021345497690198, 
      "latmin": 50.76659954376913
    }, 
    {
      "latmax": 50.77543850211738, 
      "name": "Plankkouter", 
      "lonmin": 3.7917461426294192, 
      "sanName": "plankkouter", 
      "numOfAddr": 25, 
      "lonmax": 3.799242601032889, 
      "latmin": 50.767349142836096
    }, 
    {
      "latmax": 50.77373617845097, 
      "name": "Poerensberg", 
      "lonmin": 3.759215593535193, 
      "sanName": "poerensberg", 
      "numOfAddr": 3, 
      "lonmax": 3.7601026843036998, 
      "latmin": 50.77321976922437
    }, 
    {
      "latmax": 50.82583793625354, 
      "name": "Pontweg", 
      "lonmin": 3.7677086391031, 
      "sanName": "pontweg", 
      "numOfAddr": 6, 
      "lonmax": 3.770532359489233, 
      "latmin": 50.82412361365316
    }, 
    {
      "latmax": 50.83957174576782, 
      "name": "Poorterij", 
      "lonmin": 3.7495753524638764, 
      "sanName": "poorterij", 
      "numOfAddr": 14, 
      "lonmax": 3.75678940932114, 
      "latmin": 50.83371147722509
    }, 
    {
      "latmax": 50.83307905465715, 
      "name": "Pottenberg", 
      "lonmin": 3.7161672503068583, 
      "sanName": "pottenberg", 
      "numOfAddr": 10, 
      "lonmax": 3.7305742124300325, 
      "latmin": 50.829704231645756
    }, 
    {
      "latmax": 50.776787574291845, 
      "name": "Priemstraat", 
      "lonmin": 3.7880238741694323, 
      "sanName": "priemstraat", 
      "numOfAddr": 16, 
      "lonmax": 3.7995803989852943, 
      "latmin": 50.775108887408926
    }, 
    {
      "latmax": 50.78272080408165, 
      "name": "Pullem", 
      "lonmin": 3.7230521456730497, 
      "sanName": "pullem", 
      "numOfAddr": 6, 
      "lonmax": 3.733708122516135, 
      "latmin": 50.780067931169356
    }, 
    {
      "latmax": 50.76781553770436, 
      "name": "Reepstraat", 
      "lonmin": 3.805809867046314, 
      "sanName": "reepstraat", 
      "numOfAddr": 40, 
      "lonmax": 3.8090195202327295, 
      "latmin": 50.76398152170375
    }, 
    {
      "latmax": 50.84634580686938, 
      "name": "Rekelberg", 
      "lonmin": 3.745282040650191, 
      "sanName": "rekelberg", 
      "numOfAddr": 15, 
      "lonmax": 3.7483505307644855, 
      "latmin": 50.843082669659346
    }, 
    {
      "latmax": 50.76200042727415, 
      "name": "Rekestraat", 
      "lonmin": 3.8103033938626503, 
      "sanName": "rekestraat", 
      "numOfAddr": 17, 
      "lonmax": 3.8194449139524385, 
      "latmin": 50.75837113049236
    }, 
    {
      "latmax": 50.83301618882929, 
      "name": "Renweg", 
      "lonmin": 3.720285122266523, 
      "sanName": "renweg", 
      "numOfAddr": 3, 
      "lonmax": 3.720468366862853, 
      "latmin": 50.83258177400063
    }, 
    {
      "latmax": 50.79665942229053, 
      "name": "Riebeke", 
      "lonmin": 3.7412629689841377, 
      "sanName": "riebeke", 
      "numOfAddr": 6, 
      "lonmax": 3.7424537986293926, 
      "latmin": 50.792829561775655
    }, 
    {
      "latmax": 50.83380886970606, 
      "name": "Riedeplein", 
      "lonmin": 3.7661120371505317, 
      "sanName": "riedeplein", 
      "numOfAddr": 10, 
      "lonmax": 3.7684333028183583, 
      "latmin": 50.83077374721897
    }, 
    {
      "latmax": 50.79245676101643, 
      "name": "Roensveldstraat", 
      "lonmin": 3.7601470621936293, 
      "sanName": "roensveldstraat", 
      "numOfAddr": 3, 
      "lonmax": 3.7623299102153984, 
      "latmin": 50.79092431066195
    }, 
    {
      "latmax": 50.80795979974813, 
      "name": "Romeinseweg", 
      "lonmin": 3.746434500721172, 
      "sanName": "romeinseweg", 
      "numOfAddr": 6, 
      "lonmax": 3.7471278899565754, 
      "latmin": 50.807189428704525
    }, 
    {
      "latmax": 50.79905465602334, 
      "name": "Rondplein", 
      "lonmin": 3.7587193096655795, 
      "sanName": "rondplein", 
      "numOfAddr": 8, 
      "lonmax": 3.7598725985992796, 
      "latmin": 50.798305867351004
    }, 
    {
      "latmax": 50.79813085661263, 
      "name": "Ronsesestraat", 
      "lonmin": 3.7098891090220887, 
      "sanName": "ronsesestraat", 
      "numOfAddr": 155, 
      "lonmax": 3.75888738408839, 
      "latmin": 50.774945813676794
    }, 
    {
      "latmax": 50.82072332827445, 
      "name": "Rosbos", 
      "lonmin": 3.7326112938797515, 
      "sanName": "rosbos", 
      "numOfAddr": 1, 
      "lonmax": 3.7326112938797515, 
      "latmin": 50.82072332827445
    }, 
    {
      "latmax": 50.79856884924695, 
      "name": "Rovorst", 
      "lonmin": 3.7141340054453496, 
      "sanName": "rovorst", 
      "numOfAddr": 27, 
      "lonmax": 3.723035510441938, 
      "latmin": 50.79343957993927
    }, 
    {
      "latmax": 50.7865301042597, 
      "name": "Rowater", 
      "lonmin": 3.7219230416483273, 
      "sanName": "rowater", 
      "numOfAddr": 3, 
      "lonmax": 3.72267205379339, 
      "latmin": 50.78544474880998
    }, 
    {
      "latmax": 50.83240387687784, 
      "name": "Rozenhoek", 
      "lonmin": 3.770687766615835, 
      "sanName": "rozenhoek", 
      "numOfAddr": 5, 
      "lonmax": 3.779512091211079, 
      "latmin": 50.828679296703456
    }, 
    {
      "latmax": 50.83062130240169, 
      "name": "Ruggebeekstraat", 
      "lonmin": 3.7850968264210105, 
      "sanName": "ruggebeekstraat", 
      "numOfAddr": 14, 
      "lonmax": 3.785659793808205, 
      "latmin": 50.828032074727915
    }, 
    {
      "latmax": 50.815065431202825, 
      "name": "Schoolstraat", 
      "lonmin": 3.758060434221834, 
      "sanName": "schoolstraat", 
      "numOfAddr": 9, 
      "lonmax": 3.7596073349814314, 
      "latmin": 50.813763979263136
    }, 
    {
      "latmax": 50.78105488084638, 
      "name": "Schudewee", 
      "lonmin": 3.7675283218273448, 
      "sanName": "schudewee", 
      "numOfAddr": 10, 
      "lonmax": 3.7697591097081515, 
      "latmin": 50.77784761627555
    }, 
    {
      "latmax": 50.80449276024944, 
      "name": "Serpentestraat", 
      "lonmin": 3.762706579205961, 
      "sanName": "serpentestraat", 
      "numOfAddr": 17, 
      "lonmax": 3.7638815124182425, 
      "latmin": 50.80380746616321
    }, 
    {
      "latmax": 50.833085549419096, 
      "name": "Sieregem", 
      "lonmin": 3.7265605155189574, 
      "sanName": "sieregem", 
      "numOfAddr": 1, 
      "lonmax": 3.7265605155189574, 
      "latmin": 50.833085549419096
    }, 
    {
      "latmax": 50.82166538452326, 
      "name": "Smisstraat", 
      "lonmin": 3.73467342416342, 
      "sanName": "smisstraat", 
      "numOfAddr": 31, 
      "lonmax": 3.7448974626350733, 
      "latmin": 50.81759840043102
    }, 
    {
      "latmax": 50.81931439908118, 
      "name": "Sonkpad", 
      "lonmin": 3.7454708685342406, 
      "sanName": "sonkpad", 
      "numOfAddr": 2, 
      "lonmax": 3.7454941437531155, 
      "latmin": 50.81912132984191
    }, 
    {
      "latmax": 50.76227854844092, 
      "name": "Spinele", 
      "lonmin": 3.8005827991565924, 
      "sanName": "spinele", 
      "numOfAddr": 20, 
      "lonmax": 3.8070694266415273, 
      "latmin": 50.756864088229946
    }, 
    {
      "latmax": 50.799748936280515, 
      "name": "Spoorwegstraat", 
      "lonmin": 3.7622390897364086, 
      "sanName": "spoorwegstraat", 
      "numOfAddr": 41, 
      "lonmax": 3.765400845048106, 
      "latmin": 50.796726177993136
    }, 
    {
      "latmax": 50.830552728061605, 
      "name": "St. Apolloniaplein", 
      "lonmin": 3.738955372270629, 
      "sanName": "stapolloniaplein", 
      "numOfAddr": 6, 
      "lonmax": 3.7400392228098505, 
      "latmin": 50.82998265600617
    }, 
    {
      "latmax": 50.83123656418539, 
      "name": "St. Apolloniastraat", 
      "lonmin": 3.738387790346424, 
      "sanName": "stapolloniastraat", 
      "numOfAddr": 21, 
      "lonmax": 3.7401332058541956, 
      "latmin": 50.82948981670529
    }, 
    {
      "latmax": 50.8005213803511, 
      "name": "Stationsplein", 
      "lonmin": 3.76560991165545, 
      "sanName": "stationsplein", 
      "numOfAddr": 14, 
      "lonmax": 3.7665963774551408, 
      "latmin": 50.799895060181875
    }, 
    {
      "latmax": 50.80272820498759, 
      "name": "Stationsstraat", 
      "lonmin": 3.7640234761715328, 
      "sanName": "stationsstraat", 
      "numOfAddr": 68, 
      "lonmax": 3.7666907383442996, 
      "latmin": 50.800439343849575
    }, 
    {
      "latmax": 50.78077445798807, 
      "name": "Stechelmandries", 
      "lonmin": 3.7851546696033616, 
      "sanName": "stechelmandries", 
      "numOfAddr": 7, 
      "lonmax": 3.7901117029736024, 
      "latmin": 50.78008463333839
    }, 
    {
      "latmax": 50.77658064148587, 
      "name": "Steenberg", 
      "lonmin": 3.7810069628947307, 
      "sanName": "steenberg", 
      "numOfAddr": 22, 
      "lonmax": 3.787555618685746, 
      "latmin": 50.77423822497954
    }, 
    {
      "latmax": 50.84662456698979, 
      "name": "Steenland", 
      "lonmin": 3.752735731243216, 
      "sanName": "steenland", 
      "numOfAddr": 1, 
      "lonmax": 3.752735731243216, 
      "latmin": 50.84662456698979
    }, 
    {
      "latmax": 50.77673558251367, 
      "name": "Steenpaal", 
      "lonmin": 3.7284654548838847, 
      "sanName": "steenpaal", 
      "numOfAddr": 2, 
      "lonmax": 3.7286858441362125, 
      "latmin": 50.77657237894684
    }, 
    {
      "latmax": 50.8129418707841, 
      "name": "Steenstraat", 
      "lonmin": 3.7532297268350194, 
      "sanName": "steenstraat", 
      "numOfAddr": 24, 
      "lonmax": 3.755849091041619, 
      "latmin": 50.811022272549984
    }, 
    {
      "latmax": 50.813886536036925, 
      "name": "Stegewerk", 
      "lonmin": 3.7690450323009674, 
      "sanName": "stegewerk", 
      "numOfAddr": 1, 
      "lonmax": 3.7690450323009674, 
      "latmin": 50.813886536036925
    }, 
    {
      "latmax": 50.774842892364475, 
      "name": "Steneplein", 
      "lonmin": 3.7649796937013624, 
      "sanName": "steneplein", 
      "numOfAddr": 38, 
      "lonmax": 3.770398232084642, 
      "latmin": 50.77155674068918
    }, 
    {
      "latmax": 50.79249512387031, 
      "name": "St.-Franciscusstraat", 
      "lonmin": 3.7490705633109878, 
      "sanName": "stfranciscusstraat", 
      "numOfAddr": 20, 
      "lonmax": 3.752553589507375, 
      "latmin": 50.78924971379558
    }, 
    {
      "latmax": 50.789337630825955, 
      "name": "St.-Liebertusdreef", 
      "lonmin": 3.7397928911914473, 
      "sanName": "stliebertusdreef", 
      "numOfAddr": 1, 
      "lonmax": 3.7397928911914473, 
      "latmin": 50.789337630825955
    }, 
    {
      "latmax": 50.793544265221115, 
      "name": "St.-Martensstraat", 
      "lonmin": 3.744040374128223, 
      "sanName": "stmartensstraat", 
      "numOfAddr": 48, 
      "lonmax": 3.7498903452890047, 
      "latmin": 50.787576006208944
    }, 
    {
      "latmax": 50.79777678525239, 
      "name": "Stoktstraat", 
      "lonmin": 3.773423504791164, 
      "sanName": "stoktstraat", 
      "numOfAddr": 22, 
      "lonmax": 3.775931911252563, 
      "latmin": 50.795947639192065
    }, 
    {
      "latmax": 50.79927644593922, 
      "name": "St.-Pieterswijk", 
      "lonmin": 3.760705876754818, 
      "sanName": "stpieterswijk", 
      "numOfAddr": 83, 
      "lonmax": 3.7636983506966564, 
      "latmin": 50.797514526771074
    }, 
    {
      "latmax": 50.82755930711031, 
      "name": "Strichtstraat", 
      "lonmin": 3.7616389447749925, 
      "sanName": "strichtstraat", 
      "numOfAddr": 5, 
      "lonmax": 3.7661644967027033, 
      "latmin": 50.82472494425801
    }, 
    {
      "latmax": 50.832954884950446, 
      "name": "St.-Sebastiaansplein", 
      "lonmin": 3.7633346195625763, 
      "sanName": "stsebastiaansplein", 
      "numOfAddr": 6, 
      "lonmax": 3.764838077865756, 
      "latmin": 50.83264080728011
    }, 
    {
      "latmax": 50.820688974744634, 
      "name": "St.-Ursmarsstraat", 
      "lonmin": 3.713683748409451, 
      "sanName": "stursmarsstraat", 
      "numOfAddr": 18, 
      "lonmax": 3.7168069508866726, 
      "latmin": 50.81950030331294
    }, 
    {
      "latmax": 50.80746195661634, 
      "name": "Suttermeers", 
      "lonmin": 3.766842469750865, 
      "sanName": "suttermeers", 
      "numOfAddr": 12, 
      "lonmax": 3.768122200910017, 
      "latmin": 50.8068112660229
    }, 
    {
      "latmax": 50.821022615907374, 
      "name": "Taalman", 
      "lonmin": 3.7458352744151, 
      "sanName": "taalman", 
      "numOfAddr": 1, 
      "lonmax": 3.7458352744151, 
      "latmin": 50.821022615907374
    }, 
    {
      "latmax": 50.76662791451519, 
      "name": "Tamelbroekstraat", 
      "lonmin": 3.802441816616103, 
      "sanName": "tamelbroekstraat", 
      "numOfAddr": 34, 
      "lonmax": 3.807129835408808, 
      "latmin": 50.762845641431035
    }, 
    {
      "latmax": 50.82242793244834, 
      "name": "Teirlinckstraat", 
      "lonmin": 3.7159692222957648, 
      "sanName": "teirlinckstraat", 
      "numOfAddr": 22, 
      "lonmax": 3.71846922244363, 
      "latmin": 50.81862925682958
    }, 
    {
      "latmax": 50.782835561388076, 
      "name": "Tenbergen", 
      "lonmin": 3.7441421695537245, 
      "sanName": "tenbergen", 
      "numOfAddr": 34, 
      "lonmax": 3.74825005076897, 
      "latmin": 50.7771446200103
    }, 
    {
      "latmax": 50.80008427602563, 
      "name": "Tenbossestraat", 
      "lonmin": 3.7665093856164216, 
      "sanName": "tenbossestraat", 
      "numOfAddr": 74, 
      "lonmax": 3.770783106636025, 
      "latmin": 50.79719396066353
    }, 
    {
      "latmax": 50.762982091931626, 
      "name": "Terbeken", 
      "lonmin": 3.78441338006235, 
      "sanName": "terbeken", 
      "numOfAddr": 7, 
      "lonmax": 3.7873857459263056, 
      "latmin": 50.75999953088319
    }, 
    {
      "latmax": 50.751231921992975, 
      "name": "Terdutsen", 
      "lonmin": 3.787710460335879, 
      "sanName": "terdutsen", 
      "numOfAddr": 3, 
      "lonmax": 3.7883728009516813, 
      "latmin": 50.750311660318914
    }, 
    {
      "latmax": 50.76466445527876, 
      "name": "Terkleppe", 
      "lonmin": 3.7822777518805704, 
      "sanName": "terkleppe", 
      "numOfAddr": 9, 
      "lonmax": 3.7910463211844543, 
      "latmin": 50.76344537765029
    }, 
    {
      "latmax": 50.792165454054235, 
      "name": "Termergelstraat", 
      "lonmin": 3.769092903625941, 
      "sanName": "termergelstraat", 
      "numOfAddr": 23, 
      "lonmax": 3.772568069542783, 
      "latmin": 50.784718409197154
    }, 
    {
      "latmax": 50.82926860348047, 
      "name": "Terwalle", 
      "lonmin": 3.740580168454257, 
      "sanName": "terwalle", 
      "numOfAddr": 14, 
      "lonmax": 3.7445623686154073, 
      "latmin": 50.82212664289675
    }, 
    {
      "latmax": 50.8050823316198, 
      "name": "Theo Brakelsstraat", 
      "lonmin": 3.7628744116793293, 
      "sanName": "theobrakelsstraat", 
      "numOfAddr": 3, 
      "lonmax": 3.763081971028583, 
      "latmin": 50.80485342506569
    }, 
    {
      "latmax": 50.7784607545999, 
      "name": "Thijsweg", 
      "lonmin": 3.7454255347017815, 
      "sanName": "thijsweg", 
      "numOfAddr": 4, 
      "lonmax": 3.7465013462331025, 
      "latmin": 50.77798072768163
    }, 
    {
      "latmax": 50.76476846686898, 
      "name": "Tiep-Tiap", 
      "lonmin": 3.78024089166257, 
      "sanName": "tieptiap", 
      "numOfAddr": 5, 
      "lonmax": 3.781907058034053, 
      "latmin": 50.76384625477465
    }, 
    {
      "latmax": 50.80498131400955, 
      "name": "Tirse", 
      "lonmin": 3.762780124138211, 
      "sanName": "tirse", 
      "numOfAddr": 8, 
      "lonmax": 3.765151764532369, 
      "latmin": 50.80423658220008
    }, 
    {
      "latmax": 50.803522414967176, 
      "name": "Toepkapelstraat", 
      "lonmin": 3.7756784866056305, 
      "sanName": "toepkapelstraat", 
      "numOfAddr": 5, 
      "lonmax": 3.7787906387695274, 
      "latmin": 50.79926220999034
    }, 
    {
      "latmax": 50.799678657070764, 
      "name": "Toepweg", 
      "lonmin": 3.7726024909417175, 
      "sanName": "toepweg", 
      "numOfAddr": 17, 
      "lonmax": 3.7744248612733564, 
      "latmin": 50.79895915157421
    }, 
    {
      "latmax": 50.80651423489516, 
      "name": "Torenpad", 
      "lonmin": 3.7592642278481656, 
      "sanName": "torenpad", 
      "numOfAddr": 2, 
      "lonmax": 3.7607397932078026, 
      "latmin": 50.80622177752622
    }, 
    {
      "latmax": 50.80350604185023, 
      "name": "Torenuitzicht", 
      "lonmin": 3.779432226659364, 
      "sanName": "torenuitzicht", 
      "numOfAddr": 1, 
      "lonmax": 3.779432226659364, 
      "latmin": 50.80350604185023
    }, 
    {
      "latmax": 50.765744219734444, 
      "name": "Trimpont", 
      "lonmin": 3.7602526463314305, 
      "sanName": "trimpont", 
      "numOfAddr": 10, 
      "lonmax": 3.773155657549563, 
      "latmin": 50.76226205392613
    }, 
    {
      "latmax": 50.820181912134096, 
      "name": "Twaalfbunderstraat", 
      "lonmin": 3.736806072731041, 
      "sanName": "twaalfbunderstraat", 
      "numOfAddr": 71, 
      "lonmax": 3.752862947954669, 
      "latmin": 50.81228172271571
    }, 
    {
      "latmax": 50.817076095780706, 
      "name": "Valkenbergstraat", 
      "lonmin": 3.751559720234101, 
      "sanName": "valkenbergstraat", 
      "numOfAddr": 62, 
      "lonmax": 3.7582560649250922, 
      "latmin": 50.81203354489563
    }, 
    {
      "latmax": 50.817500238759656, 
      "name": "Valkenstraat", 
      "lonmin": 3.7537946807005214, 
      "sanName": "valkenstraat", 
      "numOfAddr": 79, 
      "lonmax": 3.7655276124647274, 
      "latmin": 50.81470096323021
    }, 
    {
      "latmax": 50.817780721837146, 
      "name": "Veldeman", 
      "lonmin": 3.7618661277405248, 
      "sanName": "veldeman", 
      "numOfAddr": 1, 
      "lonmax": 3.7618661277405248, 
      "latmin": 50.817780721837146
    }, 
    {
      "latmax": 50.80866962826791, 
      "name": "Veldstraat", 
      "lonmin": 3.7654465863140336, 
      "sanName": "veldstraat", 
      "numOfAddr": 14, 
      "lonmax": 3.766871405500152, 
      "latmin": 50.80814393051027
    }, 
    {
      "latmax": 50.78857676374497, 
      "name": "Verrebeke", 
      "lonmin": 3.752111642454867, 
      "sanName": "verrebeke", 
      "numOfAddr": 11, 
      "lonmax": 3.758289406783532, 
      "latmin": 50.78344548019299
    }, 
    {
      "latmax": 50.80325892508388, 
      "name": "Vierschaar", 
      "lonmin": 3.765534141570896, 
      "sanName": "vierschaar", 
      "numOfAddr": 34, 
      "lonmax": 3.767865335134408, 
      "latmin": 50.80157454233951
    }, 
    {
      "latmax": 50.80618620522283, 
      "name": "Vijfdagwandweg", 
      "lonmin": 3.7560659838498514, 
      "sanName": "vijfdagwandweg", 
      "numOfAddr": 8, 
      "lonmax": 3.7569329802096245, 
      "latmin": 50.80588960138408
    }, 
    {
      "latmax": 50.79887244138417, 
      "name": "Vijverdal", 
      "lonmin": 3.776785326778311, 
      "sanName": "vijverdal", 
      "numOfAddr": 13, 
      "lonmax": 3.7789134944528127, 
      "latmin": 50.79799125716405
    }, 
    {
      "latmax": 50.798459876026826, 
      "name": "Vijverpad", 
      "lonmin": 3.7761098758748175, 
      "sanName": "vijverpad", 
      "numOfAddr": 4, 
      "lonmax": 3.7771024440121783, 
      "latmin": 50.79790953692208
    }, 
    {
      "latmax": 50.839655454997704, 
      "name": "Vissegem", 
      "lonmin": 3.7325694093712443, 
      "sanName": "vissegem", 
      "numOfAddr": 26, 
      "lonmax": 3.7448342054086425, 
      "latmin": 50.83409574157308
    }, 
    {
      "latmax": 50.811433313971314, 
      "name": "Voorpad", 
      "lonmin": 3.768738742738121, 
      "sanName": "voorpad", 
      "numOfAddr": 2, 
      "lonmax": 3.768857189766866, 
      "latmin": 50.81137508308218
    }, 
    {
      "latmax": 50.805116050802276, 
      "name": "Vossenbroekstraat", 
      "lonmin": 3.7812063769650974, 
      "sanName": "vossenbroekstraat", 
      "numOfAddr": 12, 
      "lonmax": 3.7851163425652454, 
      "latmin": 50.804135110292314
    }, 
    {
      "latmax": 50.821815483897474, 
      "name": "Vossenholstraat", 
      "lonmin": 3.784877271422255, 
      "sanName": "vossenholstraat", 
      "numOfAddr": 11, 
      "lonmax": 3.7887854899212545, 
      "latmin": 50.82081788222026
    }, 
    {
      "latmax": 50.80317967701869, 
      "name": "Vossenpad", 
      "lonmin": 3.7845663420287954, 
      "sanName": "vossenpad", 
      "numOfAddr": 1, 
      "lonmax": 3.7845663420287954, 
      "latmin": 50.80317967701869
    }, 
    {
      "latmax": 50.80900417374366, 
      "name": "Vredeweg", 
      "lonmin": 3.747853141602191, 
      "sanName": "vredeweg", 
      "numOfAddr": 3, 
      "lonmax": 3.7485516116281494, 
      "latmin": 50.80861232771521
    }, 
    {
      "latmax": 50.79257687364043, 
      "name": "Vunkstraat", 
      "lonmin": 3.763760042705419, 
      "sanName": "vunkstraat", 
      "numOfAddr": 7, 
      "lonmax": 3.7648796788610293, 
      "latmin": 50.791681938858304
    }, 
    {
      "latmax": 50.77985624808128, 
      "name": "Wallekouter", 
      "lonmin": 3.749589762781566, 
      "sanName": "wallekouter", 
      "numOfAddr": 13, 
      "lonmax": 3.752006070688063, 
      "latmin": 50.77807849193686
    }, 
    {
      "latmax": 50.80285326897902, 
      "name": "Warande", 
      "lonmin": 3.7693730962577203, 
      "sanName": "warande", 
      "numOfAddr": 126, 
      "lonmax": 3.773299971055808, 
      "latmin": 50.79803142723851
    }, 
    {
      "latmax": 50.810552656804084, 
      "name": "Watermolenstraat", 
      "lonmin": 3.7684601051310382, 
      "sanName": "watermolenstraat", 
      "numOfAddr": 79, 
      "lonmax": 3.7709231855141185, 
      "latmin": 50.80578373871121
    }, 
    {
      "latmax": 50.81761950883201, 
      "name": "Wederspad", 
      "lonmin": 3.7463129780689943, 
      "sanName": "wederspad", 
      "numOfAddr": 1, 
      "lonmax": 3.7463129780689943, 
      "latmin": 50.81761950883201
    }, 
    {
      "latmax": 50.79533461192987, 
      "name": "Weistraat", 
      "lonmin": 3.7092360439111416, 
      "sanName": "weistraat", 
      "numOfAddr": 11, 
      "lonmax": 3.7134002594258333, 
      "latmin": 50.791998544175094
    }, 
    {
      "latmax": 50.805378238893475, 
      "name": "Wielendaalstraat", 
      "lonmin": 3.7613056162590097, 
      "sanName": "wielendaalstraat", 
      "numOfAddr": 57, 
      "lonmax": 3.7635334584608477, 
      "latmin": 50.80278456176228
    }, 
    {
      "latmax": 50.80387337486195, 
      "name": "Wijmeersstraat", 
      "lonmin": 3.770072953395749, 
      "sanName": "wijmeersstraat", 
      "numOfAddr": 13, 
      "lonmax": 3.771381835275323, 
      "latmin": 50.80318140152926
    }, 
    {
      "latmax": 50.795208984905855, 
      "name": "Wijnstraat", 
      "lonmin": 3.7724254898405, 
      "sanName": "wijnstraat", 
      "numOfAddr": 37, 
      "lonmax": 3.7752548061708677, 
      "latmin": 50.792583088667264
    }, 
    {
      "latmax": 50.776222809033584, 
      "name": "Willemsveld", 
      "lonmin": 3.7276133791060304, 
      "sanName": "willemsveld", 
      "numOfAddr": 4, 
      "lonmax": 3.7281080385412184, 
      "latmin": 50.7754419921023
    }, 
    {
      "latmax": 50.832461439902545, 
      "name": "Winkelweg", 
      "lonmin": 3.737074168486833, 
      "sanName": "winkelweg", 
      "numOfAddr": 2, 
      "lonmax": 3.7385775207816265, 
      "latmin": 50.831715900059635
    }, 
    {
      "latmax": 50.78872787045532, 
      "name": "Wolfskerke", 
      "lonmin": 3.7108404531011736, 
      "sanName": "wolfskerke", 
      "numOfAddr": 10, 
      "lonmax": 3.722119327588515, 
      "latmin": 50.78568262660526
    }, 
    {
      "latmax": 50.801518557295225, 
      "name": "Wolvenweg", 
      "lonmin": 3.7187076764484646, 
      "sanName": "wolvenweg", 
      "numOfAddr": 4, 
      "lonmax": 3.721903991729402, 
      "latmin": 50.80028598215737
    }, 
    {
      "latmax": 50.789914350369585, 
      "name": "Zureveldweg", 
      "lonmin": 3.74952516439179, 
      "sanName": "zureveldweg", 
      "numOfAddr": 1, 
      "lonmax": 3.74952516439179, 
      "latmin": 50.789914350369585
    }, 
    {
      "latmax": 50.817005928468504, 
      "name": "Zwalmbeekweg", 
      "lonmin": 3.7713770713522576, 
      "sanName": "zwalmbeekweg", 
      "numOfAddr": 6, 
      "lonmax": 3.781009740854625, 
      "latmin": 50.81340238222847
    }, 
    {
      "latmax": 50.78831263979852, 
      "name": "Zwalmstraat", 
      "lonmin": 3.7173883914231896, 
      "sanName": "zwalmstraat", 
      "numOfAddr": 20, 
      "lonmax": 3.722523808288818, 
      "latmin": 50.78463122727259
    }
  ]
}