{
  "streets": [
    {
      "latmax": 50.800389717018085, 
      "name": "Aatse Heerweg", 
      "lonmin": 3.6396133478716797, 
      "sanName": "aatseheerweg", 
      "numOfAddr": 4, 
      "lonmax": 3.6434198868620116, 
      "latmin": 50.79548928677294
    }, 
    {
      "latmax": 50.81369598119634, 
      "name": "Berkenstraat", 
      "lonmin": 3.61802806548087, 
      "sanName": "berkenstraat", 
      "numOfAddr": 50, 
      "lonmax": 3.6256898923255476, 
      "latmin": 50.80794866852507
    }, 
    {
      "latmax": 50.78870958219086, 
      "name": "Beukelweg", 
      "lonmin": 3.641995184065489, 
      "sanName": "beukelweg", 
      "numOfAddr": 5, 
      "lonmax": 3.645584990133539, 
      "latmin": 50.78794183767054
    }, 
    {
      "latmax": 50.792800673066345, 
      "name": "Bierweg", 
      "lonmin": 3.6554737773352017, 
      "sanName": "bierweg", 
      "numOfAddr": 2, 
      "lonmax": 3.6557956162871625, 
      "latmin": 50.79242513787519
    }, 
    {
      "latmax": 50.770745879636145, 
      "name": "Boetzittingstraat", 
      "lonmin": 3.6449028061924333, 
      "sanName": "boetzittingstraat", 
      "numOfAddr": 3, 
      "lonmax": 3.645543077670219, 
      "latmin": 50.76989538140859
    }, 
    {
      "latmax": 50.80802023994279, 
      "name": "Bogaartsveld", 
      "lonmin": 3.6528569186579536, 
      "sanName": "bogaartsveld", 
      "numOfAddr": 3, 
      "lonmax": 3.655095843764201, 
      "latmin": 50.807696139124445
    }, 
    {
      "latmax": 50.823338194632015, 
      "name": "Boigneberg", 
      "lonmin": 3.663596209109357, 
      "sanName": "boigneberg", 
      "numOfAddr": 19, 
      "lonmax": 3.6652748617511888, 
      "latmin": 50.818813532695806
    }, 
    {
      "latmax": 50.81899734314976, 
      "name": "Borgtstraat", 
      "lonmin": 3.640244323732195, 
      "sanName": "borgtstraat", 
      "numOfAddr": 11, 
      "lonmax": 3.64504721900474, 
      "latmin": 50.81744326430834
    }, 
    {
      "latmax": 50.78550083456314, 
      "name": "Boskant", 
      "lonmin": 3.642932610408486, 
      "sanName": "boskant", 
      "numOfAddr": 4, 
      "lonmax": 3.6480285083974295, 
      "latmin": 50.784221863684856
    }, 
    {
      "latmax": 50.7791714703521, 
      "name": "Boskantdreef", 
      "lonmin": 3.640053878649856, 
      "sanName": "boskantdreef", 
      "numOfAddr": 2, 
      "lonmax": 3.6411706348394346, 
      "latmin": 50.777032978414
    }, 
    {
      "latmax": 50.786432326853344, 
      "name": "Bosketse", 
      "lonmin": 3.641533592951775, 
      "sanName": "bosketse", 
      "numOfAddr": 2, 
      "lonmax": 3.6449349806721965, 
      "latmin": 50.78512041582595
    }, 
    {
      "latmax": 50.807326130319765, 
      "name": "Bossenaarstraat", 
      "lonmin": 3.6298689940804825, 
      "sanName": "bossenaarstraat", 
      "numOfAddr": 21, 
      "lonmax": 3.635232380672064, 
      "latmin": 50.796007237047604
    }, 
    {
      "latmax": 50.80549963460516, 
      "name": "Bovenstraat", 
      "lonmin": 3.644322970835081, 
      "sanName": "bovenstraat", 
      "numOfAddr": 13, 
      "lonmax": 3.65484868539032, 
      "latmin": 50.799895861571706
    }, 
    {
      "latmax": 50.808443906503896, 
      "name": "Broekestraat", 
      "lonmin": 3.667134542899673, 
      "sanName": "broekestraat", 
      "numOfAddr": 1, 
      "lonmax": 3.667134542899673, 
      "latmin": 50.808443906503896
    }, 
    {
      "latmax": 50.80194470097611, 
      "name": "Bronnestraat", 
      "lonmin": 3.608088906625931, 
      "sanName": "bronnestraat", 
      "numOfAddr": 3, 
      "lonmax": 3.60908552323818, 
      "latmin": 50.80118816985087
    }, 
    {
      "latmax": 50.81677691755629, 
      "name": "Brouwerijweg", 
      "lonmin": 3.6540461171127685, 
      "sanName": "brouwerijweg", 
      "numOfAddr": 2, 
      "lonmax": 3.6561423739726266, 
      "latmin": 50.81666266864677
    }, 
    {
      "latmax": 50.79502208758376, 
      "name": "Delfdries", 
      "lonmin": 3.6435983110006025, 
      "sanName": "delfdries", 
      "numOfAddr": 9, 
      "lonmax": 3.652200626918198, 
      "latmin": 50.78746515961752
    }, 
    {
      "latmax": 50.79033030639382, 
      "name": "Donderij", 
      "lonmin": 3.6234328944830967, 
      "sanName": "donderij", 
      "numOfAddr": 14, 
      "lonmax": 3.6320108537974374, 
      "latmin": 50.78223715337537
    }, 
    {
      "latmax": 50.794681750842756, 
      "name": "Drappendries", 
      "lonmin": 3.638521495071108, 
      "sanName": "drappendries", 
      "numOfAddr": 15, 
      "lonmax": 3.6431349207101857, 
      "latmin": 50.787118393616026
    }, 
    {
      "latmax": 50.80975376734708, 
      "name": "Eierput", 
      "lonmin": 3.6213799022087088, 
      "sanName": "eierput", 
      "numOfAddr": 8, 
      "lonmax": 3.6230001054915753, 
      "latmin": 50.808957442121404
    }, 
    {
      "latmax": 50.824520295456026, 
      "name": "Eikenberg", 
      "lonmin": 3.6377193356506345, 
      "sanName": "eikenberg", 
      "numOfAddr": 32, 
      "lonmax": 3.6417236069234726, 
      "latmin": 50.818013557713044
    }, 
    {
      "latmax": 50.81757549364402, 
      "name": "Ellestraat", 
      "lonmin": 3.6369326379711473, 
      "sanName": "ellestraat", 
      "numOfAddr": 36, 
      "lonmax": 3.64141686466824, 
      "latmin": 50.80976501580833
    }, 
    {
      "latmax": 50.81258576866287, 
      "name": "Etikhoveplein", 
      "lonmin": 3.625622253496374, 
      "sanName": "etikhoveplein", 
      "numOfAddr": 12, 
      "lonmax": 3.6269048535297377, 
      "latmin": 50.81101236020356
    }, 
    {
      "latmax": 50.81677765518633, 
      "name": "Etikhovestraat", 
      "lonmin": 3.6208577955076793, 
      "sanName": "etikhovestraat", 
      "numOfAddr": 29, 
      "lonmax": 3.6280962474270684, 
      "latmin": 50.812693026989145
    }, 
    {
      "latmax": 50.80089549621272, 
      "name": "Fortstraat", 
      "lonmin": 3.627079794996729, 
      "sanName": "fortstraat", 
      "numOfAddr": 11, 
      "lonmax": 3.6288906757838286, 
      "latmin": 50.795389870621314
    }, 
    {
      "latmax": 50.82441989317088, 
      "name": "Fremisstraat", 
      "lonmin": 3.6298958321623584, 
      "sanName": "fremisstraat", 
      "numOfAddr": 11, 
      "lonmax": 3.639396486032685, 
      "latmin": 50.820794464561146
    }, 
    {
      "latmax": 50.81852247416035, 
      "name": "Gansbeekstraat", 
      "lonmin": 3.6286069584104728, 
      "sanName": "gansbeekstraat", 
      "numOfAddr": 34, 
      "lonmax": 3.639427720769291, 
      "latmin": 50.81588943329843
    }, 
    {
      "latmax": 50.822368161136, 
      "name": "Geitenhoek", 
      "lonmin": 3.6148453405683325, 
      "sanName": "geitenhoek", 
      "numOfAddr": 6, 
      "lonmax": 3.6164828723965714, 
      "latmin": 50.8213651479278
    }, 
    {
      "latmax": 50.81578711694502, 
      "name": "Gieterijstraat", 
      "lonmin": 3.625775371152537, 
      "sanName": "gieterijstraat", 
      "numOfAddr": 11, 
      "lonmax": 3.6268913392233917, 
      "latmin": 50.81450185057062
    }, 
    {
      "latmax": 50.797524275655796, 
      "name": "Gorisveld", 
      "lonmin": 3.6666099263159695, 
      "sanName": "gorisveld", 
      "numOfAddr": 1, 
      "lonmax": 3.6666099263159695, 
      "latmin": 50.797524275655796
    }, 
    {
      "latmax": 50.81562440302952, 
      "name": "Hasselstraat", 
      "lonmin": 3.6517773471597788, 
      "sanName": "hasselstraat", 
      "numOfAddr": 30, 
      "lonmax": 3.661805351568031, 
      "latmin": 50.802623145337314
    }, 
    {
      "latmax": 50.77915216713476, 
      "name": "Hof te Fiennesstraat", 
      "lonmin": 3.6339110948045543, 
      "sanName": "hoftefiennesstraat", 
      "numOfAddr": 8, 
      "lonmax": 3.635993528372705, 
      "latmin": 50.77742822337817
    }, 
    {
      "latmax": 50.80132449105697, 
      "name": "Hokelbeke", 
      "lonmin": 3.6564916533468685, 
      "sanName": "hokelbeke", 
      "numOfAddr": 7, 
      "lonmax": 3.66223057201334, 
      "latmin": 50.79928709878663
    }, 
    {
      "latmax": 50.804514667424044, 
      "name": "Hollebeek", 
      "lonmin": 3.6245241351611535, 
      "sanName": "hollebeek", 
      "numOfAddr": 3, 
      "lonmax": 3.625328699371368, 
      "latmin": 50.80353204298781
    }, 
    {
      "latmax": 50.818706661131564, 
      "name": "Kabuize", 
      "lonmin": 3.6636034555004464, 
      "sanName": "kabuize", 
      "numOfAddr": 5, 
      "lonmax": 3.6694335989765565, 
      "latmin": 50.81493375925498
    }, 
    {
      "latmax": 50.824687041309936, 
      "name": "Kapelleberg", 
      "lonmin": 3.6512142991839553, 
      "sanName": "kapelleberg", 
      "numOfAddr": 24, 
      "lonmax": 3.6622358611804957, 
      "latmin": 50.818328769035794
    }, 
    {
      "latmax": 50.79830853350581, 
      "name": "Kerkemstraat", 
      "lonmin": 3.6443010367239546, 
      "sanName": "kerkemstraat", 
      "numOfAddr": 20, 
      "lonmax": 3.651563509435874, 
      "latmin": 50.795147717389646
    }, 
    {
      "latmax": 50.79514070244393, 
      "name": "Kleistraat", 
      "lonmin": 3.6256671475207027, 
      "sanName": "kleistraat", 
      "numOfAddr": 14, 
      "lonmax": 3.6381478985606766, 
      "latmin": 50.78681142584674
    }, 
    {
      "latmax": 50.79713480889473, 
      "name": "Kloosterstraat", 
      "lonmin": 3.649431937064305, 
      "sanName": "kloosterstraat", 
      "numOfAddr": 7, 
      "lonmax": 3.6524166659720985, 
      "latmin": 50.795530297278695
    }, 
    {
      "latmax": 50.82408805784712, 
      "name": "Kokerellestraat", 
      "lonmin": 3.64581602338265, 
      "sanName": "kokerellestraat", 
      "numOfAddr": 32, 
      "lonmax": 3.654282222140455, 
      "latmin": 50.81647396563219
    }, 
    {
      "latmax": 50.817680699612325, 
      "name": "Koppenberg", 
      "lonmin": 3.596917319557496, 
      "sanName": "koppenberg", 
      "numOfAddr": 9, 
      "lonmax": 3.601008566613339, 
      "latmin": 50.8130113898211
    }, 
    {
      "latmax": 50.815017137171395, 
      "name": "Krommestraat", 
      "lonmin": 3.6173877556694003, 
      "sanName": "krommestraat", 
      "numOfAddr": 3, 
      "lonmax": 3.6183232264125182, 
      "latmin": 50.80932366477943
    }, 
    {
      "latmax": 50.82176257904888, 
      "name": "Ladeuze", 
      "lonmin": 3.62248630870426, 
      "sanName": "ladeuze", 
      "numOfAddr": 14, 
      "lonmax": 3.6298356300636487, 
      "latmin": 50.81722527289567
    }, 
    {
      "latmax": 50.778729530619245, 
      "name": "Landschapstraat", 
      "lonmin": 3.6447290329317226, 
      "sanName": "landschapstraat", 
      "numOfAddr": 8, 
      "lonmax": 3.6483458922418386, 
      "latmin": 50.77177335057406
    }, 
    {
      "latmax": 50.80114522993766, 
      "name": "Langekouter", 
      "lonmin": 3.6395102917794584, 
      "sanName": "langekouter", 
      "numOfAddr": 1, 
      "lonmax": 3.6395102917794584, 
      "latmin": 50.80114522993766
    }, 
    {
      "latmax": 50.77125967973228, 
      "name": "La Salettestraat", 
      "lonmin": 3.6424070666044064, 
      "sanName": "lasalettestraat", 
      "numOfAddr": 12, 
      "lonmax": 3.6452157711112982, 
      "latmin": 50.77069902446707
    }, 
    {
      "latmax": 50.796175963497774, 
      "name": "Leideveld", 
      "lonmin": 3.6448772255316344, 
      "sanName": "leideveld", 
      "numOfAddr": 11, 
      "lonmax": 3.6669725855564055, 
      "latmin": 50.79314640098102
    }, 
    {
      "latmax": 50.77235120935761, 
      "name": "Louise-Mariestraat", 
      "lonmin": 3.642014797910485, 
      "sanName": "louisemariestraat", 
      "numOfAddr": 33, 
      "lonmax": 3.648207117297234, 
      "latmin": 50.769645725997556
    }, 
    {
      "latmax": 50.81660885383423, 
      "name": "Maalzaakstraat", 
      "lonmin": 3.603257899325171, 
      "sanName": "maalzaakstraat", 
      "numOfAddr": 33, 
      "lonmax": 3.6197118110194615, 
      "latmin": 50.80939757460834
    }, 
    {
      "latmax": 50.817781770232166, 
      "name": "Maarkendries", 
      "lonmin": 3.6195141987446613, 
      "sanName": "maarkendries", 
      "numOfAddr": 27, 
      "lonmax": 3.6253225718330713, 
      "latmin": 50.815849016117866
    }, 
    {
      "latmax": 50.81797443048416, 
      "name": "Maarkeweg", 
      "lonmin": 3.639952847590675, 
      "sanName": "maarkeweg", 
      "numOfAddr": 82, 
      "lonmax": 3.664748678212039, 
      "latmin": 50.814450850745885
    }, 
    {
      "latmax": 50.80910211298242, 
      "name": "Mariaborrestraat", 
      "lonmin": 3.6024748641201576, 
      "sanName": "mariaborrestraat", 
      "numOfAddr": 12, 
      "lonmax": 3.61008403549361, 
      "latmin": 50.80490694178213
    }, 
    {
      "latmax": 50.79440460309945, 
      "name": "Mellinkstraat", 
      "lonmin": 3.617429611621343, 
      "sanName": "mellinkstraat", 
      "numOfAddr": 1, 
      "lonmax": 3.617429611621343, 
      "latmin": 50.79440460309945
    }, 
    {
      "latmax": 50.79962194542328, 
      "name": "Mussestraat", 
      "lonmin": 3.6131442849093114, 
      "sanName": "mussestraat", 
      "numOfAddr": 20, 
      "lonmax": 3.6205163302981576, 
      "latmin": 50.796503831924014
    }, 
    {
      "latmax": 50.81209575684128, 
      "name": "Nederholbeekstraat", 
      "lonmin": 3.6203496473462367, 
      "sanName": "nederholbeekstraat", 
      "numOfAddr": 165, 
      "lonmax": 3.6256195078586497, 
      "latmin": 50.79587761767246
    }, 
    {
      "latmax": 50.809718258760384, 
      "name": "Onderbossenaarstraat", 
      "lonmin": 3.6249368894707246, 
      "sanName": "onderbossenaarstraat", 
      "numOfAddr": 21, 
      "lonmax": 3.6323178724539686, 
      "latmin": 50.80633060970495
    }, 
    {
      "latmax": 50.82231698449673, 
      "name": "Oudenaardeweg", 
      "lonmin": 3.6069877636527337, 
      "sanName": "oudenaardeweg", 
      "numOfAddr": 15, 
      "lonmax": 3.6181083333921538, 
      "latmin": 50.81840913371748
    }, 
    {
      "latmax": 50.795937210468736, 
      "name": "Poesthem", 
      "lonmin": 3.6352773546403276, 
      "sanName": "poesthem", 
      "numOfAddr": 11, 
      "lonmax": 3.6424508574003385, 
      "latmin": 50.794960251914844
    }, 
    {
      "latmax": 50.80177725073983, 
      "name": "Pontstraat", 
      "lonmin": 3.6103986232162613, 
      "sanName": "pontstraat", 
      "numOfAddr": 1, 
      "lonmax": 3.6103986232162613, 
      "latmin": 50.80177725073983
    }, 
    {
      "latmax": 50.81251840961604, 
      "name": "Puttene", 
      "lonmin": 3.6268370112265593, 
      "sanName": "puttene", 
      "numOfAddr": 33, 
      "lonmax": 3.630230654718112, 
      "latmin": 50.81008528789812
    }, 
    {
      "latmax": 50.812418084947915, 
      "name": "Rattepoelstraat", 
      "lonmin": 3.6557924235508428, 
      "sanName": "rattepoelstraat", 
      "numOfAddr": 24, 
      "lonmax": 3.6601726200304894, 
      "latmin": 50.809345448206216
    }, 
    {
      "latmax": 50.819378618211715, 
      "name": "Rijksweg", 
      "lonmin": 3.601911807646381, 
      "sanName": "rijksweg", 
      "numOfAddr": 4, 
      "lonmax": 3.60519818489676, 
      "latmin": 50.81187555864254
    }, 
    {
      "latmax": 50.822719787499096, 
      "name": "Robijnstraat", 
      "lonmin": 3.610041717866169, 
      "sanName": "robijnstraat", 
      "numOfAddr": 3, 
      "lonmax": 3.612116449511027, 
      "latmin": 50.82183142450404
    }, 
    {
      "latmax": 50.79328790984043, 
      "name": "Ruitegem", 
      "lonmin": 3.606352307094851, 
      "sanName": "ruitegem", 
      "numOfAddr": 1, 
      "lonmax": 3.606352307094851, 
      "latmin": 50.79328790984043
    }, 
    {
      "latmax": 50.81981664521802, 
      "name": "Schamperij", 
      "lonmin": 3.674045230242351, 
      "sanName": "schamperij", 
      "numOfAddr": 1, 
      "lonmax": 3.674045230242351, 
      "latmin": 50.81981664521802
    }, 
    {
      "latmax": 50.79695750037747, 
      "name": "Sneppestraat", 
      "lonmin": 3.6552657202774252, 
      "sanName": "sneppestraat", 
      "numOfAddr": 2, 
      "lonmax": 3.6554896987003214, 
      "latmin": 50.79541218675769
    }, 
    {
      "latmax": 50.808787756446556, 
      "name": "Spoorwegdreef", 
      "lonmin": 3.6171507429910674, 
      "sanName": "spoorwegdreef", 
      "numOfAddr": 2, 
      "lonmax": 3.617321862727678, 
      "latmin": 50.80854737970471
    }, 
    {
      "latmax": 50.8020717456171, 
      "name": "Stationsberg", 
      "lonmin": 3.6157249222880363, 
      "sanName": "stationsberg", 
      "numOfAddr": 10, 
      "lonmax": 3.620771319758638, 
      "latmin": 50.800413865232954
    }, 
    {
      "latmax": 50.80744520873933, 
      "name": "Steenbeekdries", 
      "lonmin": 3.6122667146591745, 
      "sanName": "steenbeekdries", 
      "numOfAddr": 16, 
      "lonmax": 3.6173466245784827, 
      "latmin": 50.802986525807164
    }, 
    {
      "latmax": 50.79623428471932, 
      "name": "Taaienberg", 
      "lonmin": 3.6301516852312665, 
      "sanName": "taaienberg", 
      "numOfAddr": 5, 
      "lonmax": 3.634437211674744, 
      "latmin": 50.79541737703655
    }, 
    {
      "latmax": 50.8205420150146, 
      "name": "Ten Dale", 
      "lonmin": 3.66667304041624, 
      "sanName": "tendale", 
      "numOfAddr": 5, 
      "lonmax": 3.6682430483354573, 
      "latmin": 50.81936546906179
    }, 
    {
      "latmax": 50.819752570042304, 
      "name": "Varentstraat", 
      "lonmin": 3.6698652671570415, 
      "sanName": "varentstraat", 
      "numOfAddr": 2, 
      "lonmax": 3.67171488495851, 
      "latmin": 50.8178594250793
    }, 
    {
      "latmax": 50.78641310398422, 
      "name": "Vlaamse Ardennenstraat", 
      "lonmin": 3.6362624230833878, 
      "sanName": "vlaamseardennenstraat", 
      "numOfAddr": 15, 
      "lonmax": 3.640424109164929, 
      "latmin": 50.77744788989135
    }, 
    {
      "latmax": 50.789356897296294, 
      "name": "Weitstraat", 
      "lonmin": 3.622871117896606, 
      "sanName": "weitstraat", 
      "numOfAddr": 7, 
      "lonmax": 3.6239440992754908, 
      "latmin": 50.78739137465106
    }, 
    {
      "latmax": 50.81374472094044, 
      "name": "Wijmierstraat", 
      "lonmin": 3.659639808574622, 
      "sanName": "wijmierstraat", 
      "numOfAddr": 29, 
      "lonmax": 3.6677570462488704, 
      "latmin": 50.80377911535291
    }, 
    {
      "latmax": 50.78546176215768, 
      "name": "Wolvestraat", 
      "lonmin": 3.620463768928507, 
      "sanName": "wolvestraat", 
      "numOfAddr": 6, 
      "lonmax": 3.6260419174219196, 
      "latmin": 50.78151926337467
    }, 
    {
      "latmax": 50.801858616429946, 
      "name": "Zakstraat", 
      "lonmin": 3.601649743555368, 
      "sanName": "zakstraat", 
      "numOfAddr": 3, 
      "lonmax": 3.602469423300067, 
      "latmin": 50.801511560989304
    }
  ]
}