{
  "streets": [
    {
      "latmax": 50.78270800459237, 
      "name": "Bakkerbos", 
      "lonmin": 3.609529978281864, 
      "sanName": "bakkerbos", 
      "numOfAddr": 2, 
      "lonmax": 3.611099203856718, 
      "latmin": 50.782515160182925
    }, 
    {
      "latmax": 50.796877763390285, 
      "name": "Boelaardstraat", 
      "lonmin": 3.5961626614660154, 
      "sanName": "boelaardstraat", 
      "numOfAddr": 13, 
      "lonmax": 3.6003589765962793, 
      "latmin": 50.79529853343298
    }, 
    {
      "latmax": 50.79200853884896, 
      "name": "Cabernhol", 
      "lonmin": 3.583712123451768, 
      "sanName": "cabernhol", 
      "numOfAddr": 4, 
      "lonmax": 3.586591003785762, 
      "latmin": 50.79029977924568
    }, 
    {
      "latmax": 50.79976463250043, 
      "name": "Den Hul", 
      "lonmin": 3.5928146363287237, 
      "sanName": "denhul", 
      "numOfAddr": 3, 
      "lonmax": 3.59356878518445, 
      "latmin": 50.798991169491536
    }, 
    {
      "latmax": 50.794661987815516, 
      "name": "De Spijker", 
      "lonmin": 3.580455989644769, 
      "sanName": "despijker", 
      "numOfAddr": 10, 
      "lonmax": 3.589656746809673, 
      "latmin": 50.791925564297664
    }, 
    {
      "latmax": 50.780802618176324, 
      "name": "Dieriksstraat", 
      "lonmin": 3.590809181575313, 
      "sanName": "dieriksstraat", 
      "numOfAddr": 14, 
      "lonmax": 3.6060560531304553, 
      "latmin": 50.77854500209137
    }, 
    {
      "latmax": 50.79286679428907, 
      "name": "Donderij", 
      "lonmin": 3.621035836985076, 
      "sanName": "donderij", 
      "numOfAddr": 2, 
      "lonmax": 3.6214349968070616, 
      "latmin": 50.79171177392356
    }, 
    {
      "latmax": 50.79924781276656, 
      "name": "Eglantierstraat", 
      "lonmin": 3.5940794838674313, 
      "sanName": "eglantierstraat", 
      "numOfAddr": 10, 
      "lonmax": 3.5952330568701756, 
      "latmin": 50.797505677085205
    }, 
    {
      "latmax": 50.802729855687026, 
      "name": "Elsstraat", 
      "lonmin": 3.5834368144509456, 
      "sanName": "elsstraat", 
      "numOfAddr": 8, 
      "lonmax": 3.5908726346702, 
      "latmin": 50.7970927481927
    }, 
    {
      "latmax": 50.77925493313521, 
      "name": "Fonteineweg", 
      "lonmin": 3.6226134151737988, 
      "sanName": "fonteineweg", 
      "numOfAddr": 18, 
      "lonmax": 3.6247431315371927, 
      "latmin": 50.77184235929261
    }, 
    {
      "latmax": 50.76789584044676, 
      "name": "Geerstraat", 
      "lonmin": 3.624216509746322, 
      "sanName": "geerstraat", 
      "numOfAddr": 5, 
      "lonmax": 3.6252259485626306, 
      "latmin": 50.76751288588899
    }, 
    {
      "latmax": 50.79659595148734, 
      "name": "Glorieuxstraat", 
      "lonmin": 3.595196678168204, 
      "sanName": "glorieuxstraat", 
      "numOfAddr": 10, 
      "lonmax": 3.5982643974163175, 
      "latmin": 50.79344647018694
    }, 
    {
      "latmax": 50.77364318205547, 
      "name": "Groenendale", 
      "lonmin": 3.5868531685049856, 
      "sanName": "groenendale", 
      "numOfAddr": 2, 
      "lonmax": 3.587025290950012, 
      "latmin": 50.77342959576723
    }, 
    {
      "latmax": 50.800383094353414, 
      "name": "Hartenbos", 
      "lonmin": 3.590383827801863, 
      "sanName": "hartenbos", 
      "numOfAddr": 4, 
      "lonmax": 3.591549848899654, 
      "latmin": 50.80025812940508
    }, 
    {
      "latmax": 50.79594276069062, 
      "name": "Heidje", 
      "lonmin": 3.583571603257798, 
      "sanName": "heidje", 
      "numOfAddr": 12, 
      "lonmax": 3.5905473731010815, 
      "latmin": 50.7941738619885
    }, 
    {
      "latmax": 50.7843100716998, 
      "name": "Hoevekouter", 
      "lonmin": 3.6169130122797997, 
      "sanName": "hoevekouter", 
      "numOfAddr": 1, 
      "lonmax": 3.6169130122797997, 
      "latmin": 50.7843100716998
    }, 
    {
      "latmax": 50.779664553375376, 
      "name": "Hof te Fiennesstraat", 
      "lonmin": 3.6342760328470196, 
      "sanName": "hoftefiennesstraat", 
      "numOfAddr": 22, 
      "lonmax": 3.6398064981754787, 
      "latmin": 50.77164668897452
    }, 
    {
      "latmax": 50.79003574811552, 
      "name": "Holandstraat", 
      "lonmin": 3.5992819825175424, 
      "sanName": "holandstraat", 
      "numOfAddr": 15, 
      "lonmax": 3.6083625716085295, 
      "latmin": 50.78097109468047
    }, 
    {
      "latmax": 50.79494133039448, 
      "name": "Jasmijnstraat", 
      "lonmin": 3.5942607951779975, 
      "sanName": "jasmijnstraat", 
      "numOfAddr": 17, 
      "lonmax": 3.59509648118649, 
      "latmin": 50.79364503599418
    }, 
    {
      "latmax": 50.76891096960949, 
      "name": "Kafhoek", 
      "lonmin": 3.627443792344312, 
      "sanName": "kafhoek", 
      "numOfAddr": 6, 
      "lonmax": 3.6288365880518296, 
      "latmin": 50.767718968462326
    }, 
    {
      "latmax": 50.7778838453482, 
      "name": "Keistraat", 
      "lonmin": 3.603560738725758, 
      "sanName": "keistraat", 
      "numOfAddr": 4, 
      "lonmax": 3.605287127607102, 
      "latmin": 50.77562585753155
    }, 
    {
      "latmax": 50.77313324214865, 
      "name": "Keizerrei", 
      "lonmin": 3.6197057384746567, 
      "sanName": "keizerrei", 
      "numOfAddr": 8, 
      "lonmax": 3.6256255229087144, 
      "latmin": 50.770232600632255
    }, 
    {
      "latmax": 50.79790036733931, 
      "name": "Kerkewijck", 
      "lonmin": 3.5922511622801703, 
      "sanName": "kerkewijck", 
      "numOfAddr": 11, 
      "lonmax": 3.593742241650805, 
      "latmin": 50.79689720443272
    }, 
    {
      "latmax": 50.76956658334716, 
      "name": "Klomp", 
      "lonmin": 3.5885096070340827, 
      "sanName": "klomp", 
      "numOfAddr": 1, 
      "lonmax": 3.5885096070340827, 
      "latmin": 50.76956658334716
    }, 
    {
      "latmax": 50.79875971081962, 
      "name": "Kortekeer", 
      "lonmin": 3.583837371388419, 
      "sanName": "kortekeer", 
      "numOfAddr": 4, 
      "lonmax": 3.586886175331373, 
      "latmin": 50.796645986994534
    }, 
    {
      "latmax": 50.77587704713695, 
      "name": "Kuitholstraat", 
      "lonmin": 3.583703308714389, 
      "sanName": "kuitholstraat", 
      "numOfAddr": 7, 
      "lonmax": 3.587528654051604, 
      "latmin": 50.774378400269576
    }, 
    {
      "latmax": 50.79536238556612, 
      "name": "Leliestraat", 
      "lonmin": 3.5920951746308107, 
      "sanName": "leliestraat", 
      "numOfAddr": 24, 
      "lonmax": 3.5934122994002755, 
      "latmin": 50.79344075416477
    }, 
    {
      "latmax": 50.78448784097404, 
      "name": "Letterstraat", 
      "lonmin": 3.590839085132985, 
      "sanName": "letterstraat", 
      "numOfAddr": 4, 
      "lonmax": 3.594491279876498, 
      "latmin": 50.78369826019515
    }, 
    {
      "latmax": 50.79624838826147, 
      "name": "Lindeke", 
      "lonmin": 3.5944630747899238, 
      "sanName": "lindeke", 
      "numOfAddr": 9, 
      "lonmax": 3.5951580624741104, 
      "latmin": 50.79488704846193
    }, 
    {
      "latmax": 50.77022053378288, 
      "name": "Margaretha van Parmadreef", 
      "lonmin": 3.6303029344369846, 
      "sanName": "margarethavanparmadreef", 
      "numOfAddr": 4, 
      "lonmax": 3.6307656894449862, 
      "latmin": 50.76931160542298
    }, 
    {
      "latmax": 50.78241019264283, 
      "name": "Meersstraat", 
      "lonmin": 3.6033690136338508, 
      "sanName": "meersstraat", 
      "numOfAddr": 4, 
      "lonmax": 3.6045420191502426, 
      "latmin": 50.779823739127956
    }, 
    {
      "latmax": 50.793386553668704, 
      "name": "Mellinkstraat", 
      "lonmin": 3.604183925534484, 
      "sanName": "mellinkstraat", 
      "numOfAddr": 11, 
      "lonmax": 3.618073632611595, 
      "latmin": 50.78661660224519
    }, 
    {
      "latmax": 50.7921767106167, 
      "name": "Mere", 
      "lonmin": 3.5913260408909866, 
      "sanName": "mere", 
      "numOfAddr": 10, 
      "lonmax": 3.59333482952605, 
      "latmin": 50.79094177282845
    }, 
    {
      "latmax": 50.787556152113545, 
      "name": "Meulebroeke", 
      "lonmin": 3.6086759344309676, 
      "sanName": "meulebroeke", 
      "numOfAddr": 2, 
      "lonmax": 3.6098917282541922, 
      "latmin": 50.7870837756643
    }, 
    {
      "latmax": 50.79619543350586, 
      "name": "Nederholbeekstraat", 
      "lonmin": 3.622978799079942, 
      "sanName": "nederholbeekstraat", 
      "numOfAddr": 10, 
      "lonmax": 3.6236560114498055, 
      "latmin": 50.794534684223265
    }, 
    {
      "latmax": 50.77019122578786, 
      "name": "Nitterveldstraat", 
      "lonmin": 3.630066960548195, 
      "sanName": "nitterveldstraat", 
      "numOfAddr": 16, 
      "lonmax": 3.632831031759353, 
      "latmin": 50.767685095359845
    }, 
    {
      "latmax": 50.797712944086776, 
      "name": "Nukerkeplein", 
      "lonmin": 3.5945109504685826, 
      "sanName": "nukerkeplein", 
      "numOfAddr": 8, 
      "lonmax": 3.5957477190870657, 
      "latmin": 50.79637735682038
    }, 
    {
      "latmax": 50.797136299854344, 
      "name": "Nukerkestraat", 
      "lonmin": 3.5916419626706197, 
      "sanName": "nukerkestraat", 
      "numOfAddr": 19, 
      "lonmax": 3.5941614281944583, 
      "latmin": 50.795605972185854
    }, 
    {
      "latmax": 50.779491918274246, 
      "name": "Okerij", 
      "lonmin": 3.593671617308883, 
      "sanName": "okerij", 
      "numOfAddr": 1, 
      "lonmax": 3.593671617308883, 
      "latmin": 50.779491918274246
    }, 
    {
      "latmax": 50.772517520402495, 
      "name": "Ommegangstraat", 
      "lonmin": 3.5882513457729117, 
      "sanName": "ommegangstraat", 
      "numOfAddr": 92, 
      "lonmax": 3.639812900332388, 
      "latmin": 50.76509583616748
    }, 
    {
      "latmax": 50.79610070592035, 
      "name": "Oude Heerweg", 
      "lonmin": 3.5930826443409236, 
      "sanName": "oudeheerweg", 
      "numOfAddr": 27, 
      "lonmax": 3.5943992932986126, 
      "latmin": 50.79380236836766
    }, 
    {
      "latmax": 50.80355036287476, 
      "name": "Oude Steenweg", 
      "lonmin": 3.590754591639006, 
      "sanName": "oudesteenweg", 
      "numOfAddr": 12, 
      "lonmax": 3.5937175720352292, 
      "latmin": 50.799683981057896
    }, 
    {
      "latmax": 50.79962386705076, 
      "name": "Pontstraat", 
      "lonmin": 3.5911258798923016, 
      "sanName": "pontstraat", 
      "numOfAddr": 58, 
      "lonmax": 3.6080548937034154, 
      "latmin": 50.78898458673626
    }, 
    {
      "latmax": 50.79265359197709, 
      "name": "Potaarde", 
      "lonmin": 3.5987346769437023, 
      "sanName": "potaarde", 
      "numOfAddr": 4, 
      "lonmax": 3.601320050025893, 
      "latmin": 50.791350622834685
    }, 
    {
      "latmax": 50.80502664158152, 
      "name": "Rijksweg", 
      "lonmin": 3.58758763675758, 
      "sanName": "rijksweg", 
      "numOfAddr": 108, 
      "lonmax": 3.597292083072581, 
      "latmin": 50.764998411148184
    }, 
    {
      "latmax": 50.793621606050024, 
      "name": "Rozenstraat", 
      "lonmin": 3.5938145534960246, 
      "sanName": "rozenstraat", 
      "numOfAddr": 12, 
      "lonmax": 3.5949585485937705, 
      "latmin": 50.79301635629564
    }, 
    {
      "latmax": 50.77484075817699, 
      "name": "Rubberigtsbank", 
      "lonmin": 3.630647052677086, 
      "sanName": "rubberigtsbank", 
      "numOfAddr": 23, 
      "lonmax": 3.6363110137469525, 
      "latmin": 50.770853190166136
    }, 
    {
      "latmax": 50.79308407439316, 
      "name": "Ruitegem", 
      "lonmin": 3.605145860887401, 
      "sanName": "ruitegem", 
      "numOfAddr": 8, 
      "lonmax": 3.6101009184082993, 
      "latmin": 50.790909904741056
    }, 
    {
      "latmax": 50.787824967566124, 
      "name": "Smisstraat", 
      "lonmin": 3.5841544518105546, 
      "sanName": "smisstraat", 
      "numOfAddr": 11, 
      "lonmax": 3.589260771197591, 
      "latmin": 50.786274701387995
    }, 
    {
      "latmax": 50.7729116464295, 
      "name": "Spichtenberg", 
      "lonmin": 3.6071478712345875, 
      "sanName": "spichtenberg", 
      "numOfAddr": 12, 
      "lonmax": 3.6174271775789704, 
      "latmin": 50.77036117689874
    }, 
    {
      "latmax": 50.771452567925614, 
      "name": "Tenabele", 
      "lonmin": 3.606947723271698, 
      "sanName": "tenabele", 
      "numOfAddr": 10, 
      "lonmax": 3.611385659656575, 
      "latmin": 50.76919073449798
    }, 
    {
      "latmax": 50.77725125492285, 
      "name": "Tenhole", 
      "lonmin": 3.597877992419645, 
      "sanName": "tenhole", 
      "numOfAddr": 6, 
      "lonmax": 3.602060921336746, 
      "latmin": 50.77290162791026
    }, 
    {
      "latmax": 50.78129154901409, 
      "name": "Terbeke", 
      "lonmin": 3.617743854385544, 
      "sanName": "terbeke", 
      "numOfAddr": 17, 
      "lonmax": 3.632902050079055, 
      "latmin": 50.77595740142911
    }, 
    {
      "latmax": 50.79202078212482, 
      "name": "Terpoort", 
      "lonmin": 3.6173866452018775, 
      "sanName": "terpoort", 
      "numOfAddr": 4, 
      "lonmax": 3.621573885369556, 
      "latmin": 50.7901806558247
    }, 
    {
      "latmax": 50.78030348872279, 
      "name": "Tiemerskouter", 
      "lonmin": 3.6250291897297178, 
      "sanName": "tiemerskouter", 
      "numOfAddr": 4, 
      "lonmax": 3.627200563760996, 
      "latmin": 50.77937781252659
    }, 
    {
      "latmax": 50.77208286487194, 
      "name": "Turkije", 
      "lonmin": 3.5911347588107607, 
      "sanName": "turkije", 
      "numOfAddr": 13, 
      "lonmax": 3.595279859274634, 
      "latmin": 50.769187115384284
    }, 
    {
      "latmax": 50.78504509372702, 
      "name": "Weitstraat", 
      "lonmin": 3.60234054245527, 
      "sanName": "weitstraat", 
      "numOfAddr": 28, 
      "lonmax": 3.6191998865705575, 
      "latmin": 50.76686546096816
    }, 
    {
      "latmax": 50.78477700813974, 
      "name": "Wolvestraat", 
      "lonmin": 3.6231754306626343, 
      "sanName": "wolvestraat", 
      "numOfAddr": 1, 
      "lonmax": 3.6231754306626343, 
      "latmin": 50.78477700813974
    }, 
    {
      "latmax": 50.801232949473324, 
      "name": "Zakstraat", 
      "lonmin": 3.5949566864725853, 
      "sanName": "zakstraat", 
      "numOfAddr": 13, 
      "lonmax": 3.6075753653943408, 
      "latmin": 50.79797821054646
    }, 
    {
      "latmax": 50.781790651691324, 
      "name": "Zeelstraat", 
      "lonmin": 3.5783697218481754, 
      "sanName": "zeelstraat", 
      "numOfAddr": 14, 
      "lonmax": 3.5877435149361987, 
      "latmin": 50.766870444644006
    }, 
    {
      "latmax": 50.788742182917694, 
      "name": "Zeitje", 
      "lonmin": 3.5912747385551147, 
      "sanName": "zeitje", 
      "numOfAddr": 14, 
      "lonmax": 3.597290371150784, 
      "latmin": 50.78608573823935
    }
  ]
}