{
  "streets": [
    {
      "latmax": 50.88364753559999, 
      "name": "Baillistraat", 
      "lonmin": 3.4792142356310745, 
      "sanName": "baillistraat", 
      "numOfAddr": 11, 
      "lonmax": 3.4820929092766897, 
      "latmin": 50.87993302271615
    }, 
    {
      "latmax": 50.88606379836891, 
      "name": "Beelkestraat", 
      "lonmin": 3.4806910344887845, 
      "sanName": "beelkestraat", 
      "numOfAddr": 3, 
      "lonmax": 3.4844520446875356, 
      "latmin": 50.88421457936666
    }, 
    {
      "latmax": 50.89025404779922, 
      "name": "Callantstraat", 
      "lonmin": 3.5206270755431746, 
      "sanName": "callantstraat", 
      "numOfAddr": 1, 
      "lonmax": 3.5206270755431746, 
      "latmin": 50.89025404779922
    }, 
    {
      "latmax": 50.8968539078554, 
      "name": "Dijkstraat", 
      "lonmin": 3.509639154354867, 
      "sanName": "dijkstraat", 
      "numOfAddr": 2, 
      "lonmax": 3.5108998906188487, 
      "latmin": 50.894931537345144
    }, 
    {
      "latmax": 50.876592441707146, 
      "name": "Gapaardstraat", 
      "lonmin": 3.5209926958981255, 
      "sanName": "gapaardstraat", 
      "numOfAddr": 2, 
      "lonmax": 3.5226289448751493, 
      "latmin": 50.875034897832144
    }, 
    {
      "latmax": 50.87762846039541, 
      "name": "Gersstraat", 
      "lonmin": 3.527272753231027, 
      "sanName": "gersstraat", 
      "numOfAddr": 2, 
      "lonmax": 3.528082838900601, 
      "latmin": 50.87733462433297
    }, 
    {
      "latmax": 50.89581591744852, 
      "name": "Herlegemstraat", 
      "lonmin": 3.4750348941877873, 
      "sanName": "herlegemstraat", 
      "numOfAddr": 20, 
      "lonmax": 3.4779766063525255, 
      "latmin": 50.888248153825714
    }, 
    {
      "latmax": 50.88838109370075, 
      "name": "Holstraat", 
      "lonmin": 3.5051293344753067, 
      "sanName": "holstraat", 
      "numOfAddr": 6, 
      "lonmax": 3.5086089916319696, 
      "latmin": 50.88636621599936
    }, 
    {
      "latmax": 50.88552719290164, 
      "name": "Hovebroekweg", 
      "lonmin": 3.5119393544825663, 
      "sanName": "hovebroekweg", 
      "numOfAddr": 5, 
      "lonmax": 3.5147756357310347, 
      "latmin": 50.88512529680597
    }, 
    {
      "latmax": 50.88492962426848, 
      "name": "Kasteeldreef", 
      "lonmin": 3.500318505656814, 
      "sanName": "kasteeldreef", 
      "numOfAddr": 10, 
      "lonmax": 3.510333136670475, 
      "latmin": 50.88063666521089
    }, 
    {
      "latmax": 50.87903647302103, 
      "name": "Koninginnestraat", 
      "lonmin": 3.5041977566283236, 
      "sanName": "koninginnestraat", 
      "numOfAddr": 3, 
      "lonmax": 3.512038404854473, 
      "latmin": 50.87551866372096
    }, 
    {
      "latmax": 50.89377317674482, 
      "name": "Lindeknokstraat", 
      "lonmin": 3.507024465641049, 
      "sanName": "lindeknokstraat", 
      "numOfAddr": 26, 
      "lonmax": 3.5172959515284057, 
      "latmin": 50.8898084723633
    }, 
    {
      "latmax": 50.8809028858452, 
      "name": "Mottestraat", 
      "lonmin": 3.5180311577906913, 
      "sanName": "mottestraat", 
      "numOfAddr": 3, 
      "lonmax": 3.5205974045560486, 
      "latmin": 50.88049200325195
    }, 
    {
      "latmax": 50.89141673615687, 
      "name": "Nellekensstraat", 
      "lonmin": 3.4729858967854432, 
      "sanName": "nellekensstraat", 
      "numOfAddr": 27, 
      "lonmax": 3.4788934183689566, 
      "latmin": 50.887084940503335
    }, 
    {
      "latmax": 50.886330424031804, 
      "name": "Nokeredorpstraat", 
      "lonmin": 3.5085812330766575, 
      "sanName": "nokeredorpstraat", 
      "numOfAddr": 76, 
      "lonmax": 3.5226199643236757, 
      "latmin": 50.881844342595755
    }, 
    {
      "latmax": 50.881322370782904, 
      "name": "Ooikestraat", 
      "lonmin": 3.5267342676098488, 
      "sanName": "ooikestraat", 
      "numOfAddr": 3, 
      "lonmax": 3.5306096810520247, 
      "latmin": 50.87708145454883
    }, 
    {
      "latmax": 50.88734608146006, 
      "name": "Oude Molenweg", 
      "lonmin": 3.49498113505095, 
      "sanName": "oudemolenweg", 
      "numOfAddr": 4, 
      "lonmax": 3.498942125599158, 
      "latmin": 50.88693273814376
    }, 
    {
      "latmax": 50.87799130978483, 
      "name": "Peerdekouterstraat", 
      "lonmin": 3.4805621977236663, 
      "sanName": "peerdekouterstraat", 
      "numOfAddr": 2, 
      "lonmax": 3.484002404911745, 
      "latmin": 50.87765084022198
    }, 
    {
      "latmax": 50.88380072848798, 
      "name": "Schaagstraat", 
      "lonmin": 3.4721454548291604, 
      "sanName": "schaagstraat", 
      "numOfAddr": 6, 
      "lonmax": 3.4754219542782465, 
      "latmin": 50.87832302142122
    }, 
    {
      "latmax": 50.88265287076917, 
      "name": "Spichtestraat", 
      "lonmin": 3.502191610244605, 
      "sanName": "spichtestraat", 
      "numOfAddr": 13, 
      "lonmax": 3.5129731028584477, 
      "latmin": 50.87813841208027
    }, 
    {
      "latmax": 50.88424210026932, 
      "name": "Ter Meulenstraat", 
      "lonmin": 3.4815860974747346, 
      "sanName": "termeulenstraat", 
      "numOfAddr": 5, 
      "lonmax": 3.489379968362082, 
      "latmin": 50.88091932385591
    }, 
    {
      "latmax": 50.88287992790088, 
      "name": "Tsjoenstraat", 
      "lonmin": 3.5220642924126113, 
      "sanName": "tsjoenstraat", 
      "numOfAddr": 3, 
      "lonmax": 3.523135522761272, 
      "latmin": 50.8824770107997
    }, 
    {
      "latmax": 50.877042013044836, 
      "name": "Turkestraat", 
      "lonmin": 3.498144564308706, 
      "sanName": "turkestraat", 
      "numOfAddr": 13, 
      "lonmax": 3.51270508137663, 
      "latmin": 50.873891137294436
    }, 
    {
      "latmax": 50.88391254106915, 
      "name": "Vijverdamstraat", 
      "lonmin": 3.4943316197871814, 
      "sanName": "vijverdamstraat", 
      "numOfAddr": 9, 
      "lonmax": 3.4986133111503217, 
      "latmin": 50.878229726328
    }, 
    {
      "latmax": 50.88667330504972, 
      "name": "Wandelstraat", 
      "lonmin": 3.475270924214961, 
      "sanName": "wandelstraat", 
      "numOfAddr": 22, 
      "lonmax": 3.477992929466334, 
      "latmin": 50.878571196124476
    }, 
    {
      "latmax": 50.88989921341176, 
      "name": "Waregemsestraat", 
      "lonmin": 3.4713568709465052, 
      "sanName": "waregemsestraat", 
      "numOfAddr": 80, 
      "lonmax": 3.523280989987725, 
      "latmin": 50.88405068239062
    }, 
    {
      "latmax": 50.88512137183348, 
      "name": "Wildendriesstraat", 
      "lonmin": 3.5253443702615, 
      "sanName": "wildendriesstraat", 
      "numOfAddr": 4, 
      "lonmax": 3.526484365578469, 
      "latmin": 50.88361096123076
    }, 
    {
      "latmax": 50.88241923068235, 
      "name": "Wortegemstraat", 
      "lonmin": 3.513628791984211, 
      "sanName": "wortegemstraat", 
      "numOfAddr": 16, 
      "lonmax": 3.5215320834582955, 
      "latmin": 50.874600076796455
    }
  ]
}