{
  "streets": [
    {
      "latmax": 51.07389973958296, 
      "name": "Alsemweg", 
      "lonmin": 3.5947302107053454, 
      "sanName": "alsemweg", 
      "numOfAddr": 10, 
      "lonmax": 3.604905474838724, 
      "latmin": 51.06939040283811
    }, 
    {
      "latmax": 51.05358591466178, 
      "name": "Baarlestraat", 
      "lonmin": 3.5979803737191265, 
      "sanName": "baarlestraat", 
      "numOfAddr": 5, 
      "lonmax": 3.601683291901785, 
      "latmin": 51.04829119912878
    }, 
    {
      "latmax": 51.04113668691053, 
      "name": "Beentjesstraat", 
      "lonmin": 3.514340889734985, 
      "sanName": "beentjesstraat", 
      "numOfAddr": 41, 
      "lonmax": 3.5168720989418993, 
      "latmin": 51.03411718451616
    }, 
    {
      "latmax": 51.0768515912034, 
      "name": "Begijnhoflaan", 
      "lonmin": 3.535387118845603, 
      "sanName": "begijnhoflaan", 
      "numOfAddr": 20, 
      "lonmax": 3.537953756805694, 
      "latmin": 51.07638625157493
    }, 
    {
      "latmax": 51.06402215437801, 
      "name": "Bekstraat", 
      "lonmin": 3.5766380253557064, 
      "sanName": "bekstraat", 
      "numOfAddr": 26, 
      "lonmax": 3.581176998971006, 
      "latmin": 51.06253917301734
    }, 
    {
      "latmax": 51.03744601025845, 
      "name": "Berkenlaan", 
      "lonmin": 3.5430843463406276, 
      "sanName": "berkenlaan", 
      "numOfAddr": 14, 
      "lonmax": 3.545195748600143, 
      "latmin": 51.03624943768768
    }, 
    {
      "latmax": 51.052258754348955, 
      "name": "Biebuyckstraat", 
      "lonmin": 3.5300773002761905, 
      "sanName": "biebuyckstraat", 
      "numOfAddr": 51, 
      "lonmax": 3.5494154481473226, 
      "latmin": 51.03688533977613
    }, 
    {
      "latmax": 51.076360521853005, 
      "name": "Biezestraat", 
      "lonmin": 3.5808645880978687, 
      "sanName": "biezestraat", 
      "numOfAddr": 28, 
      "lonmax": 3.595293081287871, 
      "latmin": 51.07267372583014
    }, 
    {
      "latmax": 51.04404918417156, 
      "name": "Bijlkenstraat", 
      "lonmin": 3.523926776389139, 
      "sanName": "bijlkenstraat", 
      "numOfAddr": 24, 
      "lonmax": 3.5343424805899115, 
      "latmin": 51.037376064030944
    }, 
    {
      "latmax": 51.03086998693506, 
      "name": "Blasiusdriesstraat", 
      "lonmin": 3.5528439744016107, 
      "sanName": "blasiusdriesstraat", 
      "numOfAddr": 26, 
      "lonmax": 3.554114646700624, 
      "latmin": 51.028463585916114
    }, 
    {
      "latmax": 51.08009054999464, 
      "name": "Bloemistenstraat", 
      "lonmin": 3.577842192430386, 
      "sanName": "bloemistenstraat", 
      "numOfAddr": 25, 
      "lonmax": 3.580102050495821, 
      "latmin": 51.07914158970295
    }, 
    {
      "latmax": 51.07015587341518, 
      "name": "Boerestraat", 
      "lonmin": 3.513825634704903, 
      "sanName": "boerestraat", 
      "numOfAddr": 28, 
      "lonmax": 3.5352436759874446, 
      "latmin": 51.06206313258723
    }, 
    {
      "latmax": 51.07392606415277, 
      "name": "Borluutlaan", 
      "lonmin": 3.5307697548783348, 
      "sanName": "borluutlaan", 
      "numOfAddr": 16, 
      "lonmax": 3.5324401546139645, 
      "latmin": 51.072781278638914
    }, 
    {
      "latmax": 51.03830940151051, 
      "name": "Borrewal", 
      "lonmin": 3.5442708771839566, 
      "sanName": "borrewal", 
      "numOfAddr": 24, 
      "lonmax": 3.54662892291941, 
      "latmin": 51.036741492596526
    }, 
    {
      "latmax": 51.052251293404474, 
      "name": "Bosstraat", 
      "lonmin": 3.5371262735040596, 
      "sanName": "bosstraat", 
      "numOfAddr": 15, 
      "lonmax": 3.5468140226052016, 
      "latmin": 51.047496223405695
    }, 
    {
      "latmax": 51.055443580697336, 
      "name": "Bovenstraat", 
      "lonmin": 3.5709163224729226, 
      "sanName": "bovenstraat", 
      "numOfAddr": 32, 
      "lonmax": 3.576229118414807, 
      "latmin": 51.051068810957
    }, 
    {
      "latmax": 51.0518345808518, 
      "name": "Braamdonk", 
      "lonmin": 3.5103015017938737, 
      "sanName": "braamdonk", 
      "numOfAddr": 17, 
      "lonmax": 3.5215072453375686, 
      "latmin": 51.0422435609555
    }, 
    {
      "latmax": 51.0405653689086, 
      "name": "Bredeweg", 
      "lonmin": 3.507522018312347, 
      "sanName": "bredeweg", 
      "numOfAddr": 49, 
      "lonmax": 3.5206343343304245, 
      "latmin": 51.03673070745326
    }, 
    {
      "latmax": 51.0638034544332, 
      "name": "Brielstraat", 
      "lonmin": 3.5766532803110174, 
      "sanName": "brielstraat", 
      "numOfAddr": 8, 
      "lonmax": 3.5776941776561304, 
      "latmin": 51.06269645583342
    }, 
    {
      "latmax": 51.070378745953235, 
      "name": "Broekstraat", 
      "lonmin": 3.577932480990293, 
      "sanName": "broekstraat", 
      "numOfAddr": 22, 
      "lonmax": 3.592764442399374, 
      "latmin": 51.065751040763324
    }, 
    {
      "latmax": 51.060161385058706, 
      "name": "Brouwerijstraat", 
      "lonmin": 3.5587841072845605, 
      "sanName": "brouwerijstraat", 
      "numOfAddr": 48, 
      "lonmax": 3.571903306298805, 
      "latmin": 51.05649463113011
    }, 
    {
      "latmax": 51.03730320487457, 
      "name": "Brugstraat", 
      "lonmin": 3.552008276344766, 
      "sanName": "brugstraat", 
      "numOfAddr": 3, 
      "lonmax": 3.552443678483329, 
      "latmin": 51.03658947615974
    }, 
    {
      "latmax": 51.03693684175687, 
      "name": "Camille Van der Cruyssenstraat", 
      "lonmin": 3.548590349288024, 
      "sanName": "camillevandercruyssenstraat", 
      "numOfAddr": 67, 
      "lonmax": 3.5507749709726433, 
      "latmin": 51.03348080746963
    }, 
    {
      "latmax": 51.070263931977344, 
      "name": "Cardijnlaan", 
      "lonmin": 3.5379769099360834, 
      "sanName": "cardijnlaan", 
      "numOfAddr": 56, 
      "lonmax": 3.54272277908441, 
      "latmin": 51.06885957884243
    }, 
    {
      "latmax": 51.033326125630055, 
      "name": "Cyriel Buyssestraat", 
      "lonmin": 3.5452994039454864, 
      "sanName": "cyrielbuyssestraat", 
      "numOfAddr": 48, 
      "lonmax": 3.5488949688957767, 
      "latmin": 51.03184260408629
    }, 
    {
      "latmax": 51.06594793623327, 
      "name": "Dalestraat", 
      "lonmin": 3.523612041297804, 
      "sanName": "dalestraat", 
      "numOfAddr": 18, 
      "lonmax": 3.5285770767785336, 
      "latmin": 51.06023745403517
    }, 
    {
      "latmax": 51.02906136188196, 
      "name": "Damstraat", 
      "lonmin": 3.5573826543042655, 
      "sanName": "damstraat", 
      "numOfAddr": 62, 
      "lonmax": 3.5701267345936323, 
      "latmin": 51.020831921131084
    }, 
    {
      "latmax": 51.03785715873604, 
      "name": "De Akker", 
      "lonmin": 3.5496705848656815, 
      "sanName": "deakker", 
      "numOfAddr": 45, 
      "lonmax": 3.5516510717117766, 
      "latmin": 51.03628837251867
    }, 
    {
      "latmax": 51.02759088447173, 
      "name": "de Kerchovelaan", 
      "lonmin": 3.5567221967524842, 
      "sanName": "dekerchovelaan", 
      "numOfAddr": 8, 
      "lonmax": 3.558554840042903, 
      "latmin": 51.02716741792731
    }, 
    {
      "latmax": 51.063304483372974, 
      "name": "Dennendreef", 
      "lonmin": 3.574362330439026, 
      "sanName": "dennendreef", 
      "numOfAddr": 43, 
      "lonmax": 3.581333168424738, 
      "latmin": 51.05788972103887
    }, 
    {
      "latmax": 51.0268951621275, 
      "name": "de Pretlaan", 
      "lonmin": 3.5564901232479307, 
      "sanName": "depretlaan", 
      "numOfAddr": 34, 
      "lonmax": 3.558939803286968, 
      "latmin": 51.025647679797785
    }, 
    {
      "latmax": 51.07876569547781, 
      "name": "Dichter Basiel De Craenelaan", 
      "lonmin": 3.571095864831408, 
      "sanName": "dichterbasieldecraenelaan", 
      "numOfAddr": 29, 
      "lonmax": 3.572530273523188, 
      "latmin": 51.07553138149674
    }, 
    {
      "latmax": 51.074526535640004, 
      "name": "Diepestraat", 
      "lonmin": 3.571483548022711, 
      "sanName": "diepestraat", 
      "numOfAddr": 13, 
      "lonmax": 3.5770527563875065, 
      "latmin": 51.07309611995814
    }, 
    {
      "latmax": 51.08338591683142, 
      "name": "Dobbelstatiestraat", 
      "lonmin": 3.5680211492202387, 
      "sanName": "dobbelstatiestraat", 
      "numOfAddr": 10, 
      "lonmax": 3.571768506254682, 
      "latmin": 51.08100988657678
    }, 
    {
      "latmax": 51.0710930569621, 
      "name": "Donkerstraat", 
      "lonmin": 3.5424286139368335, 
      "sanName": "donkerstraat", 
      "numOfAddr": 18, 
      "lonmax": 3.546655118646222, 
      "latmin": 51.070201622234705
    }, 
    {
      "latmax": 51.07795711741324, 
      "name": "Doornbosstraat", 
      "lonmin": 3.537135829144436, 
      "sanName": "doornbosstraat", 
      "numOfAddr": 70, 
      "lonmax": 3.5398177544385123, 
      "latmin": 51.07412609422935
    }, 
    {
      "latmax": 51.08914201459034, 
      "name": "Dopershoek", 
      "lonmin": 3.563788805401705, 
      "sanName": "dopershoek", 
      "numOfAddr": 9, 
      "lonmax": 3.568870363693046, 
      "latmin": 51.087724690080385
    }, 
    {
      "latmax": 51.07814596978241, 
      "name": "Dorpswegel", 
      "lonmin": 3.572848480521063, 
      "sanName": "dorpswegel", 
      "numOfAddr": 15, 
      "lonmax": 3.574796446958466, 
      "latmin": 51.076935717409754
    }, 
    {
      "latmax": 51.07674946937415, 
      "name": "Dosweg", 
      "lonmin": 3.5581032003389144, 
      "sanName": "dosweg", 
      "numOfAddr": 7, 
      "lonmax": 3.5616569932525723, 
      "latmin": 51.07567028997551
    }, 
    {
      "latmax": 51.07742993119898, 
      "name": "Dreef", 
      "lonmin": 3.5770530921168215, 
      "sanName": "dreef", 
      "numOfAddr": 18, 
      "lonmax": 3.578067599995629, 
      "latmin": 51.07517644269204
    }, 
    {
      "latmax": 51.06994705685807, 
      "name": "Driesstraat", 
      "lonmin": 3.520969530398062, 
      "sanName": "driesstraat", 
      "numOfAddr": 4, 
      "lonmax": 3.5238284079684505, 
      "latmin": 51.06849517704178
    }, 
    {
      "latmax": 51.09137953669919, 
      "name": "Durmenstraat", 
      "lonmin": 3.5745117380558606, 
      "sanName": "durmenstraat", 
      "numOfAddr": 30, 
      "lonmax": 3.587116646943936, 
      "latmin": 51.088857912205924
    }, 
    {
      "latmax": 51.03617668140993, 
      "name": "Egelare", 
      "lonmin": 3.5552535912582286, 
      "sanName": "egelare", 
      "numOfAddr": 21, 
      "lonmax": 3.558033069202245, 
      "latmin": 51.03346202194972
    }, 
    {
      "latmax": 51.054439794009056, 
      "name": "Eggenbos", 
      "lonmin": 3.5743362522349713, 
      "sanName": "eggenbos", 
      "numOfAddr": 29, 
      "lonmax": 3.5756388944281015, 
      "latmin": 51.053097926683016
    }, 
    {
      "latmax": 51.07920169262665, 
      "name": "Eikendreef", 
      "lonmin": 3.5778736835544223, 
      "sanName": "eikendreef", 
      "numOfAddr": 31, 
      "lonmax": 3.5822077604320466, 
      "latmin": 51.075522402489995
    }, 
    {
      "latmax": 51.09367902451707, 
      "name": "Eiland", 
      "lonmin": 3.559281449058475, 
      "sanName": "eiland", 
      "numOfAddr": 18, 
      "lonmax": 3.562911644802092, 
      "latmin": 51.08016807958246
    }, 
    {
      "latmax": 51.02450035249033, 
      "name": "Ganzebek", 
      "lonmin": 3.5543707058472283, 
      "sanName": "ganzebek", 
      "numOfAddr": 20, 
      "lonmax": 3.5572750782693268, 
      "latmin": 51.023892886166074
    }, 
    {
      "latmax": 51.03205101262723, 
      "name": "Gasthuisstraat", 
      "lonmin": 3.5447997505450908, 
      "sanName": "gasthuisstraat", 
      "numOfAddr": 32, 
      "lonmax": 3.547321784800103, 
      "latmin": 51.02726972157511
    }, 
    {
      "latmax": 51.06478251322406, 
      "name": "Gaverstraat", 
      "lonmin": 3.5531981717219625, 
      "sanName": "gaverstraat", 
      "numOfAddr": 3, 
      "lonmax": 3.55558823767677, 
      "latmin": 51.06177216072864
    }, 
    {
      "latmax": 51.03861523025537, 
      "name": "Gentstraat", 
      "lonmin": 3.56119713541925, 
      "sanName": "gentstraat", 
      "numOfAddr": 26, 
      "lonmax": 3.5845759783570874, 
      "latmin": 51.034661011074256
    }, 
    {
      "latmax": 51.08547846750216, 
      "name": "Gerolfsweg", 
      "lonmin": 3.5743789282602547, 
      "sanName": "gerolfsweg", 
      "numOfAddr": 5, 
      "lonmax": 3.576741094412445, 
      "latmin": 51.08157067340071
    }, 
    {
      "latmax": 51.03650688270781, 
      "name": "Gezusters Lovelingstraat", 
      "lonmin": 3.546439033093056, 
      "sanName": "gezusterslovelingstraat", 
      "numOfAddr": 18, 
      "lonmax": 3.5487485295642065, 
      "latmin": 51.03500832551602
    }, 
    {
      "latmax": 51.035855211427254, 
      "name": "Goudenregenlaan", 
      "lonmin": 3.5454965093014756, 
      "sanName": "goudenregenlaan", 
      "numOfAddr": 11, 
      "lonmax": 3.546808524026247, 
      "latmin": 51.03525284539396
    }, 
    {
      "latmax": 51.038126269687574, 
      "name": "Graaf van Hoornestraat", 
      "lonmin": 3.5247900595408406, 
      "sanName": "graafvanhoornestraat", 
      "numOfAddr": 79, 
      "lonmax": 3.5455100230011722, 
      "latmin": 51.031366496395385
    }, 
    {
      "latmax": 51.07117666888172, 
      "name": "Grote Heirenthoek", 
      "lonmin": 3.554919684131177, 
      "sanName": "groteheirenthoek", 
      "numOfAddr": 52, 
      "lonmax": 3.5661100554899474, 
      "latmin": 51.058462481197054
    }, 
    {
      "latmax": 51.057071900186365, 
      "name": "Haarkenstraat", 
      "lonmin": 3.580681695123499, 
      "sanName": "haarkenstraat", 
      "numOfAddr": 31, 
      "lonmax": 3.5864694295681594, 
      "latmin": 51.05103816543546
    }, 
    {
      "latmax": 51.08018942499127, 
      "name": "Hammeken", 
      "lonmin": 3.5755219497208577, 
      "sanName": "hammeken", 
      "numOfAddr": 24, 
      "lonmax": 3.578762122614865, 
      "latmin": 51.077873139385495
    }, 
    {
      "latmax": 51.08949978331297, 
      "name": "Hammestraat", 
      "lonmin": 3.5272716667793795, 
      "sanName": "hammestraat", 
      "numOfAddr": 44, 
      "lonmax": 3.5391276411732617, 
      "latmin": 51.087438604542655
    }, 
    {
      "latmax": 51.08019348145623, 
      "name": "Hansbekedorp", 
      "lonmin": 3.5345195897193125, 
      "sanName": "hansbekedorp", 
      "numOfAddr": 73, 
      "lonmax": 3.536585414216222, 
      "latmin": 51.07315703257646
    }, 
    {
      "latmax": 51.07445629759536, 
      "name": "Hansbekestraat", 
      "lonmin": 3.5558535345125044, 
      "sanName": "hansbekestraat", 
      "numOfAddr": 21, 
      "lonmax": 3.5691825774534975, 
      "latmin": 51.0720130385025
    }, 
    {
      "latmax": 51.081942428328226, 
      "name": "Heilige Geeststraat", 
      "lonmin": 3.5732934508782512, 
      "sanName": "heiligegeeststraat", 
      "numOfAddr": 2, 
      "lonmax": 3.573953989444845, 
      "latmin": 51.08177742656881
    }, 
    {
      "latmax": 51.06807500463599, 
      "name": "Heiste", 
      "lonmin": 3.577403321679843, 
      "sanName": "heiste", 
      "numOfAddr": 48, 
      "lonmax": 3.5899622283417063, 
      "latmin": 51.06409174049134
    }, 
    {
      "latmax": 51.065011980467716, 
      "name": "Hekstraat", 
      "lonmin": 3.5655797923165293, 
      "sanName": "hekstraat", 
      "numOfAddr": 1, 
      "lonmax": 3.5655797923165293, 
      "latmin": 51.065011980467716
    }, 
    {
      "latmax": 51.036044288834525, 
      "name": "Herman Lovelingstraat", 
      "lonmin": 3.5478239413053836, 
      "sanName": "hermanlovelingstraat", 
      "numOfAddr": 16, 
      "lonmax": 3.5497590284684946, 
      "latmin": 51.03527918152185
    }, 
    {
      "latmax": 51.0293971255041, 
      "name": "Hoelstraat", 
      "lonmin": 3.553528874030497, 
      "sanName": "hoelstraat", 
      "numOfAddr": 14, 
      "lonmax": 3.554628878901935, 
      "latmin": 51.02822175507731
    }, 
    {
      "latmax": 51.02834776589277, 
      "name": "Hoogstraat", 
      "lonmin": 3.550677809692833, 
      "sanName": "hoogstraat", 
      "numOfAddr": 41, 
      "lonmax": 3.554592940975132, 
      "latmin": 51.02408602582901
    }, 
    {
      "latmax": 51.0325700491352, 
      "name": "Hulbeekstraat", 
      "lonmin": 3.555466488859138, 
      "sanName": "hulbeekstraat", 
      "numOfAddr": 30, 
      "lonmax": 3.5578584525695955, 
      "latmin": 51.030746256672366
    }, 
    {
      "latmax": 51.03833076163336, 
      "name": "Ijsbeerlaan", 
      "lonmin": 3.5418375836587637, 
      "sanName": "ijsbeerlaan", 
      "numOfAddr": 38, 
      "lonmax": 3.547735399169172, 
      "latmin": 51.03475747678091
    }, 
    {
      "latmax": 51.07586716501963, 
      "name": "Jan Burssensstraat", 
      "lonmin": 3.57521717332899, 
      "sanName": "janburssensstraat", 
      "numOfAddr": 28, 
      "lonmax": 3.5770437494312297, 
      "latmin": 51.074449613323296
    }, 
    {
      "latmax": 51.071473996944306, 
      "name": "Kapellenstraat", 
      "lonmin": 3.530892250282192, 
      "sanName": "kapellenstraat", 
      "numOfAddr": 45, 
      "lonmax": 3.5416222782347035, 
      "latmin": 51.070030312629505
    }, 
    {
      "latmax": 51.07576437702054, 
      "name": "Karmenhoekstraat", 
      "lonmin": 3.503667297603021, 
      "sanName": "karmenhoekstraat", 
      "numOfAddr": 29, 
      "lonmax": 3.517910522340608, 
      "latmin": 51.06868778972613
    }, 
    {
      "latmax": 51.05872636822425, 
      "name": "Kasteellaan", 
      "lonmin": 3.575155894041826, 
      "sanName": "kasteellaan", 
      "numOfAddr": 35, 
      "lonmax": 3.577756552011634, 
      "latmin": 51.05598164111176
    }, 
    {
      "latmax": 51.07494916805624, 
      "name": "Kerkakkerstraat", 
      "lonmin": 3.5335367006854916, 
      "sanName": "kerkakkerstraat", 
      "numOfAddr": 23, 
      "lonmax": 3.5350346057652624, 
      "latmin": 51.073568854782806
    }, 
    {
      "latmax": 51.05680480776035, 
      "name": "Kerkstraat", 
      "lonmin": 3.5733920720099386, 
      "sanName": "kerkstraat", 
      "numOfAddr": 61, 
      "lonmax": 3.579121687095092, 
      "latmin": 51.05455099350689
    }, 
    {
      "latmax": 51.031960012199335, 
      "name": "Kerrebroek", 
      "lonmin": 3.514281262617823, 
      "sanName": "kerrebroek", 
      "numOfAddr": 137, 
      "lonmax": 3.5456051385698295, 
      "latmin": 51.02004227168162
    }, 
    {
      "latmax": 51.08044300667284, 
      "name": "Kerselare", 
      "lonmin": 3.5796356899449506, 
      "sanName": "kerselare", 
      "numOfAddr": 15, 
      "lonmax": 3.5805178209637267, 
      "latmin": 51.079461637046656
    }, 
    {
      "latmax": 51.07848710470059, 
      "name": "Kippendonkstraat", 
      "lonmin": 3.50864553052372, 
      "sanName": "kippendonkstraat", 
      "numOfAddr": 10, 
      "lonmax": 3.5182194741595754, 
      "latmin": 51.07093660559097
    }, 
    {
      "latmax": 51.06934790010465, 
      "name": "Kleine Heirenthoek", 
      "lonmin": 3.5488512248255164, 
      "sanName": "kleineheirenthoek", 
      "numOfAddr": 26, 
      "lonmax": 3.5628291261068443, 
      "latmin": 51.0623072621809
    }, 
    {
      "latmax": 51.03493101562234, 
      "name": "Kloosterlaan", 
      "lonmin": 3.546711184459657, 
      "sanName": "kloosterlaan", 
      "numOfAddr": 17, 
      "lonmax": 3.5483913789155412, 
      "latmin": 51.03317256728958
    }, 
    {
      "latmax": 51.02717381214935, 
      "name": "Koestraat", 
      "lonmin": 3.5535253106723177, 
      "sanName": "koestraat", 
      "numOfAddr": 5, 
      "lonmax": 3.5546344523351934, 
      "latmin": 51.02669981971103
    }, 
    {
      "latmax": 51.075046718550176, 
      "name": "Korte Dosweg", 
      "lonmin": 3.5589890102122284, 
      "sanName": "kortedosweg", 
      "numOfAddr": 3, 
      "lonmax": 3.560119278577573, 
      "latmin": 51.074035373596786
    }, 
    {
      "latmax": 51.032809681437996, 
      "name": "Kortemunt", 
      "lonmin": 3.549966910621836, 
      "sanName": "kortemunt", 
      "numOfAddr": 7, 
      "lonmax": 3.550414224443367, 
      "latmin": 51.03219493160633
    }, 
    {
      "latmax": 51.08855211897927, 
      "name": "Kouterken", 
      "lonmin": 3.5319943442642563, 
      "sanName": "kouterken", 
      "numOfAddr": 24, 
      "lonmax": 3.5349114028470336, 
      "latmin": 51.08463848373526
    }, 
    {
      "latmax": 51.07692821962502, 
      "name": "Kouterslag", 
      "lonmin": 3.571991166696883, 
      "sanName": "kouterslag", 
      "numOfAddr": 31, 
      "lonmax": 3.5754105529112903, 
      "latmin": 51.07408946176555
    }, 
    {
      "latmax": 51.023338556434055, 
      "name": "Kouterstraat", 
      "lonmin": 3.548895094847755, 
      "sanName": "kouterstraat", 
      "numOfAddr": 10, 
      "lonmax": 3.5559039350105435, 
      "latmin": 51.01231815402292
    }, 
    {
      "latmax": 51.02506081476837, 
      "name": "Lagestraat", 
      "lonmin": 3.5561273403268365, 
      "sanName": "lagestraat", 
      "numOfAddr": 22, 
      "lonmax": 3.5622263289595613, 
      "latmin": 51.01950546543869
    }, 
    {
      "latmax": 51.057960103724035, 
      "name": "Landegemdorp", 
      "lonmin": 3.5718495319313113, 
      "sanName": "landegemdorp", 
      "numOfAddr": 29, 
      "lonmax": 3.573789721191104, 
      "latmin": 51.05620381937059
    }, 
    {
      "latmax": 51.04409262419223, 
      "name": "Landegemstraat", 
      "lonmin": 3.5579482279888817, 
      "sanName": "landegemstraat", 
      "numOfAddr": 65, 
      "lonmax": 3.570843480858912, 
      "latmin": 51.029442200127924
    }, 
    {
      "latmax": 51.032503368420926, 
      "name": "Langemunt", 
      "lonmin": 3.551618557227073, 
      "sanName": "langemunt", 
      "numOfAddr": 85, 
      "lonmax": 3.5574658556531626, 
      "latmin": 51.029629287191284
    }, 
    {
      "latmax": 51.07337624261561, 
      "name": "Langenakker", 
      "lonmin": 3.5793313683600894, 
      "sanName": "langenakker", 
      "numOfAddr": 9, 
      "lonmax": 3.594604017006477, 
      "latmin": 51.07137962074705
    }, 
    {
      "latmax": 51.06233770512056, 
      "name": "Leenwegel", 
      "lonmin": 3.555609056941492, 
      "sanName": "leenwegel", 
      "numOfAddr": 6, 
      "lonmax": 3.556861347312516, 
      "latmin": 51.060700170911794
    }, 
    {
      "latmax": 51.05686188074713, 
      "name": "Legekouter", 
      "lonmin": 3.5522975171328106, 
      "sanName": "legekouter", 
      "numOfAddr": 19, 
      "lonmax": 3.56185303617302, 
      "latmin": 51.046723352007874
    }, 
    {
      "latmax": 51.03741544485941, 
      "name": "Leo Lovaertstraat", 
      "lonmin": 3.5392142726240685, 
      "sanName": "leolovaertstraat", 
      "numOfAddr": 49, 
      "lonmax": 3.5431548705551448, 
      "latmin": 51.03540553695903
    }, 
    {
      "latmax": 51.0775259550474, 
      "name": "Lindestraat", 
      "lonmin": 3.5357456252120834, 
      "sanName": "lindestraat", 
      "numOfAddr": 12, 
      "lonmax": 3.5376048513950824, 
      "latmin": 51.077003337841994
    }, 
    {
      "latmax": 51.0890306914611, 
      "name": "Lostraat", 
      "lonmin": 3.581139951837359, 
      "sanName": "lostraat", 
      "numOfAddr": 69, 
      "lonmax": 3.5969146605723057, 
      "latmin": 51.07942876402334
    }, 
    {
      "latmax": 51.065957689430974, 
      "name": "Maalderijstraat", 
      "lonmin": 3.5655561652888093, 
      "sanName": "maalderijstraat", 
      "numOfAddr": 13, 
      "lonmax": 3.5681569845014898, 
      "latmin": 51.06058843279782
    }, 
    {
      "latmax": 51.03542690270116, 
      "name": "Marie Compar\u0082straat", 
      "lonmin": 3.5437912747231204, 
      "sanName": "mariecomparstraat", 
      "numOfAddr": 24, 
      "lonmax": 3.547114067367933, 
      "latmin": 51.034174876658646
    }, 
    {
      "latmax": 51.03351501914457, 
      "name": "Markt", 
      "lonmin": 3.5489887850191066, 
      "sanName": "markt", 
      "numOfAddr": 17, 
      "lonmax": 3.550313725556472, 
      "latmin": 51.032308853123716
    }, 
    {
      "latmax": 51.02351045318721, 
      "name": "Meerskant", 
      "lonmin": 3.5500436325324274, 
      "sanName": "meerskant", 
      "numOfAddr": 4, 
      "lonmax": 3.5526651016216118, 
      "latmin": 51.02209785090362
    }, 
    {
      "latmax": 51.08364048103474, 
      "name": "Meersstraat", 
      "lonmin": 3.5899837639242724, 
      "sanName": "meersstraat", 
      "numOfAddr": 6, 
      "lonmax": 3.592616782790199, 
      "latmin": 51.08253592432519
    }, 
    {
      "latmax": 51.03054399264135, 
      "name": "Meigemstraat", 
      "lonmin": 3.540848491228091, 
      "sanName": "meigemstraat", 
      "numOfAddr": 43, 
      "lonmax": 3.544794759669928, 
      "latmin": 51.02310996546867
    }, 
    {
      "latmax": 51.01981808796967, 
      "name": "Meirstraat", 
      "lonmin": 3.5552237432882405, 
      "sanName": "meirstraat", 
      "numOfAddr": 31, 
      "lonmax": 3.5674767994370526, 
      "latmin": 51.01209382351743
    }, 
    {
      "latmax": 51.08760698389336, 
      "name": "Melderenstraat", 
      "lonmin": 3.568464004786684, 
      "sanName": "melderenstraat", 
      "numOfAddr": 6, 
      "lonmax": 3.570028429337912, 
      "latmin": 51.08702055802909
    }, 
    {
      "latmax": 51.07658931842074, 
      "name": "Melkerijstraat", 
      "lonmin": 3.532601775376101, 
      "sanName": "melkerijstraat", 
      "numOfAddr": 28, 
      "lonmax": 3.534892299451384, 
      "latmin": 51.07406026579583
    }, 
    {
      "latmax": 51.079732505032645, 
      "name": "Merendreedorp", 
      "lonmin": 3.575597212621564, 
      "sanName": "merendreedorp", 
      "numOfAddr": 69, 
      "lonmax": 3.5815981196462188, 
      "latmin": 51.07696159206911
    }, 
    {
      "latmax": 51.07371665074563, 
      "name": "Merendreestraat", 
      "lonmin": 3.536219594278903, 
      "sanName": "merendreestraat", 
      "numOfAddr": 26, 
      "lonmax": 3.555185352537544, 
      "latmin": 51.07041099369599
    }, 
    {
      "latmax": 51.037027760185914, 
      "name": "Moerstraat", 
      "lonmin": 3.5728694450586884, 
      "sanName": "moerstraat", 
      "numOfAddr": 17, 
      "lonmax": 3.584374457280629, 
      "latmin": 51.0218970431833
    }, 
    {
      "latmax": 51.0808785438886, 
      "name": "Molenkouterslag", 
      "lonmin": 3.5685910081719934, 
      "sanName": "molenkouterslag", 
      "numOfAddr": 34, 
      "lonmax": 3.5717907368510247, 
      "latmin": 51.07404477637203
    }, 
    {
      "latmax": 51.07284528093941, 
      "name": "Molenstraat", 
      "lonmin": 3.532607085188454, 
      "sanName": "molenstraat", 
      "numOfAddr": 27, 
      "lonmax": 3.53464585063041, 
      "latmin": 51.07093872689933
    }, 
    {
      "latmax": 51.06657695836055, 
      "name": "Molenwal", 
      "lonmin": 3.574102909921469, 
      "sanName": "molenwal", 
      "numOfAddr": 11, 
      "lonmax": 3.575171989925469, 
      "latmin": 51.06562501337572
    }, 
    {
      "latmax": 51.05528697807575, 
      "name": "Moorstraat", 
      "lonmin": 3.579388575065259, 
      "sanName": "moorstraat", 
      "numOfAddr": 36, 
      "lonmax": 3.5910023948131693, 
      "latmin": 51.04019262836109
    }, 
    {
      "latmax": 51.03630261484184, 
      "name": "Mortierstraat", 
      "lonmin": 3.499717671519121, 
      "sanName": "mortierstraat", 
      "numOfAddr": 18, 
      "lonmax": 3.515516633973445, 
      "latmin": 51.03021772600718
    }, 
    {
      "latmax": 51.0679728595667, 
      "name": "Muizendale", 
      "lonmin": 3.5744138607533893, 
      "sanName": "muizendale", 
      "numOfAddr": 18, 
      "lonmax": 3.5768534053789183, 
      "latmin": 51.06679675029811
    }, 
    {
      "latmax": 51.06389533690754, 
      "name": "Musschaverstraat", 
      "lonmin": 3.5955588184754674, 
      "sanName": "musschaverstraat", 
      "numOfAddr": 43, 
      "lonmax": 3.608577667990822, 
      "latmin": 51.05623340475434
    }, 
    {
      "latmax": 51.072977160360026, 
      "name": "Nevelestraat", 
      "lonmin": 3.535158713102808, 
      "sanName": "nevelestraat", 
      "numOfAddr": 36, 
      "lonmax": 3.5371472756096516, 
      "latmin": 51.0653327845806
    }, 
    {
      "latmax": 51.02903791424798, 
      "name": "Nieuwe Kerkstraat", 
      "lonmin": 3.522556905286718, 
      "sanName": "nieuwekerkstraat", 
      "numOfAddr": 11, 
      "lonmax": 3.530855215127523, 
      "latmin": 51.02571965470441
    }, 
    {
      "latmax": 51.06889684765331, 
      "name": "Nieuwetuinstraat", 
      "lonmin": 3.527374587518606, 
      "sanName": "nieuwetuinstraat", 
      "numOfAddr": 1, 
      "lonmax": 3.527374587518606, 
      "latmin": 51.06889684765331
    }, 
    {
      "latmax": 51.072408160952314, 
      "name": "Olmweg", 
      "lonmin": 3.5663686602272016, 
      "sanName": "olmweg", 
      "numOfAddr": 10, 
      "lonmax": 3.56735791969864, 
      "latmin": 51.068785991275796
    }, 
    {
      "latmax": 51.07182962241149, 
      "name": "Ommegangstraat", 
      "lonmin": 3.531332412358862, 
      "sanName": "ommegangstraat", 
      "numOfAddr": 15, 
      "lonmax": 3.5336743086669538, 
      "latmin": 51.071314387325884
    }, 
    {
      "latmax": 51.05121282220933, 
      "name": "Oossekouter", 
      "lonmin": 3.5510239288595233, 
      "sanName": "oossekouter", 
      "numOfAddr": 56, 
      "lonmax": 3.563311820647181, 
      "latmin": 51.03784523984147
    }, 
    {
      "latmax": 51.08647027971633, 
      "name": "Oostergemstraat", 
      "lonmin": 3.5856099969804385, 
      "sanName": "oostergemstraat", 
      "numOfAddr": 11, 
      "lonmax": 3.5891091851251415, 
      "latmin": 51.08159254909783
    }, 
    {
      "latmax": 51.07670186794968, 
      "name": "Ooststraat", 
      "lonmin": 3.595291059659585, 
      "sanName": "ooststraat", 
      "numOfAddr": 2, 
      "lonmax": 3.6062698591032833, 
      "latmin": 51.074365362805175
    }, 
    {
      "latmax": 51.070002632653114, 
      "name": "Oude Gentweg", 
      "lonmin": 3.567945698495497, 
      "sanName": "oudegentweg", 
      "numOfAddr": 1, 
      "lonmax": 3.567945698495497, 
      "latmin": 51.070002632653114
    }, 
    {
      "latmax": 51.02567292052754, 
      "name": "Oudehofstraat", 
      "lonmin": 3.556228949905052, 
      "sanName": "oudehofstraat", 
      "numOfAddr": 63, 
      "lonmax": 3.5604502405786205, 
      "latmin": 51.0243400404219
    }, 
    {
      "latmax": 51.033536387379854, 
      "name": "Oude Kerkstraat", 
      "lonmin": 3.514662448141186, 
      "sanName": "oudekerkstraat", 
      "numOfAddr": 13, 
      "lonmax": 3.5197825238246256, 
      "latmin": 51.029700916387895
    }, 
    {
      "latmax": 51.072814924180115, 
      "name": "Overbroekkouterslag", 
      "lonmin": 3.552868455966346, 
      "sanName": "overbroekkouterslag", 
      "numOfAddr": 19, 
      "lonmax": 3.564625641759192, 
      "latmin": 51.07040432819466
    }, 
    {
      "latmax": 51.07225537753983, 
      "name": "Overbroekkouterwegel", 
      "lonmin": 3.565486635760422, 
      "sanName": "overbroekkouterwegel", 
      "numOfAddr": 1, 
      "lonmax": 3.565486635760422, 
      "latmin": 51.07225537753983
    }, 
    {
      "latmax": 51.036058316377954, 
      "name": "Paepestraat", 
      "lonmin": 3.5172392757185733, 
      "sanName": "paepestraat", 
      "numOfAddr": 13, 
      "lonmax": 3.521484820227221, 
      "latmin": 51.03338131208878
    }, 
    {
      "latmax": 51.070068388864776, 
      "name": "Palestraat", 
      "lonmin": 3.5396664323177105, 
      "sanName": "palestraat", 
      "numOfAddr": 26, 
      "lonmax": 3.548838183876022, 
      "latmin": 51.06596488445686
    }, 
    {
      "latmax": 51.05577315194907, 
      "name": "Peperhol", 
      "lonmin": 3.5303381846615025, 
      "sanName": "peperhol", 
      "numOfAddr": 13, 
      "lonmax": 3.53737670208408, 
      "latmin": 51.05205872055052
    }, 
    {
      "latmax": 51.09373163788908, 
      "name": "Petendonkstraat", 
      "lonmin": 3.569435092200968, 
      "sanName": "petendonkstraat", 
      "numOfAddr": 8, 
      "lonmax": 3.5719203073418533, 
      "latmin": 51.091946048384095
    }, 
    {
      "latmax": 51.03851942468359, 
      "name": "Poekestraat", 
      "lonmin": 3.5008729148096096, 
      "sanName": "poekestraat", 
      "numOfAddr": 38, 
      "lonmax": 3.5157799023923486, 
      "latmin": 51.03388376311662
    }, 
    {
      "latmax": 51.06208222851894, 
      "name": "Poeldendries", 
      "lonmin": 3.575366258719443, 
      "sanName": "poeldendries", 
      "numOfAddr": 66, 
      "lonmax": 3.581981865669631, 
      "latmin": 51.05705018627133
    }, 
    {
      "latmax": 51.03414879672903, 
      "name": "Poeseledorp", 
      "lonmin": 3.5160034068724677, 
      "sanName": "poeseledorp", 
      "numOfAddr": 9, 
      "lonmax": 3.5176071375128055, 
      "latmin": 51.03333230232908
    }, 
    {
      "latmax": 51.036433096892175, 
      "name": "Poortakkerstraat", 
      "lonmin": 3.5698510923131086, 
      "sanName": "poortakkerstraat", 
      "numOfAddr": 6, 
      "lonmax": 3.5738800622485165, 
      "latmin": 51.03341612404433
    }, 
    {
      "latmax": 51.055075266506044, 
      "name": "Prosper Cocquytstraat", 
      "lonmin": 3.575505007411905, 
      "sanName": "prospercocquytstraat", 
      "numOfAddr": 130, 
      "lonmax": 3.5806817726201516, 
      "latmin": 51.05192624088724
    }, 
    {
      "latmax": 51.05492855051741, 
      "name": "Puttemeersstraat", 
      "lonmin": 3.5885397366737157, 
      "sanName": "puttemeersstraat", 
      "numOfAddr": 5, 
      "lonmax": 3.5974014404407595, 
      "latmin": 51.05331401060514
    }, 
    {
      "latmax": 51.07362742896616, 
      "name": "Reibroekstraat", 
      "lonmin": 3.5176466066613314, 
      "sanName": "reibroekstraat", 
      "numOfAddr": 87, 
      "lonmax": 3.5353466323949325, 
      "latmin": 51.070023793441045
    }, 
    {
      "latmax": 51.059018828424236, 
      "name": "Renaat de Rudderstraat", 
      "lonmin": 3.578535311540666, 
      "sanName": "renaatderudderstraat", 
      "numOfAddr": 58, 
      "lonmax": 3.593264156777515, 
      "latmin": 51.055410453203294
    }, 
    {
      "latmax": 51.068803978429216, 
      "name": "Rostraat", 
      "lonmin": 3.5350513943618838, 
      "sanName": "rostraat", 
      "numOfAddr": 44, 
      "lonmax": 3.5440188255739016, 
      "latmin": 51.06077355366561
    }, 
    {
      "latmax": 51.026858650512494, 
      "name": "Rysseveldstraat", 
      "lonmin": 3.563507854281449, 
      "sanName": "rysseveldstraat", 
      "numOfAddr": 8, 
      "lonmax": 3.5741458492397484, 
      "latmin": 51.023173543494345
    }, 
    {
      "latmax": 51.06072618569381, 
      "name": "Scheurestraat", 
      "lonmin": 3.5922335635241356, 
      "sanName": "scheurestraat", 
      "numOfAddr": 18, 
      "lonmax": 3.5981507962104944, 
      "latmin": 51.05779164751566
    }, 
    {
      "latmax": 51.02849911001064, 
      "name": "Spoelstraat", 
      "lonmin": 3.5136386976339242, 
      "sanName": "spoelstraat", 
      "numOfAddr": 7, 
      "lonmax": 3.522043799429346, 
      "latmin": 51.02207817898468
    }, 
    {
      "latmax": 51.06526580409456, 
      "name": "Spoorwegstraat", 
      "lonmin": 3.5749080059244696, 
      "sanName": "spoorwegstraat", 
      "numOfAddr": 6, 
      "lonmax": 3.575532147018216, 
      "latmin": 51.06509839564066
    }, 
    {
      "latmax": 51.069261679091646, 
      "name": "Stationsstraat", 
      "lonmin": 3.5730488068327633, 
      "sanName": "stationsstraat", 
      "numOfAddr": 151, 
      "lonmax": 3.5781520770598623, 
      "latmin": 51.05728647429647
    }, 
    {
      "latmax": 51.04538966697693, 
      "name": "Steenputstraat", 
      "lonmin": 3.5475815491454528, 
      "sanName": "steenputstraat", 
      "numOfAddr": 18, 
      "lonmax": 3.54983123796208, 
      "latmin": 51.03838660021478
    }, 
    {
      "latmax": 51.04103317151051, 
      "name": "Tempeliersstraat", 
      "lonmin": 3.570540548273936, 
      "sanName": "tempeliersstraat", 
      "numOfAddr": 7, 
      "lonmax": 3.5768059107821166, 
      "latmin": 51.03859939445286
    }, 
    {
      "latmax": 51.07582694750447, 
      "name": "Ter Kale", 
      "lonmin": 3.5745786200952265, 
      "sanName": "terkale", 
      "numOfAddr": 15, 
      "lonmax": 3.5756275812347567, 
      "latmin": 51.07472613089531
    }, 
    {
      "latmax": 51.04049636426078, 
      "name": "Ter Mote", 
      "lonmin": 3.540979836714218, 
      "sanName": "termote", 
      "numOfAddr": 16, 
      "lonmax": 3.543992695596371, 
      "latmin": 51.03901599998616
    }, 
    {
      "latmax": 51.056653965614714, 
      "name": "Ter Varent", 
      "lonmin": 3.581102968162036, 
      "sanName": "tervarent", 
      "numOfAddr": 59, 
      "lonmax": 3.5849393586190477, 
      "latmin": 51.053899480055286
    }, 
    {
      "latmax": 51.072873548465076, 
      "name": "Tien Gemeten", 
      "lonmin": 3.533985117713754, 
      "sanName": "tiengemeten", 
      "numOfAddr": 12, 
      "lonmax": 3.53518227175395, 
      "latmin": 51.072484854254945
    }, 
    {
      "latmax": 51.059205520056956, 
      "name": "Trekweg", 
      "lonmin": 3.567937647699973, 
      "sanName": "trekweg", 
      "numOfAddr": 6, 
      "lonmax": 3.568448429222817, 
      "latmin": 51.05772284843411
    }, 
    {
      "latmax": 51.05180413564688, 
      "name": "Vaart Links", 
      "lonmin": 3.5471933241472495, 
      "sanName": "vaartlinks", 
      "numOfAddr": 48, 
      "lonmax": 3.5657633463946294, 
      "latmin": 51.02590239987986
    }, 
    {
      "latmax": 51.043508779783586, 
      "name": "Vaart Rechts", 
      "lonmin": 3.5521821234663884, 
      "sanName": "vaartrechts", 
      "numOfAddr": 6, 
      "lonmax": 3.560325217782693, 
      "latmin": 51.032733719416456
    }, 
    {
      "latmax": 51.0901982945882, 
      "name": "Vaartstraat", 
      "lonmin": 3.525547156703395, 
      "sanName": "vaartstraat", 
      "numOfAddr": 40, 
      "lonmax": 3.535450231748098, 
      "latmin": 51.08053022390469
    }, 
    {
      "latmax": 51.085771238782854, 
      "name": "Valkenstraat", 
      "lonmin": 3.59113741190325, 
      "sanName": "valkenstraat", 
      "numOfAddr": 2, 
      "lonmax": 3.593276272353346, 
      "latmin": 51.0839132872213
    }, 
    {
      "latmax": 51.05580807651837, 
      "name": "Veldbloemlaan", 
      "lonmin": 3.5729177817955864, 
      "sanName": "veldbloemlaan", 
      "numOfAddr": 24, 
      "lonmax": 3.574783156851679, 
      "latmin": 51.05514493235022
    }, 
    {
      "latmax": 51.06023416922851, 
      "name": "Veldeken", 
      "lonmin": 3.510323752370352, 
      "sanName": "veldeken", 
      "numOfAddr": 58, 
      "lonmax": 3.5286355944232457, 
      "latmin": 51.04590892537488
    }, 
    {
      "latmax": 51.09428355913329, 
      "name": "Veldestraat", 
      "lonmin": 3.56883213091109, 
      "sanName": "veldestraat", 
      "numOfAddr": 142, 
      "lonmax": 3.578986755903554, 
      "latmin": 51.06930411034203
    }, 
    {
      "latmax": 51.079159094564346, 
      "name": "Ventwegel", 
      "lonmin": 3.572633152578902, 
      "sanName": "ventwegel", 
      "numOfAddr": 4, 
      "lonmax": 3.5735146243139897, 
      "latmin": 51.07792327405848
    }, 
    {
      "latmax": 51.04774793581212, 
      "name": "Vierboomstraat", 
      "lonmin": 3.5262242450476124, 
      "sanName": "vierboomstraat", 
      "numOfAddr": 27, 
      "lonmax": 3.5390461927775205, 
      "latmin": 51.03632544087545
    }, 
    {
      "latmax": 51.03557978408147, 
      "name": "Vlietje", 
      "lonmin": 3.5447430362620613, 
      "sanName": "vlietje", 
      "numOfAddr": 5, 
      "lonmax": 3.545356689437277, 
      "latmin": 51.03513157106592
    }, 
    {
      "latmax": 51.08192799314069, 
      "name": "Voordestraat", 
      "lonmin": 3.534924706425056, 
      "sanName": "voordestraat", 
      "numOfAddr": 25, 
      "lonmax": 3.553778870508825, 
      "latmin": 51.07238982368091
    }, 
    {
      "latmax": 51.02950953754802, 
      "name": "Vosselaredorp", 
      "lonmin": 3.553192875023681, 
      "sanName": "vosselaredorp", 
      "numOfAddr": 86, 
      "lonmax": 3.5572990324972134, 
      "latmin": 51.02349247941062
    }, 
    {
      "latmax": 51.05630530011957, 
      "name": "Vosselarestraat", 
      "lonmin": 3.568431073519024, 
      "sanName": "vosselarestraat", 
      "numOfAddr": 72, 
      "lonmax": 3.5730776528443715, 
      "latmin": 51.0468991899538
    }, 
    {
      "latmax": 51.034823223671225, 
      "name": "Wallenbulk", 
      "lonmin": 3.5435516747100158, 
      "sanName": "wallenbulk", 
      "numOfAddr": 17, 
      "lonmax": 3.545443046241455, 
      "latmin": 51.03359341283399
    }, 
    {
      "latmax": 51.08523884765192, 
      "name": "Warandestraat", 
      "lonmin": 3.5121810503686945, 
      "sanName": "warandestraat", 
      "numOfAddr": 41, 
      "lonmax": 3.5298865527742045, 
      "latmin": 51.07786299423386
    }, 
    {
      "latmax": 51.05537968912919, 
      "name": "Westhoek", 
      "lonmin": 3.5705745989076676, 
      "sanName": "westhoek", 
      "numOfAddr": 45, 
      "lonmax": 3.578533377661309, 
      "latmin": 51.04427513597251
    }, 
    {
      "latmax": 51.06877648504365, 
      "name": "Wildedreef", 
      "lonmin": 3.5784109561917075, 
      "sanName": "wildedreef", 
      "numOfAddr": 21, 
      "lonmax": 3.5955047386257086, 
      "latmin": 51.0603005296074
    }, 
    {
      "latmax": 51.060872416475874, 
      "name": "Wildekouter", 
      "lonmin": 3.589765003196187, 
      "sanName": "wildekouter", 
      "numOfAddr": 26, 
      "lonmax": 3.6070317001406935, 
      "latmin": 51.05297857231773
    }, 
    {
      "latmax": 51.083835908357344, 
      "name": "Winkelputstraat", 
      "lonmin": 3.5637255220252873, 
      "sanName": "winkelputstraat", 
      "numOfAddr": 6, 
      "lonmax": 3.5655714753413656, 
      "latmin": 51.0815052512346
    }, 
    {
      "latmax": 51.06006559326158, 
      "name": "Wulfhoek", 
      "lonmin": 3.5441534060408038, 
      "sanName": "wulfhoek", 
      "numOfAddr": 15, 
      "lonmax": 3.5575628635651846, 
      "latmin": 51.04785666155993
    }, 
    {
      "latmax": 51.072680167664934, 
      "name": "Zandestraat", 
      "lonmin": 3.5363468973125247, 
      "sanName": "zandestraat", 
      "numOfAddr": 56, 
      "lonmax": 3.5459992005363103, 
      "latmin": 51.069211985864136
    }, 
    {
      "latmax": 51.03326039396991, 
      "name": "Zeistraat", 
      "lonmin": 3.5543955354545727, 
      "sanName": "zeistraat", 
      "numOfAddr": 37, 
      "lonmax": 3.556262673957901, 
      "latmin": 51.03127065143681
    }, 
    {
      "latmax": 51.09744381078265, 
      "name": "Zomergemstraat", 
      "lonmin": 3.571797070826962, 
      "sanName": "zomergemstraat", 
      "numOfAddr": 15, 
      "lonmax": 3.5725008704839603, 
      "latmin": 51.0953992216521
    }, 
    {
      "latmax": 51.067166681046736, 
      "name": "Zoutweg", 
      "lonmin": 3.577376028758329, 
      "sanName": "zoutweg", 
      "numOfAddr": 9, 
      "lonmax": 3.578974989174284, 
      "latmin": 51.06495801902124
    }
  ]
}