{
  "streets": [
    {
      "latmax": 50.97344632149708, 
      "name": "Aalmoezenijestraat", 
      "lonmin": 3.792064619739669, 
      "sanName": "aalmoezenijestraat", 
      "numOfAddr": 76, 
      "lonmax": 3.8021648799105385, 
      "latmin": 50.969723625313556
    }, 
    {
      "latmax": 50.94842673218747, 
      "name": "Aardeweg", 
      "lonmin": 3.7820320116867765, 
      "sanName": "aardeweg", 
      "numOfAddr": 2, 
      "lonmax": 3.783943487025394, 
      "latmin": 50.94823047675255
    }, 
    {
      "latmax": 50.939836074050184, 
      "name": "Acacialaan", 
      "lonmin": 3.7822972640125174, 
      "sanName": "acacialaan", 
      "numOfAddr": 16, 
      "lonmax": 3.7846232427312425, 
      "latmin": 50.93923498087916
    }, 
    {
      "latmax": 50.95240255347028, 
      "name": "Achterdries", 
      "lonmin": 3.7980554228976757, 
      "sanName": "achterdries", 
      "numOfAddr": 53, 
      "lonmax": 3.802968525699387, 
      "latmin": 50.9481357826156
    }, 
    {
      "latmax": 50.9118412257545, 
      "name": "Apostelstraat", 
      "lonmin": 3.8026170612522336, 
      "sanName": "apostelstraat", 
      "numOfAddr": 10, 
      "lonmax": 3.8088939615607087, 
      "latmin": 50.90800959880512
    }, 
    {
      "latmax": 50.968354560853655, 
      "name": "Bakkerstraat", 
      "lonmin": 3.7871020332313527, 
      "sanName": "bakkerstraat", 
      "numOfAddr": 51, 
      "lonmax": 3.793033884080149, 
      "latmin": 50.964836877218524
    }, 
    {
      "latmax": 50.925851400157484, 
      "name": "Balegemstraat", 
      "lonmin": 3.7902072081328657, 
      "sanName": "balegemstraat", 
      "numOfAddr": 33, 
      "lonmax": 3.79206349616642, 
      "latmin": 50.92433501096747
    }, 
    {
      "latmax": 50.95754320150166, 
      "name": "Bavegemstraat", 
      "lonmin": 3.828545497988098, 
      "sanName": "bavegemstraat", 
      "numOfAddr": 54, 
      "lonmax": 3.840717154925809, 
      "latmin": 50.95138856995227
    }, 
    {
      "latmax": 50.95767013358821, 
      "name": "Beekstraat", 
      "lonmin": 3.7814152425038885, 
      "sanName": "beekstraat", 
      "numOfAddr": 4, 
      "lonmax": 3.781875881004138, 
      "latmin": 50.95759119602622
    }, 
    {
      "latmax": 50.93713752844983, 
      "name": "Begijnenweide", 
      "lonmin": 3.769403456382116, 
      "sanName": "begijnenweide", 
      "numOfAddr": 30, 
      "lonmax": 3.77153243041201, 
      "latmin": 50.93591919599745
    }, 
    {
      "latmax": 50.9225119302141, 
      "name": "Berg", 
      "lonmin": 3.798696752253626, 
      "sanName": "berg", 
      "numOfAddr": 62, 
      "lonmax": 3.8169740054978694, 
      "latmin": 50.920521000079596
    }, 
    {
      "latmax": 50.94095807475497, 
      "name": "Berkenlaan", 
      "lonmin": 3.7809665001550785, 
      "sanName": "berkenlaan", 
      "numOfAddr": 22, 
      "lonmax": 3.7840821568077896, 
      "latmin": 50.94016192132585
    }, 
    {
      "latmax": 50.941931879689676, 
      "name": "Beukenlaan", 
      "lonmin": 3.7798164646389605, 
      "sanName": "beukenlaan", 
      "numOfAddr": 7, 
      "lonmax": 3.7805036542391037, 
      "latmin": 50.94051698886768
    }, 
    {
      "latmax": 50.90990990084352, 
      "name": "Bierman", 
      "lonmin": 3.789011594221366, 
      "sanName": "bierman", 
      "numOfAddr": 55, 
      "lonmax": 3.7952054837879348, 
      "latmin": 50.90279209569599
    }, 
    {
      "latmax": 50.934930838666816, 
      "name": "Binnenweg", 
      "lonmin": 3.752823993265553, 
      "sanName": "binnenweg", 
      "numOfAddr": 3, 
      "lonmax": 3.7535553157603956, 
      "latmin": 50.93437083838536
    }, 
    {
      "latmax": 50.94534865688291, 
      "name": "Boekhoutstraat", 
      "lonmin": 3.826457691117597, 
      "sanName": "boekhoutstraat", 
      "numOfAddr": 17, 
      "lonmax": 3.8484321598112228, 
      "latmin": 50.939054873974555
    }, 
    {
      "latmax": 50.91053679277328, 
      "name": "Boerestraat", 
      "lonmin": 3.7954919194562047, 
      "sanName": "boerestraat", 
      "numOfAddr": 45, 
      "lonmax": 3.80268856519304, 
      "latmin": 50.90147083854176
    }, 
    {
      "latmax": 50.963976618026926, 
      "name": "Boonakker", 
      "lonmin": 3.7986002124604097, 
      "sanName": "boonakker", 
      "numOfAddr": 2, 
      "lonmax": 3.799243425176927, 
      "latmin": 50.959656760298465
    }, 
    {
      "latmax": 50.974340955369385, 
      "name": "Bosstraat", 
      "lonmin": 3.816309538111079, 
      "sanName": "bosstraat", 
      "numOfAddr": 1, 
      "lonmax": 3.816309538111079, 
      "latmin": 50.974340955369385
    }, 
    {
      "latmax": 50.934556477434825, 
      "name": "Boterbloemstraat", 
      "lonmin": 3.7745952868529415, 
      "sanName": "boterbloemstraat", 
      "numOfAddr": 9, 
      "lonmax": 3.7757141853277787, 
      "latmin": 50.93416695631431
    }, 
    {
      "latmax": 50.95703106917248, 
      "name": "Boterhoek", 
      "lonmin": 3.7564990762125308, 
      "sanName": "boterhoek", 
      "numOfAddr": 8, 
      "lonmax": 3.767941938412873, 
      "latmin": 50.95276073269413
    }, 
    {
      "latmax": 50.92981734172056, 
      "name": "Botsewegel", 
      "lonmin": 3.746363471131805, 
      "sanName": "botsewegel", 
      "numOfAddr": 3, 
      "lonmax": 3.752336977068693, 
      "latmin": 50.9280465747579
    }, 
    {
      "latmax": 50.902731203474346, 
      "name": "Bottelweg", 
      "lonmin": 3.7928800167384007, 
      "sanName": "bottelweg", 
      "numOfAddr": 3, 
      "lonmax": 3.79400262299285, 
      "latmin": 50.90232953651686
    }, 
    {
      "latmax": 50.973703744599355, 
      "name": "Brielstraat", 
      "lonmin": 3.810511964571903, 
      "sanName": "brielstraat", 
      "numOfAddr": 63, 
      "lonmax": 3.8152213071205883, 
      "latmin": 50.97047668406068
    }, 
    {
      "latmax": 50.91695322096244, 
      "name": "Broek", 
      "lonmin": 3.8001503454078773, 
      "sanName": "broek", 
      "numOfAddr": 48, 
      "lonmax": 3.811863831262061, 
      "latmin": 50.90985405278725
    }, 
    {
      "latmax": 50.91522878751094, 
      "name": "Cijnsweg", 
      "lonmin": 3.778636254710523, 
      "sanName": "cijnsweg", 
      "numOfAddr": 7, 
      "lonmax": 3.781604258546084, 
      "latmin": 50.91301274988223
    }, 
    {
      "latmax": 50.94267765212468, 
      "name": "Dennenlaan", 
      "lonmin": 3.778561394859516, 
      "sanName": "dennenlaan", 
      "numOfAddr": 31, 
      "lonmax": 3.7826670937173934, 
      "latmin": 50.9408372853149
    }, 
    {
      "latmax": 50.92185969612318, 
      "name": "Diepestraat", 
      "lonmin": 3.7998345391283594, 
      "sanName": "diepestraat", 
      "numOfAddr": 10, 
      "lonmax": 3.8074392545302143, 
      "latmin": 50.9156130566693
    }, 
    {
      "latmax": 50.9481250970647, 
      "name": "Dorp", 
      "lonmin": 3.801275953804435, 
      "sanName": "dorp", 
      "numOfAddr": 74, 
      "lonmax": 3.8077131745707975, 
      "latmin": 50.94411539040321
    }, 
    {
      "latmax": 50.945913892606626, 
      "name": "Dreef", 
      "lonmin": 3.7820363507291495, 
      "sanName": "dreef", 
      "numOfAddr": 44, 
      "lonmax": 3.786621288510905, 
      "latmin": 50.93853887799801
    }, 
    {
      "latmax": 50.92494827297453, 
      "name": "Driesstraat", 
      "lonmin": 3.7826253880812346, 
      "sanName": "driesstraat", 
      "numOfAddr": 29, 
      "lonmax": 3.7859045402396228, 
      "latmin": 50.920661343165385
    }, 
    {
      "latmax": 50.94752953297143, 
      "name": "Drooghout", 
      "lonmin": 3.76830829256217, 
      "sanName": "drooghout", 
      "numOfAddr": 3, 
      "lonmax": 3.7704856094760224, 
      "latmin": 50.94501936347489
    }, 
    {
      "latmax": 50.93043313895901, 
      "name": "Duivelskapelweg", 
      "lonmin": 3.789397599836402, 
      "sanName": "duivelskapelweg", 
      "numOfAddr": 2, 
      "lonmax": 3.7976456014173445, 
      "latmin": 50.93019126028469
    }, 
    {
      "latmax": 50.947468324483104, 
      "name": "Eendenweg", 
      "lonmin": 3.8116235513845904, 
      "sanName": "eendenweg", 
      "numOfAddr": 7, 
      "lonmax": 3.812574736990121, 
      "latmin": 50.946898918993554
    }, 
    {
      "latmax": 50.971303289461325, 
      "name": "Eksterstraat", 
      "lonmin": 3.8121339942896526, 
      "sanName": "eksterstraat", 
      "numOfAddr": 3, 
      "lonmax": 3.812453388886409, 
      "latmin": 50.97100257420914
    }, 
    {
      "latmax": 50.929221579121176, 
      "name": "Ellemeers", 
      "lonmin": 3.7565499276913417, 
      "sanName": "ellemeers", 
      "numOfAddr": 3, 
      "lonmax": 3.7571583067425856, 
      "latmin": 50.92902607383424
    }, 
    {
      "latmax": 50.94016906424022, 
      "name": "Esdoornlaan", 
      "lonmin": 3.7773858115640735, 
      "sanName": "esdoornlaan", 
      "numOfAddr": 46, 
      "lonmax": 3.7807316579226677, 
      "latmin": 50.938290510888685
    }, 
    {
      "latmax": 50.91149968504459, 
      "name": "Evelandweg", 
      "lonmin": 3.7830718915412906, 
      "sanName": "evelandweg", 
      "numOfAddr": 18, 
      "lonmax": 3.7910687530928118, 
      "latmin": 50.907894967090854
    }, 
    {
      "latmax": 50.948483055280434, 
      "name": "Fazantenstraat", 
      "lonmin": 3.810274169598315, 
      "sanName": "fazantenstraat", 
      "numOfAddr": 9, 
      "lonmax": 3.8114100330777454, 
      "latmin": 50.947055546921156
    }, 
    {
      "latmax": 50.92821772874892, 
      "name": "Frankenbos", 
      "lonmin": 3.764610289846008, 
      "sanName": "frankenbos", 
      "numOfAddr": 6, 
      "lonmax": 3.7814835614984106, 
      "latmin": 50.916412283455
    }, 
    {
      "latmax": 50.9366810718589, 
      "name": "Gaverse steenweg", 
      "lonmin": 2.306689562140502, 
      "sanName": "gaversesteenweg", 
      "numOfAddr": 141, 
      "lonmax": 3.7715367017181243, 
      "latmin": 49.293335165093566
    }, 
    {
      "latmax": 50.97302684317269, 
      "name": "Geraardsbergse steenweg", 
      "lonmin": 3.8035324238193655, 
      "sanName": "geraardsbergsesteenweg", 
      "numOfAddr": 309, 
      "lonmax": 3.820761462537061, 
      "latmin": 50.91020468034584
    }, 
    {
      "latmax": 50.97053628656434, 
      "name": "Gijzenzelestraat", 
      "lonmin": 3.816283949677813, 
      "sanName": "gijzenzelestraat", 
      "numOfAddr": 34, 
      "lonmax": 3.825470367209144, 
      "latmin": 50.963245406814
    }, 
    {
      "latmax": 50.95331357051785, 
      "name": "Ginstberg", 
      "lonmin": 3.782860531881278, 
      "sanName": "ginstberg", 
      "numOfAddr": 12, 
      "lonmax": 3.7859856680970956, 
      "latmin": 50.951968607706746
    }, 
    {
      "latmax": 50.924058606035715, 
      "name": "Gootje", 
      "lonmin": 3.791562176939321, 
      "sanName": "gootje", 
      "numOfAddr": 94, 
      "lonmax": 3.796272384362303, 
      "latmin": 50.91786459959575
    }, 
    {
      "latmax": 50.9674459274281, 
      "name": "Gravelos", 
      "lonmin": 3.777401516602931, 
      "sanName": "gravelos", 
      "numOfAddr": 4, 
      "lonmax": 3.7819130015575126, 
      "latmin": 50.9650181412673
    }, 
    {
      "latmax": 50.95016535693745, 
      "name": "Groenweg", 
      "lonmin": 3.807332986235404, 
      "sanName": "groenweg", 
      "numOfAddr": 63, 
      "lonmax": 3.81174276569678, 
      "latmin": 50.945768532831224
    }, 
    {
      "latmax": 50.933795598335, 
      "name": "Hauwsestraat", 
      "lonmin": 3.7482523142793847, 
      "sanName": "hauwsestraat", 
      "numOfAddr": 66, 
      "lonmax": 3.756111653026104, 
      "latmin": 50.92243844667631
    }, 
    {
      "latmax": 50.946935538712424, 
      "name": "Hazenwegel", 
      "lonmin": 3.8098797126267647, 
      "sanName": "hazenwegel", 
      "numOfAddr": 17, 
      "lonmax": 3.813098017911961, 
      "latmin": 50.94621361634129
    }, 
    {
      "latmax": 50.93880116337715, 
      "name": "Heet", 
      "lonmin": 3.7554115845214486, 
      "sanName": "heet", 
      "numOfAddr": 24, 
      "lonmax": 3.7613132238753035, 
      "latmin": 50.93635374722929
    }, 
    {
      "latmax": 50.91514064288323, 
      "name": "Heide", 
      "lonmin": 3.8169343373925364, 
      "sanName": "heide", 
      "numOfAddr": 2, 
      "lonmax": 3.8182273440004084, 
      "latmin": 50.914902725622426
    }, 
    {
      "latmax": 50.951312282564274, 
      "name": "Heistraat", 
      "lonmin": 3.8230448607989547, 
      "sanName": "heistraat", 
      "numOfAddr": 94, 
      "lonmax": 3.8397435910795514, 
      "latmin": 50.94129530198142
    }, 
    {
      "latmax": 50.93648890512094, 
      "name": "Hemelstraat", 
      "lonmin": 3.7877462951593355, 
      "sanName": "hemelstraat", 
      "numOfAddr": 6, 
      "lonmax": 3.789709885294076, 
      "latmin": 50.93592429926185
    }, 
    {
      "latmax": 50.94034759982471, 
      "name": "Hettingen", 
      "lonmin": 3.7908422248971734, 
      "sanName": "hettingen", 
      "numOfAddr": 56, 
      "lonmax": 3.8102008994214254, 
      "latmin": 50.936374351965625
    }, 
    {
      "latmax": 50.93862731592693, 
      "name": "Hoeksken", 
      "lonmin": 3.7870471686197167, 
      "sanName": "hoeksken", 
      "numOfAddr": 11, 
      "lonmax": 3.789709510728858, 
      "latmin": 50.937931119477966
    }, 
    {
      "latmax": 50.96107909978889, 
      "name": "Hoek ter Hulst", 
      "lonmin": 3.7879897207703146, 
      "sanName": "hoekterhulst", 
      "numOfAddr": 23, 
      "lonmax": 3.7985060380452436, 
      "latmin": 50.95291071996951
    }, 
    {
      "latmax": 50.940715274687726, 
      "name": "Hofkouter", 
      "lonmin": 3.777585267963808, 
      "sanName": "hofkouter", 
      "numOfAddr": 31, 
      "lonmax": 3.783176540338971, 
      "latmin": 50.93882720953128
    }, 
    {
      "latmax": 50.945678751845925, 
      "name": "Hogeveld", 
      "lonmin": 3.788399691665827, 
      "sanName": "hogeveld", 
      "numOfAddr": 13, 
      "lonmax": 3.7920768074816444, 
      "latmin": 50.94366902222333
    }, 
    {
      "latmax": 50.97124239179744, 
      "name": "Hoogstraat", 
      "lonmin": 3.8179685316418945, 
      "sanName": "hoogstraat", 
      "numOfAddr": 32, 
      "lonmax": 3.821488001382166, 
      "latmin": 50.969359415968185
    }, 
    {
      "latmax": 50.92068321122592, 
      "name": "Houte", 
      "lonmin": 3.777501233724726, 
      "sanName": "houte", 
      "numOfAddr": 114, 
      "lonmax": 3.7933138196155483, 
      "latmin": 50.910194379085546
    }, 
    {
      "latmax": 50.944206700930614, 
      "name": "Houtemstraat", 
      "lonmin": 3.8193971418174097, 
      "sanName": "houtemstraat", 
      "numOfAddr": 68, 
      "lonmax": 3.8324153715484943, 
      "latmin": 50.9353299593842
    }, 
    {
      "latmax": 50.92230447941397, 
      "name": "Huckerstraat", 
      "lonmin": 3.7940790839509093, 
      "sanName": "huckerstraat", 
      "numOfAddr": 25, 
      "lonmax": 3.79843803858222, 
      "latmin": 50.92054872119284
    }, 
    {
      "latmax": 50.92342746228841, 
      "name": "Hundelgemse steenweg", 
      "lonmin": 3.729685586136131, 
      "sanName": "hundelgemsesteenweg", 
      "numOfAddr": 19, 
      "lonmax": 3.7312967308649676, 
      "latmin": 50.9206390308463
    }, 
    {
      "latmax": 50.93067907199241, 
      "name": "Issegem", 
      "lonmin": 3.7966919050627226, 
      "sanName": "issegem", 
      "numOfAddr": 32, 
      "lonmax": 3.807192810781761, 
      "latmin": 50.92724772738201
    }, 
    {
      "latmax": 50.91328832562506, 
      "name": "Kalle", 
      "lonmin": 3.7950116703304038, 
      "sanName": "kalle", 
      "numOfAddr": 29, 
      "lonmax": 3.7973203709337016, 
      "latmin": 50.91028346272655
    }, 
    {
      "latmax": 50.923525324871676, 
      "name": "Kapelweg", 
      "lonmin": 3.8062796935606347, 
      "sanName": "kapelweg", 
      "numOfAddr": 2, 
      "lonmax": 3.8080234548926426, 
      "latmin": 50.92308765706852
    }, 
    {
      "latmax": 50.95455609031788, 
      "name": "Kasteelstraat", 
      "lonmin": 3.77102184052002, 
      "sanName": "kasteelstraat", 
      "numOfAddr": 16, 
      "lonmax": 3.779126667483902, 
      "latmin": 50.9505484964558
    }, 
    {
      "latmax": 50.92498916083729, 
      "name": "Kattenberg", 
      "lonmin": 3.7921099732999353, 
      "sanName": "kattenberg", 
      "numOfAddr": 41, 
      "lonmax": 3.7978891402312414, 
      "latmin": 50.9230444187598
    }, 
    {
      "latmax": 50.92340170715519, 
      "name": "Keerken", 
      "lonmin": 3.730734498433304, 
      "sanName": "keerken", 
      "numOfAddr": 7, 
      "lonmax": 3.736433881178668, 
      "latmin": 50.918757024089864
    }, 
    {
      "latmax": 50.94587549606812, 
      "name": "Keiberg", 
      "lonmin": 3.807958942343374, 
      "sanName": "keiberg", 
      "numOfAddr": 53, 
      "lonmax": 3.815700511315361, 
      "latmin": 50.94403770002618
    }, 
    {
      "latmax": 50.97107403068987, 
      "name": "Kerkstraat", 
      "lonmin": 3.8112392733751235, 
      "sanName": "kerkstraat", 
      "numOfAddr": 39, 
      "lonmax": 3.816182374881016, 
      "latmin": 50.96750603393981
    }, 
    {
      "latmax": 50.934795751204064, 
      "name": "Klaproosstraat", 
      "lonmin": 3.7738463411469407, 
      "sanName": "klaproosstraat", 
      "numOfAddr": 10, 
      "lonmax": 3.7749782772264986, 
      "latmin": 50.933609157298115
    }, 
    {
      "latmax": 50.96725740443073, 
      "name": "Kleistraat", 
      "lonmin": 3.832210591147529, 
      "sanName": "kleistraat", 
      "numOfAddr": 25, 
      "lonmax": 3.8428599514859743, 
      "latmin": 50.96453277157223
    }, 
    {
      "latmax": 50.96243947300028, 
      "name": "Kloosterstraat", 
      "lonmin": 3.779807013130749, 
      "sanName": "kloosterstraat", 
      "numOfAddr": 34, 
      "lonmax": 3.7835108252284813, 
      "latmin": 50.9593763842095
    }, 
    {
      "latmax": 50.94046184224475, 
      "name": "Kluizestraat", 
      "lonmin": 3.7915344037967764, 
      "sanName": "kluizestraat", 
      "numOfAddr": 12, 
      "lonmax": 3.794401602540509, 
      "latmin": 50.93991983602434
    }, 
    {
      "latmax": 50.90848578910985, 
      "name": "Koekebroodstraat", 
      "lonmin": 3.8076091097708575, 
      "sanName": "koekebroodstraat", 
      "numOfAddr": 13, 
      "lonmax": 3.8089764979067944, 
      "latmin": 50.90444559167459
    }, 
    {
      "latmax": 50.93583081861728, 
      "name": "Korenbloemstraat", 
      "lonmin": 3.774943181848553, 
      "sanName": "korenbloemstraat", 
      "numOfAddr": 52, 
      "lonmax": 3.7771193866237756, 
      "latmin": 50.9346472804144
    }, 
    {
      "latmax": 50.952023548886594, 
      "name": "Korte Ambachtstraat", 
      "lonmin": 3.8135216705985684, 
      "sanName": "korteambachtstraat", 
      "numOfAddr": 7, 
      "lonmax": 3.814795555004816, 
      "latmin": 50.950917232993206
    }, 
    {
      "latmax": 50.97044079580357, 
      "name": "Korte Brielstraat", 
      "lonmin": 3.8155229896165754, 
      "sanName": "kortebrielstraat", 
      "numOfAddr": 5, 
      "lonmax": 3.8161369274963945, 
      "latmin": 50.97023269691917
    }, 
    {
      "latmax": 50.94303987614991, 
      "name": "Kouterweg", 
      "lonmin": 3.8023661345907582, 
      "sanName": "kouterweg", 
      "numOfAddr": 2, 
      "lonmax": 3.802389637207063, 
      "latmin": 50.94214103711425
    }, 
    {
      "latmax": 50.97113270612696, 
      "name": "Kraaienveldstraat", 
      "lonmin": 3.811818338385092, 
      "sanName": "kraaienveldstraat", 
      "numOfAddr": 27, 
      "lonmax": 3.8138456947361155, 
      "latmin": 50.96919879951845
    }, 
    {
      "latmax": 50.92705669107831, 
      "name": "Krekelberg", 
      "lonmin": 3.790931069113674, 
      "sanName": "krekelberg", 
      "numOfAddr": 23, 
      "lonmax": 3.7937914733821496, 
      "latmin": 50.925852068162754
    }, 
    {
      "latmax": 50.96579275566774, 
      "name": "Kwaadbeek", 
      "lonmin": 3.8111136489875648, 
      "sanName": "kwaadbeek", 
      "numOfAddr": 74, 
      "lonmax": 3.8313928683413367, 
      "latmin": 50.95531096517069
    }, 
    {
      "latmax": 50.95183729672299, 
      "name": "Lange Ambachtstraat", 
      "lonmin": 3.814140432709481, 
      "sanName": "langeambachtstraat", 
      "numOfAddr": 33, 
      "lonmax": 3.8172880446718342, 
      "latmin": 50.94699147792456
    }, 
    {
      "latmax": 50.93313082889206, 
      "name": "Lange Munte", 
      "lonmin": 3.751805630442002, 
      "sanName": "langemunte", 
      "numOfAddr": 103, 
      "lonmax": 3.77210540360101, 
      "latmin": 50.919370651096884
    }, 
    {
      "latmax": 50.97505206278347, 
      "name": "Langestraat", 
      "lonmin": 3.81939885428029, 
      "sanName": "langestraat", 
      "numOfAddr": 29, 
      "lonmax": 3.8294599926357114, 
      "latmin": 50.97218769448299
    }, 
    {
      "latmax": 50.927580497580664, 
      "name": "Leeg Bracht", 
      "lonmin": 3.8183182559829922, 
      "sanName": "leegbracht", 
      "numOfAddr": 36, 
      "lonmax": 3.8276558025604666, 
      "latmin": 50.9159406721537
    }, 
    {
      "latmax": 50.90507766829513, 
      "name": "Leenstraat", 
      "lonmin": 3.8068497931928755, 
      "sanName": "leenstraat", 
      "numOfAddr": 12, 
      "lonmax": 3.8121621131264685, 
      "latmin": 50.903173928718154
    }, 
    {
      "latmax": 50.92202003233314, 
      "name": "Leeuwerikstraat", 
      "lonmin": 3.798057675351725, 
      "sanName": "leeuwerikstraat", 
      "numOfAddr": 22, 
      "lonmax": 3.7999999467466417, 
      "latmin": 50.92064104388178
    }, 
    {
      "latmax": 50.97157886881786, 
      "name": "Lembergestraat", 
      "lonmin": 3.7866961758236037, 
      "sanName": "lembergestraat", 
      "numOfAddr": 45, 
      "lonmax": 3.7928852210777757, 
      "latmin": 50.968606426324534
    }, 
    {
      "latmax": 50.941200993088806, 
      "name": "Letterhoutemstraat", 
      "lonmin": 3.8433371793062725, 
      "sanName": "letterhoutemstraat", 
      "numOfAddr": 16, 
      "lonmax": 3.8475395552308216, 
      "latmin": 50.93930860618918
    }, 
    {
      "latmax": 50.92158896557744, 
      "name": "Lijsterstraat", 
      "lonmin": 3.7970890767219854, 
      "sanName": "lijsterstraat", 
      "numOfAddr": 15, 
      "lonmax": 3.798552987396949, 
      "latmin": 50.920618103398816
    }, 
    {
      "latmax": 50.942487349775334, 
      "name": "Lindenlaan", 
      "lonmin": 3.7771803223143423, 
      "sanName": "lindenlaan", 
      "numOfAddr": 27, 
      "lonmax": 3.781749740945439, 
      "latmin": 50.941120551400005
    }, 
    {
      "latmax": 50.96264767270741, 
      "name": "Lusbekestraat", 
      "lonmin": 3.7752889665036236, 
      "sanName": "lusbekestraat", 
      "numOfAddr": 25, 
      "lonmax": 3.7799121111434784, 
      "latmin": 50.96079451828718
    }, 
    {
      "latmax": 50.93843758479034, 
      "name": "Marktplein", 
      "lonmin": 3.783594082898667, 
      "sanName": "marktplein", 
      "numOfAddr": 12, 
      "lonmax": 3.785654855868747, 
      "latmin": 50.937543317586396
    }, 
    {
      "latmax": 50.937339325684086, 
      "name": "Marktwegel", 
      "lonmin": 3.783965811828882, 
      "sanName": "marktwegel", 
      "numOfAddr": 6, 
      "lonmax": 3.7849640195094865, 
      "latmin": 50.936962492229
    }, 
    {
      "latmax": 50.946401745067234, 
      "name": "Maudeweg", 
      "lonmin": 3.8350956399964353, 
      "sanName": "maudeweg", 
      "numOfAddr": 2, 
      "lonmax": 3.840019639232266, 
      "latmin": 50.944730172295905
    }, 
    {
      "latmax": 50.92256729829308, 
      "name": "Meerlaanstraat", 
      "lonmin": 3.78313955400074, 
      "sanName": "meerlaanstraat", 
      "numOfAddr": 61, 
      "lonmax": 3.7908039995627245, 
      "latmin": 50.918280607315495
    }, 
    {
      "latmax": 50.957588463757936, 
      "name": "Meerstraat", 
      "lonmin": 3.7885248648310133, 
      "sanName": "meerstraat", 
      "numOfAddr": 105, 
      "lonmax": 3.809056812634792, 
      "latmin": 50.94597242337619
    }, 
    {
      "latmax": 50.958061107819915, 
      "name": "Merebaaistraat", 
      "lonmin": 3.8189753862736384, 
      "sanName": "merebaaistraat", 
      "numOfAddr": 40, 
      "lonmax": 3.8216388271966446, 
      "latmin": 50.95579809822812
    }, 
    {
      "latmax": 50.92303858299022, 
      "name": "Molenbeekstraat", 
      "lonmin": 3.7908027602072605, 
      "sanName": "molenbeekstraat", 
      "numOfAddr": 9, 
      "lonmax": 3.792195410037971, 
      "latmin": 50.92168029063423
    }, 
    {
      "latmax": 50.92818121398102, 
      "name": "Molenstraat", 
      "lonmin": 3.7933383236227085, 
      "sanName": "molenstraat", 
      "numOfAddr": 102, 
      "lonmax": 3.8131418680431297, 
      "latmin": 50.92169276703453
    }, 
    {
      "latmax": 50.935352677039724, 
      "name": "Mollekens", 
      "lonmin": 3.7815872735519758, 
      "sanName": "mollekens", 
      "numOfAddr": 8, 
      "lonmax": 3.783254202252838, 
      "latmin": 50.931615362145074
    }, 
    {
      "latmax": 50.96306399534344, 
      "name": "Moortelbosstraat", 
      "lonmin": 3.8288768942165707, 
      "sanName": "moortelbosstraat", 
      "numOfAddr": 51, 
      "lonmax": 3.8331299853416243, 
      "latmin": 50.95777832367235
    }, 
    {
      "latmax": 50.95884236897653, 
      "name": "Moortselestraat", 
      "lonmin": 3.7791857543352934, 
      "sanName": "moortselestraat", 
      "numOfAddr": 69, 
      "lonmax": 3.781350922781176, 
      "latmin": 50.95375446750463
    }, 
    {
      "latmax": 50.92995742152207, 
      "name": "Morestraat", 
      "lonmin": 3.7548813885992893, 
      "sanName": "morestraat", 
      "numOfAddr": 32, 
      "lonmax": 3.7657295488083804, 
      "latmin": 50.92215468779472
    }, 
    {
      "latmax": 50.924897769461744, 
      "name": "Muldershof", 
      "lonmin": 3.789792422448858, 
      "sanName": "muldershof", 
      "numOfAddr": 6, 
      "lonmax": 3.7907705393115605, 
      "latmin": 50.92443173335673
    }, 
    {
      "latmax": 50.916777527866756, 
      "name": "Munckbos", 
      "lonmin": 3.7530391937262184, 
      "sanName": "munckbos", 
      "numOfAddr": 9, 
      "lonmax": 3.7550805439716513, 
      "latmin": 50.914823423105304
    }, 
    {
      "latmax": 50.936822085370736, 
      "name": "Muntestraat", 
      "lonmin": 3.752055114766472, 
      "sanName": "muntestraat", 
      "numOfAddr": 13, 
      "lonmax": 3.7557986761056354, 
      "latmin": 50.93553681209904
    }, 
    {
      "latmax": 50.96536185044826, 
      "name": "Mussestraat", 
      "lonmin": 3.8070987610578153, 
      "sanName": "mussestraat", 
      "numOfAddr": 4, 
      "lonmax": 3.8096137135257555, 
      "latmin": 50.963960976324444
    }, 
    {
      "latmax": 50.92135338875268, 
      "name": "Nachtegaalstraat", 
      "lonmin": 3.795979161456641, 
      "sanName": "nachtegaalstraat", 
      "numOfAddr": 9, 
      "lonmax": 3.797051148354421, 
      "latmin": 50.920767118382294
    }, 
    {
      "latmax": 50.92189503380018, 
      "name": "Nederstenberg", 
      "lonmin": 3.795282767215323, 
      "sanName": "nederstenberg", 
      "numOfAddr": 1, 
      "lonmax": 3.795282767215323, 
      "latmin": 50.92189503380018
    }, 
    {
      "latmax": 50.95432373944199, 
      "name": "Nieuwstraat", 
      "lonmin": 3.818075730903084, 
      "sanName": "nieuwstraat", 
      "numOfAddr": 16, 
      "lonmax": 3.820721225548902, 
      "latmin": 50.95150757366921
    }, 
    {
      "latmax": 50.939925605116954, 
      "name": "Oude Heirbaan", 
      "lonmin": 3.789690912356167, 
      "sanName": "oudeheirbaan", 
      "numOfAddr": 21, 
      "lonmax": 3.80015647304732, 
      "latmin": 50.930527107069565
    }, 
    {
      "latmax": 50.89927790716927, 
      "name": "Oudenaardse steenweg", 
      "lonmin": 3.806291771286201, 
      "sanName": "oudenaardsesteenweg", 
      "numOfAddr": 43, 
      "lonmax": 3.8167726718900004, 
      "latmin": 50.895137198829566
    }, 
    {
      "latmax": 50.961123110293954, 
      "name": "Oude Wetterse steenweg", 
      "lonmin": 3.809571844584137, 
      "sanName": "oudewettersesteenweg", 
      "numOfAddr": 14, 
      "lonmax": 3.815113798242536, 
      "latmin": 50.95721626707882
    }, 
    {
      "latmax": 50.96084125882291, 
      "name": "Palingstraat", 
      "lonmin": 3.7782639013138484, 
      "sanName": "palingstraat", 
      "numOfAddr": 11, 
      "lonmax": 3.77937709003611, 
      "latmin": 50.96009809647658
    }, 
    {
      "latmax": 50.9380914335098, 
      "name": "Pastoor de Vosstraat", 
      "lonmin": 3.7854581562505074, 
      "sanName": "pastoordevosstraat", 
      "numOfAddr": 55, 
      "lonmax": 3.7871179749502417, 
      "latmin": 50.931615022524085
    }, 
    {
      "latmax": 50.9256776041159, 
      "name": "Pastorieberg", 
      "lonmin": 3.787804998627752, 
      "sanName": "pastorieberg", 
      "numOfAddr": 13, 
      "lonmax": 3.789965452392522, 
      "latmin": 50.9246259324694
    }, 
    {
      "latmax": 50.94843932117158, 
      "name": "Patrijzenstraat", 
      "lonmin": 3.811813764701675, 
      "sanName": "patrijzenstraat", 
      "numOfAddr": 14, 
      "lonmax": 3.814505620735692, 
      "latmin": 50.94603615827463
    }, 
    {
      "latmax": 50.94041823567913, 
      "name": "Pelgrim", 
      "lonmin": 3.7857200092864898, 
      "sanName": "pelgrim", 
      "numOfAddr": 47, 
      "lonmax": 3.7902326748045105, 
      "latmin": 50.938464021976856
    }, 
    {
      "latmax": 50.938481502781606, 
      "name": "Peperstraat", 
      "lonmin": 3.7702608682644865, 
      "sanName": "peperstraat", 
      "numOfAddr": 52, 
      "lonmax": 3.774614419457516, 
      "latmin": 50.93648528985947
    }, 
    {
      "latmax": 50.91893381556734, 
      "name": "Pontslag", 
      "lonmin": 3.7750430823382386, 
      "sanName": "pontslag", 
      "numOfAddr": 12, 
      "lonmax": 3.7826837375617917, 
      "latmin": 50.91397477610444
    }, 
    {
      "latmax": 50.92562033451865, 
      "name": "Poststraat", 
      "lonmin": 3.786108977359249, 
      "sanName": "poststraat", 
      "numOfAddr": 84, 
      "lonmax": 3.792577421031866, 
      "latmin": 50.920417137901815
    }, 
    {
      "latmax": 50.954074395699266, 
      "name": "Rattepas", 
      "lonmin": 3.766569435803125, 
      "sanName": "rattepas", 
      "numOfAddr": 18, 
      "lonmax": 3.770126148767156, 
      "latmin": 50.9505611260084
    }, 
    {
      "latmax": 50.970509602710315, 
      "name": "Ravenstraat", 
      "lonmin": 3.8130890746774817, 
      "sanName": "ravenstraat", 
      "numOfAddr": 13, 
      "lonmax": 3.8141781702782, 
      "latmin": 50.96964217940432
    }, 
    {
      "latmax": 50.957863992290775, 
      "name": "Reigerstraat", 
      "lonmin": 3.8158133384851527, 
      "sanName": "reigerstraat", 
      "numOfAddr": 96, 
      "lonmax": 3.828542098546077, 
      "latmin": 50.95277814759621
    }, 
    {
      "latmax": 50.95885062465012, 
      "name": "Rollebaan", 
      "lonmin": 3.767794625348558, 
      "sanName": "rollebaan", 
      "numOfAddr": 95, 
      "lonmax": 3.7790047845246044, 
      "latmin": 50.95339148378996
    }, 
    {
      "latmax": 50.96851653802099, 
      "name": "Rooberg", 
      "lonmin": 3.793259607614771, 
      "sanName": "rooberg", 
      "numOfAddr": 56, 
      "lonmax": 3.803103510102426, 
      "latmin": 50.964492256112656
    }, 
    {
      "latmax": 50.91787352905145, 
      "name": "Rooigemstraat", 
      "lonmin": 3.7962944718347833, 
      "sanName": "rooigemstraat", 
      "numOfAddr": 69, 
      "lonmax": 3.799957708289536, 
      "latmin": 50.91268718210722
    }, 
    {
      "latmax": 50.955211995387366, 
      "name": "Roosbloemstraat", 
      "lonmin": 3.8190702882689522, 
      "sanName": "roosbloemstraat", 
      "numOfAddr": 31, 
      "lonmax": 3.8322330921207834, 
      "latmin": 50.94474786908766
    }, 
    {
      "latmax": 50.94278146189239, 
      "name": "Roosbroekstraat", 
      "lonmin": 3.757357119992352, 
      "sanName": "roosbroekstraat", 
      "numOfAddr": 13, 
      "lonmax": 3.7736029644566798, 
      "latmin": 50.93859467850878
    }, 
    {
      "latmax": 50.92251464012594, 
      "name": "Schaperstraat", 
      "lonmin": 3.734949609772724, 
      "sanName": "schaperstraat", 
      "numOfAddr": 15, 
      "lonmax": 3.7483009871048, 
      "latmin": 50.91890698494253
    }, 
    {
      "latmax": 50.958779978910734, 
      "name": "Schellartweg", 
      "lonmin": 3.783337445098642, 
      "sanName": "schellartweg", 
      "numOfAddr": 4, 
      "lonmax": 3.7851888607890234, 
      "latmin": 50.95738035757802
    }, 
    {
      "latmax": 50.94094685941474, 
      "name": "Scheurbroek", 
      "lonmin": 3.8206548158819387, 
      "sanName": "scheurbroek", 
      "numOfAddr": 27, 
      "lonmax": 3.8241842039585086, 
      "latmin": 50.937114208109534
    }, 
    {
      "latmax": 50.96894975158518, 
      "name": "Schildershoek", 
      "lonmin": 3.7895759446960824, 
      "sanName": "schildershoek", 
      "numOfAddr": 9, 
      "lonmax": 3.7905507961217704, 
      "latmin": 50.96796849413082
    }, 
    {
      "latmax": 50.972202030826516, 
      "name": "Schoolstraat", 
      "lonmin": 3.816633294747927, 
      "sanName": "schoolstraat", 
      "numOfAddr": 77, 
      "lonmax": 3.826477823495457, 
      "latmin": 50.97041741427192
    }, 
    {
      "latmax": 50.95943261353247, 
      "name": "Sint-Antoniusplein", 
      "lonmin": 3.77922632590098, 
      "sanName": "sintantoniusplein", 
      "numOfAddr": 15, 
      "lonmax": 3.7811304369768064, 
      "latmin": 50.958885587278836
    }, 
    {
      "latmax": 50.936687216988965, 
      "name": "Sint-Kristoffelstraat", 
      "lonmin": 3.7833413697290856, 
      "sanName": "sintkristoffelstraat", 
      "numOfAddr": 35, 
      "lonmax": 3.7863370076754364, 
      "latmin": 50.933260284122476
    }, 
    {
      "latmax": 50.9716645381495, 
      "name": "Sint-Lievensstraat", 
      "lonmin": 3.8089773449915247, 
      "sanName": "sintlievensstraat", 
      "numOfAddr": 51, 
      "lonmax": 3.8117990138652047, 
      "latmin": 50.96647593965277
    }, 
    {
      "latmax": 50.92829333855998, 
      "name": "Sint-Martensdries", 
      "lonmin": 3.7852275852140154, 
      "sanName": "sintmartensdries", 
      "numOfAddr": 30, 
      "lonmax": 3.7874391108408636, 
      "latmin": 50.92567053230025
    }, 
    {
      "latmax": 50.972261884352996, 
      "name": "Slangenwegel", 
      "lonmin": 3.799141614636392, 
      "sanName": "slangenwegel", 
      "numOfAddr": 5, 
      "lonmax": 3.80053733563155, 
      "latmin": 50.97045141236358
    }, 
    {
      "latmax": 50.925445826538585, 
      "name": "Smalleweg", 
      "lonmin": 3.7538563839626207, 
      "sanName": "smalleweg", 
      "numOfAddr": 4, 
      "lonmax": 3.7551824279753356, 
      "latmin": 50.92496920960633
    }, 
    {
      "latmax": 50.969959003602845, 
      "name": "Smeyersveld", 
      "lonmin": 3.7907516671187014, 
      "sanName": "smeyersveld", 
      "numOfAddr": 8, 
      "lonmax": 3.7914516819321826, 
      "latmin": 50.969133227552945
    }, 
    {
      "latmax": 50.945880474826005, 
      "name": "Smissenbroek", 
      "lonmin": 3.8138355657078087, 
      "sanName": "smissenbroek", 
      "numOfAddr": 2, 
      "lonmax": 3.8145252179599094, 
      "latmin": 50.94586302137988
    }, 
    {
      "latmax": 50.94611820789294, 
      "name": "Spiegel", 
      "lonmin": 3.7868111998452023, 
      "sanName": "spiegel", 
      "numOfAddr": 33, 
      "lonmax": 3.7898679634898986, 
      "latmin": 50.940500141806424
    }, 
    {
      "latmax": 50.920451116433526, 
      "name": "Spiegeldries", 
      "lonmin": 3.760963204774609, 
      "sanName": "spiegeldries", 
      "numOfAddr": 3, 
      "lonmax": 3.763249332302699, 
      "latmin": 50.92031649817189
    }, 
    {
      "latmax": 50.95566999128205, 
      "name": "Spoorwegwegel", 
      "lonmin": 3.7825376048228665, 
      "sanName": "spoorwegwegel", 
      "numOfAddr": 6, 
      "lonmax": 3.786634325209211, 
      "latmin": 50.95439856426327
    }, 
    {
      "latmax": 50.94100575575443, 
      "name": "Sportstraat", 
      "lonmin": 3.793441063459821, 
      "sanName": "sportstraat", 
      "numOfAddr": 2, 
      "lonmax": 3.7947081045740942, 
      "latmin": 50.94078369992566
    }, 
    {
      "latmax": 50.938300697805055, 
      "name": "Stationsstraat", 
      "lonmin": 3.7715716703285502, 
      "sanName": "stationsstraat", 
      "numOfAddr": 147, 
      "lonmax": 3.783757387562753, 
      "latmin": 50.933335558735095
    }, 
    {
      "latmax": 50.95528341383259, 
      "name": "Steenstraat", 
      "lonmin": 3.8425896499171994, 
      "sanName": "steenstraat", 
      "numOfAddr": 5, 
      "lonmax": 3.845859506651699, 
      "latmin": 50.95330112502297
    }, 
    {
      "latmax": 50.96216226419445, 
      "name": "Stekelbaarsstraat", 
      "lonmin": 3.776004988956051, 
      "sanName": "stekelbaarsstraat", 
      "numOfAddr": 35, 
      "lonmax": 3.7785070386034323, 
      "latmin": 50.960667938011134
    }, 
    {
      "latmax": 50.936299982156655, 
      "name": "Streekt", 
      "lonmin": 3.7677756938593543, 
      "sanName": "streekt", 
      "numOfAddr": 36, 
      "lonmax": 3.7739149534643244, 
      "latmin": 50.93506518692749
    }, 
    {
      "latmax": 50.970377962117034, 
      "name": "Stuivenberg", 
      "lonmin": 3.792840516563918, 
      "sanName": "stuivenberg", 
      "numOfAddr": 34, 
      "lonmax": 3.8012969706203017, 
      "latmin": 50.96818077163669
    }, 
    {
      "latmax": 50.913015998467856, 
      "name": "Terstraeten", 
      "lonmin": 3.8004746470665896, 
      "sanName": "terstraeten", 
      "numOfAddr": 14, 
      "lonmax": 3.8045725606908922, 
      "latmin": 50.910632808740225
    }, 
    {
      "latmax": 50.95648255238307, 
      "name": "Tramplein", 
      "lonmin": 3.779235039760558, 
      "sanName": "tramplein", 
      "numOfAddr": 2, 
      "lonmax": 3.779365878149865, 
      "latmin": 50.9564796118456
    }, 
    {
      "latmax": 50.95734273860465, 
      "name": "Tramstraat", 
      "lonmin": 3.7716643787310726, 
      "sanName": "tramstraat", 
      "numOfAddr": 37, 
      "lonmax": 3.77942862898621, 
      "latmin": 50.954736667842965
    }, 
    {
      "latmax": 50.933024789139054, 
      "name": "Turkenhoek", 
      "lonmin": 3.769407800019103, 
      "sanName": "turkenhoek", 
      "numOfAddr": 14, 
      "lonmax": 3.774781373905483, 
      "latmin": 50.92551714708048
    }, 
    {
      "latmax": 50.970669223416365, 
      "name": "Uilhoek", 
      "lonmin": 3.78507455729845, 
      "sanName": "uilhoek", 
      "numOfAddr": 6, 
      "lonmax": 3.787289679485069, 
      "latmin": 50.96561543776555
    }, 
    {
      "latmax": 50.95384712208065, 
      "name": "Van Thorenburghlaan", 
      "lonmin": 3.781517486990924, 
      "sanName": "vanthorenburghlaan", 
      "numOfAddr": 38, 
      "lonmax": 3.788163621618465, 
      "latmin": 50.9465268335375
    }, 
    {
      "latmax": 50.96348896980944, 
      "name": "Veldstraat", 
      "lonmin": 3.8321749172993043, 
      "sanName": "veldstraat", 
      "numOfAddr": 36, 
      "lonmax": 3.848689068913312, 
      "latmin": 50.955306747325864
    }, 
    {
      "latmax": 50.93781382788292, 
      "name": "Verbindingsweg", 
      "lonmin": 3.768111012985195, 
      "sanName": "verbindingsweg", 
      "numOfAddr": 5, 
      "lonmax": 3.7702288192495415, 
      "latmin": 50.93682847547756
    }, 
    {
      "latmax": 50.94040279412431, 
      "name": "Vierbunderstraat", 
      "lonmin": 3.7904622056107584, 
      "sanName": "vierbunderstraat", 
      "numOfAddr": 18, 
      "lonmax": 3.7921997558017813, 
      "latmin": 50.9389774964925
    }, 
    {
      "latmax": 50.9614795470659, 
      "name": "Vijverhoek", 
      "lonmin": 3.7691918395405533, 
      "sanName": "vijverhoek", 
      "numOfAddr": 10, 
      "lonmax": 3.771335473520428, 
      "latmin": 50.96047104837391
    }, 
    {
      "latmax": 50.96257893422768, 
      "name": "Vijverstraat", 
      "lonmin": 3.771526168339073, 
      "sanName": "vijverstraat", 
      "numOfAddr": 47, 
      "lonmax": 3.7790244234453763, 
      "latmin": 50.9591479502482
    }, 
    {
      "latmax": 50.95233878200522, 
      "name": "Vinkemolenstraat", 
      "lonmin": 3.8073567052394677, 
      "sanName": "vinkemolenstraat", 
      "numOfAddr": 67, 
      "lonmax": 3.810551165851793, 
      "latmin": 50.949181099153165
    }, 
    {
      "latmax": 50.95623054206572, 
      "name": "Vlierstraat", 
      "lonmin": 3.7717556566006305, 
      "sanName": "vlierstraat", 
      "numOfAddr": 1, 
      "lonmax": 3.7717556566006305, 
      "latmin": 50.95623054206572
    }, 
    {
      "latmax": 50.95403628877693, 
      "name": "Voordries", 
      "lonmin": 3.8032494326568815, 
      "sanName": "voordries", 
      "numOfAddr": 88, 
      "lonmax": 3.8096248246779276, 
      "latmin": 50.948058984921396
    }, 
    {
      "latmax": 50.92088168460837, 
      "name": "Vosbroekstraat", 
      "lonmin": 3.7945836484730497, 
      "sanName": "vosbroekstraat", 
      "numOfAddr": 11, 
      "lonmax": 3.7960890598674197, 
      "latmin": 50.920422588902056
    }, 
    {
      "latmax": 50.930685509635545, 
      "name": "Vrijhem", 
      "lonmin": 3.7858316520104385, 
      "sanName": "vrijhem", 
      "numOfAddr": 68, 
      "lonmax": 3.790534982563772, 
      "latmin": 50.92572563415982
    }, 
    {
      "latmax": 50.905287609787244, 
      "name": "Walzegem", 
      "lonmin": 3.803445319638329, 
      "sanName": "walzegem", 
      "numOfAddr": 56, 
      "lonmax": 3.80871477887917, 
      "latmin": 50.89892554326403
    }, 
    {
      "latmax": 50.962062322930606, 
      "name": "Watermolenstraat", 
      "lonmin": 3.7846639296625484, 
      "sanName": "watermolenstraat", 
      "numOfAddr": 7, 
      "lonmax": 3.7910277608311524, 
      "latmin": 50.95918199571431
    }, 
    {
      "latmax": 50.93001933154736, 
      "name": "Waterrad", 
      "lonmin": 3.7815630373530182, 
      "sanName": "waterrad", 
      "numOfAddr": 7, 
      "lonmax": 3.7865091798881942, 
      "latmin": 50.9286115162771
    }, 
    {
      "latmax": 50.97020095683519, 
      "name": "Wetterse steenweg", 
      "lonmin": 3.8096602544423535, 
      "sanName": "wettersesteenweg", 
      "numOfAddr": 41, 
      "lonmax": 3.8266372032040143, 
      "latmin": 50.95721626707882
    }, 
    {
      "latmax": 50.927687245657616, 
      "name": "Wijkschoolstraat", 
      "lonmin": 3.7552582976403954, 
      "sanName": "wijkschoolstraat", 
      "numOfAddr": 16, 
      "lonmax": 3.7617576898551333, 
      "latmin": 50.92594989246682
    }, 
    {
      "latmax": 50.946120931194436, 
      "name": "Windekekouter", 
      "lonmin": 3.7901146674132162, 
      "sanName": "windekekouter", 
      "numOfAddr": 78, 
      "lonmax": 3.80369134204829, 
      "latmin": 50.940754223408824
    }, 
    {
      "latmax": 50.966138257461985, 
      "name": "Wulgenstraat", 
      "lonmin": 3.8112324549668792, 
      "sanName": "wulgenstraat", 
      "numOfAddr": 3, 
      "lonmax": 3.811339354711595, 
      "latmin": 50.95902963079882
    }, 
    {
      "latmax": 50.92930191181196, 
      "name": "Yshoute", 
      "lonmin": 3.81469770918212, 
      "sanName": "yshoute", 
      "numOfAddr": 20, 
      "lonmax": 3.8277044612234494, 
      "latmin": 50.92808049354844
    }, 
    {
      "latmax": 50.971191706825856, 
      "name": "Zesde Liniestraat", 
      "lonmin": 3.8175342960977754, 
      "sanName": "zesdeliniestraat", 
      "numOfAddr": 8, 
      "lonmax": 3.8184513806699028, 
      "latmin": 50.97064284951633
    }
  ]
}