{
  "streets": [
    {
      "latmax": 50.93569572482657, 
      "name": "Aertstraat", 
      "lonmin": 3.4566309646121094, 
      "sanName": "aertstraat", 
      "numOfAddr": 46, 
      "lonmax": 3.461100926508359, 
      "latmin": 50.93258177602152
    }, 
    {
      "latmax": 50.92120442178556, 
      "name": "Anglo", 
      "lonmin": 3.4437463481766195, 
      "sanName": "anglo", 
      "numOfAddr": 56, 
      "lonmax": 3.4463884558181643, 
      "latmin": 50.91860717725601
    }, 
    {
      "latmax": 50.91836285199799, 
      "name": "Azalealaan", 
      "lonmin": 3.4456196947677986, 
      "sanName": "azalealaan", 
      "numOfAddr": 38, 
      "lonmax": 3.4472807835436448, 
      "latmin": 50.91705051688576
    }, 
    {
      "latmax": 50.93886018175199, 
      "name": "Bauterstraat", 
      "lonmin": 3.481274880261482, 
      "sanName": "bauterstraat", 
      "numOfAddr": 30, 
      "lonmax": 3.4969693911389728, 
      "latmin": 50.93215867769717
    }, 
    {
      "latmax": 50.92721129695786, 
      "name": "Beekstraat", 
      "lonmin": 3.4540937613284983, 
      "sanName": "beekstraat", 
      "numOfAddr": 29, 
      "lonmax": 3.4585038277333844, 
      "latmin": 50.92565934032084
    }, 
    {
      "latmax": 50.915482079745814, 
      "name": "Begonialaan", 
      "lonmin": 3.4487670145991163, 
      "sanName": "begonialaan", 
      "numOfAddr": 20, 
      "lonmax": 3.450861108072622, 
      "latmin": 50.91444135367447
    }, 
    {
      "latmax": 50.90998064449448, 
      "name": "Berkenlaan", 
      "lonmin": 3.457954755795382, 
      "sanName": "berkenlaan", 
      "numOfAddr": 15, 
      "lonmax": 3.460157865485363, 
      "latmin": 50.9085161056271
    }, 
    {
      "latmax": 50.908163078541016, 
      "name": "Beukenlaan", 
      "lonmin": 3.4604595668782903, 
      "sanName": "beukenlaan", 
      "numOfAddr": 9, 
      "lonmax": 3.4616525899091806, 
      "latmin": 50.907321464424456
    }, 
    {
      "latmax": 50.91231365469246, 
      "name": "Biezenstraat", 
      "lonmin": 3.44419963223861, 
      "sanName": "biezenstraat", 
      "numOfAddr": 24, 
      "lonmax": 3.4461362444574597, 
      "latmin": 50.910387574399834
    }, 
    {
      "latmax": 50.924726596781824, 
      "name": "Bilkhage", 
      "lonmin": 3.4471777668137813, 
      "sanName": "bilkhage", 
      "numOfAddr": 2, 
      "lonmax": 3.447184872625041, 
      "latmin": 50.924647180871645
    }, 
    {
      "latmax": 50.93456446249912, 
      "name": "Binnenaert", 
      "lonmin": 3.458464428340027, 
      "sanName": "binnenaert", 
      "numOfAddr": 11, 
      "lonmax": 3.4593549804109633, 
      "latmin": 50.93390541968709
    }, 
    {
      "latmax": 50.95026291744371, 
      "name": "Bisdonkstraat", 
      "lonmin": 3.5191794106498593, 
      "sanName": "bisdonkstraat", 
      "numOfAddr": 4, 
      "lonmax": 3.5242233063888637, 
      "latmin": 50.94771915499553
    }, 
    {
      "latmax": 50.97332633571106, 
      "name": "Biststraat", 
      "lonmin": 3.5024985313039174, 
      "sanName": "biststraat", 
      "numOfAddr": 2, 
      "lonmax": 3.5026044029477474, 
      "latmin": 50.972204709828596
    }, 
    {
      "latmax": 50.914263445761044, 
      "name": "Blauwdreef", 
      "lonmin": 3.4749467364279827, 
      "sanName": "blauwdreef", 
      "numOfAddr": 3, 
      "lonmax": 3.477447878137848, 
      "latmin": 50.91337341292429
    }, 
    {
      "latmax": 50.920701075028006, 
      "name": "Boelakendreef", 
      "lonmin": 3.4368605782792185, 
      "sanName": "boelakendreef", 
      "numOfAddr": 4, 
      "lonmax": 3.4388261710108665, 
      "latmin": 50.91945857648885
    }, 
    {
      "latmax": 50.960123021110995, 
      "name": "Bokstraat", 
      "lonmin": 3.5041020780853183, 
      "sanName": "bokstraat", 
      "numOfAddr": 82, 
      "lonmax": 3.5125368487554796, 
      "latmin": 50.949792991245616
    }, 
    {
      "latmax": 50.950591951945725, 
      "name": "Boonewaterhof", 
      "lonmin": 3.4944191025788696, 
      "sanName": "boonewaterhof", 
      "numOfAddr": 13, 
      "lonmax": 3.4956820533999085, 
      "latmin": 50.94961259153296
    }, 
    {
      "latmax": 50.92933823313669, 
      "name": "Boswegel", 
      "lonmin": 3.46961211127416, 
      "sanName": "boswegel", 
      "numOfAddr": 35, 
      "lonmax": 3.476967534512059, 
      "latmin": 50.92098046290805
    }, 
    {
      "latmax": 50.95341106197258, 
      "name": "Braembulck", 
      "lonmin": 3.48892635748033, 
      "sanName": "braembulck", 
      "numOfAddr": 2, 
      "lonmax": 3.4890767526082263, 
      "latmin": 50.95331761140288
    }, 
    {
      "latmax": 50.95068033315462, 
      "name": "Brandstraat", 
      "lonmin": 3.4997733166481533, 
      "sanName": "brandstraat", 
      "numOfAddr": 72, 
      "lonmax": 3.5168649993498833, 
      "latmin": 50.944702776103156
    }, 
    {
      "latmax": 50.92828890377515, 
      "name": "Bremstraat", 
      "lonmin": 3.444946042685034, 
      "sanName": "bremstraat", 
      "numOfAddr": 19, 
      "lonmax": 3.448955085799624, 
      "latmin": 50.92648421522043
    }, 
    {
      "latmax": 50.93834924844211, 
      "name": "Brouwershoek", 
      "lonmin": 3.4625292768337763, 
      "sanName": "brouwershoek", 
      "numOfAddr": 20, 
      "lonmax": 3.464162289408142, 
      "latmin": 50.93725912539142
    }, 
    {
      "latmax": 50.96856836057176, 
      "name": "Brullenstraat", 
      "lonmin": 3.4900628825894793, 
      "sanName": "brullenstraat", 
      "numOfAddr": 4, 
      "lonmax": 3.4910244034479048, 
      "latmin": 50.96629128147415
    }, 
    {
      "latmax": 50.94010140320813, 
      "name": "Bunderstraat", 
      "lonmin": 3.508760813678379, 
      "sanName": "bunderstraat", 
      "numOfAddr": 4, 
      "lonmax": 3.5113637872989676, 
      "latmin": 50.938269069504706
    }, 
    {
      "latmax": 50.93640728592995, 
      "name": "Centrumstraat", 
      "lonmin": 3.4658408049076357, 
      "sanName": "centrumstraat", 
      "numOfAddr": 93, 
      "lonmax": 3.4720320408298613, 
      "latmin": 50.92944835126301
    }, 
    {
      "latmax": 50.93958026887106, 
      "name": "De Dreve", 
      "lonmin": 3.4659980890173157, 
      "sanName": "dedreve", 
      "numOfAddr": 13, 
      "lonmax": 3.4682660353306747, 
      "latmin": 50.938938249512006
    }, 
    {
      "latmax": 50.91189432942644, 
      "name": "Dennenstraat", 
      "lonmin": 3.4396894732651018, 
      "sanName": "dennenstraat", 
      "numOfAddr": 6, 
      "lonmax": 3.440801643215406, 
      "latmin": 50.911428193610476
    }, 
    {
      "latmax": 50.95509364513688, 
      "name": "De Schachelaar", 
      "lonmin": 3.4969499242701882, 
      "sanName": "deschachelaar", 
      "numOfAddr": 4, 
      "lonmax": 3.4974758150660032, 
      "latmin": 50.954011249679134
    }, 
    {
      "latmax": 50.95643236090969, 
      "name": "D'Hoyestraat", 
      "lonmin": 3.458544998669939, 
      "sanName": "dhoyestraat", 
      "numOfAddr": 20, 
      "lonmax": 3.473224643155374, 
      "latmin": 50.945273789305176
    }, 
    {
      "latmax": 50.97453423099099, 
      "name": "Dijsselstraat", 
      "lonmin": 3.4949219302374432, 
      "sanName": "dijsselstraat", 
      "numOfAddr": 1, 
      "lonmax": 3.4949219302374432, 
      "latmin": 50.97453423099099
    }, 
    {
      "latmax": 50.96350997249035, 
      "name": "Donkerstraat", 
      "lonmin": 3.493475029287529, 
      "sanName": "donkerstraat", 
      "numOfAddr": 63, 
      "lonmax": 3.4961109166739948, 
      "latmin": 50.956646410981854
    }, 
    {
      "latmax": 50.9237005950063, 
      "name": "Doornstraat", 
      "lonmin": 3.443966350925311, 
      "sanName": "doornstraat", 
      "numOfAddr": 12, 
      "lonmax": 3.4453138252730535, 
      "latmin": 50.92285171780381
    }, 
    {
      "latmax": 50.95990415289977, 
      "name": "Dorpsstraat", 
      "lonmin": 3.4859589499452945, 
      "sanName": "dorpsstraat", 
      "numOfAddr": 82, 
      "lonmax": 3.493784351895738, 
      "latmin": 50.95554437556679
    }, 
    {
      "latmax": 50.93398740290511, 
      "name": "Dries", 
      "lonmin": 3.473757516362243, 
      "sanName": "dries", 
      "numOfAddr": 8, 
      "lonmax": 3.4755507758981765, 
      "latmin": 50.93253429281885
    }, 
    {
      "latmax": 50.91186756300971, 
      "name": "Drogenboomstraat", 
      "lonmin": 3.4322713280118906, 
      "sanName": "drogenboomstraat", 
      "numOfAddr": 43, 
      "lonmax": 3.444373994746356, 
      "latmin": 50.90052192172739
    }, 
    {
      "latmax": 50.92435751773881, 
      "name": "Eikenhaagstraat", 
      "lonmin": 3.4631666819327593, 
      "sanName": "eikenhaagstraat", 
      "numOfAddr": 8, 
      "lonmax": 3.4688856600503204, 
      "latmin": 50.92130551685639
    }, 
    {
      "latmax": 50.911788473260465, 
      "name": "Eikenlaan", 
      "lonmin": 3.457931433691275, 
      "sanName": "eikenlaan", 
      "numOfAddr": 2, 
      "lonmax": 3.458064895860588, 
      "latmin": 50.91171111448659
    }, 
    {
      "latmax": 50.9596062907513, 
      "name": "Eikstraat", 
      "lonmin": 3.503659173202707, 
      "sanName": "eikstraat", 
      "numOfAddr": 30, 
      "lonmax": 3.5106179825223056, 
      "latmin": 50.95223958505322
    }, 
    {
      "latmax": 50.917732343349485, 
      "name": "Ellegemstraat", 
      "lonmin": 3.4398738770430453, 
      "sanName": "ellegemstraat", 
      "numOfAddr": 8, 
      "lonmax": 3.4410477922573186, 
      "latmin": 50.91702113378875
    }, 
    {
      "latmax": 50.91159522934454, 
      "name": "Elzenlaan", 
      "lonmin": 3.454840140334297, 
      "sanName": "elzenlaan", 
      "numOfAddr": 17, 
      "lonmax": 3.456706696838317, 
      "latmin": 50.91045178123611
    }, 
    {
      "latmax": 50.92179655696432, 
      "name": "Fazantstraat", 
      "lonmin": 3.4521830978845807, 
      "sanName": "fazantstraat", 
      "numOfAddr": 31, 
      "lonmax": 3.455237047454493, 
      "latmin": 50.91960343762845
    }, 
    {
      "latmax": 50.94451575787793, 
      "name": "Fonteinstraat", 
      "lonmin": 3.464177162330242, 
      "sanName": "fonteinstraat", 
      "numOfAddr": 11, 
      "lonmax": 3.4666162045205535, 
      "latmin": 50.943868232357225
    }, 
    {
      "latmax": 50.922722215631794, 
      "name": "Gaston Martensplein", 
      "lonmin": 3.442065835089166, 
      "sanName": "gastonmartensplein", 
      "numOfAddr": 6, 
      "lonmax": 3.4431756345925324, 
      "latmin": 50.921662195852775
    }, 
    {
      "latmax": 50.9097472311475, 
      "name": "Gaverbeekstraat", 
      "lonmin": 3.4211192412707874, 
      "sanName": "gaverbeekstraat", 
      "numOfAddr": 4, 
      "lonmax": 3.4221004302375007, 
      "latmin": 50.9071622258272
    }, 
    {
      "latmax": 50.960276466840654, 
      "name": "Gaverweg", 
      "lonmin": 3.4973127839661, 
      "sanName": "gaverweg", 
      "numOfAddr": 9, 
      "lonmax": 3.4988521464285998, 
      "latmin": 50.9595159920656
    }, 
    {
      "latmax": 50.92544820360622, 
      "name": "Georges Dheedenestraat", 
      "lonmin": 3.4460001245224965, 
      "sanName": "georgesdheedenestraat", 
      "numOfAddr": 9, 
      "lonmax": 3.4472435064690377, 
      "latmin": 50.92504138382734
    }, 
    {
      "latmax": 50.959259988645925, 
      "name": "Georges Jozef Imschootplein", 
      "lonmin": 3.488072481940468, 
      "sanName": "georgesjozefimschootplein", 
      "numOfAddr": 1, 
      "lonmax": 3.488072481940468, 
      "latmin": 50.959259988645925
    }, 
    {
      "latmax": 50.914421788929936, 
      "name": "Gerststraat", 
      "lonmin": 3.4406253600755496, 
      "sanName": "gerststraat", 
      "numOfAddr": 9, 
      "lonmax": 3.4415389201605473, 
      "latmin": 50.913907156596366
    }, 
    {
      "latmax": 50.960321611827, 
      "name": "Gildestraat", 
      "lonmin": 3.4843395331344205, 
      "sanName": "gildestraat", 
      "numOfAddr": 8, 
      "lonmax": 3.4851668782016034, 
      "latmin": 50.959681167602156
    }, 
    {
      "latmax": 50.936721638450024, 
      "name": "Graevestraat", 
      "lonmin": 3.4652970568925467, 
      "sanName": "graevestraat", 
      "numOfAddr": 5, 
      "lonmax": 3.4653741380242917, 
      "latmin": 50.936623546183775
    }, 
    {
      "latmax": 50.976478308230654, 
      "name": "Grammenestraat", 
      "lonmin": 3.4801933914463086, 
      "sanName": "grammenestraat", 
      "numOfAddr": 16, 
      "lonmax": 3.4851884472585115, 
      "latmin": 50.96890196006972
    }, 
    {
      "latmax": 50.947144068469065, 
      "name": "Groeneweg", 
      "lonmin": 3.4628924618969608, 
      "sanName": "groeneweg", 
      "numOfAddr": 131, 
      "lonmax": 3.4935576270211843, 
      "latmin": 50.927453173213365
    }, 
    {
      "latmax": 50.94508310769818, 
      "name": "Grote Steenweg", 
      "lonmin": 3.455891375886426, 
      "sanName": "grotesteenweg", 
      "numOfAddr": 169, 
      "lonmax": 3.4793498647261134, 
      "latmin": 50.92970129407249
    }, 
    {
      "latmax": 50.964657874163066, 
      "name": "Guldepark", 
      "lonmin": 3.493365579430694, 
      "sanName": "guldepark", 
      "numOfAddr": 16, 
      "lonmax": 3.494276258945543, 
      "latmin": 50.96397158908848
    }, 
    {
      "latmax": 50.954125852168495, 
      "name": "Haarzakstraat", 
      "lonmin": 3.493467053968368, 
      "sanName": "haarzakstraat", 
      "numOfAddr": 8, 
      "lonmax": 3.4944816928248192, 
      "latmin": 50.95139067428887
    }, 
    {
      "latmax": 50.940600621031116, 
      "name": "Hamstraat", 
      "lonmin": 3.4514773140722, 
      "sanName": "hamstraat", 
      "numOfAddr": 4, 
      "lonmax": 3.4554783406973026, 
      "latmin": 50.939412532489435
    }, 
    {
      "latmax": 50.911553682548046, 
      "name": "Heidestraat", 
      "lonmin": 3.4689094164351846, 
      "sanName": "heidestraat", 
      "numOfAddr": 5, 
      "lonmax": 3.4709160078742154, 
      "latmin": 50.91023271834932
    }, 
    {
      "latmax": 50.94451757077074, 
      "name": "Heirweg", 
      "lonmin": 3.4624367006025225, 
      "sanName": "heirweg", 
      "numOfAddr": 79, 
      "lonmax": 3.46663534924424, 
      "latmin": 50.93608866712712
    }, 
    {
      "latmax": 50.94418316005609, 
      "name": "Herdersstraat", 
      "lonmin": 3.457349189332914, 
      "sanName": "herdersstraat", 
      "numOfAddr": 25, 
      "lonmax": 3.4636503593112526, 
      "latmin": 50.94076481009589
    }, 
    {
      "latmax": 50.96076166993702, 
      "name": "Heremietlos", 
      "lonmin": 3.4913495395252467, 
      "sanName": "heremietlos", 
      "numOfAddr": 11, 
      "lonmax": 3.4920118538177407, 
      "latmin": 50.960274403837936
    }, 
    {
      "latmax": 50.910903315264, 
      "name": "Hoenderdreef", 
      "lonmin": 3.434599374962777, 
      "sanName": "hoenderdreef", 
      "numOfAddr": 20, 
      "lonmax": 3.4375017361796365, 
      "latmin": 50.910150348756055
    }, 
    {
      "latmax": 50.95926864489581, 
      "name": "Hoevestraat", 
      "lonmin": 3.4709659208545953, 
      "sanName": "hoevestraat", 
      "numOfAddr": 53, 
      "lonmax": 3.4864097322852188, 
      "latmin": 50.9520089882336
    }, 
    {
      "latmax": 50.92639861685319, 
      "name": "Hof ter Weeden", 
      "lonmin": 3.4428481470240975, 
      "sanName": "hofterweeden", 
      "numOfAddr": 9, 
      "lonmax": 3.4441673303002274, 
      "latmin": 50.92559448301826
    }, 
    {
      "latmax": 50.92783352420502, 
      "name": "Houtstraat", 
      "lonmin": 3.4619032298099293, 
      "sanName": "houtstraat", 
      "numOfAddr": 78, 
      "lonmax": 3.4823083457412745, 
      "latmin": 50.914850036746095
    }, 
    {
      "latmax": 50.909766696323224, 
      "name": "Jagersstraat", 
      "lonmin": 3.4240250557065988, 
      "sanName": "jagersstraat", 
      "numOfAddr": 5, 
      "lonmax": 3.4304353994479797, 
      "latmin": 50.90781796869129
    }, 
    {
      "latmax": 50.91687791441789, 
      "name": "Kapellestraat", 
      "lonmin": 3.4324764913864723, 
      "sanName": "kapellestraat", 
      "numOfAddr": 102, 
      "lonmax": 3.452552610975659, 
      "latmin": 50.91272352439129
    }, 
    {
      "latmax": 50.95954537658922, 
      "name": "Karperstraat", 
      "lonmin": 3.4845640033501812, 
      "sanName": "karperstraat", 
      "numOfAddr": 17, 
      "lonmax": 3.485608542093143, 
      "latmin": 50.95869976724244
    }, 
    {
      "latmax": 50.93387050694288, 
      "name": "Karreweg", 
      "lonmin": 3.4646314972989978, 
      "sanName": "karreweg", 
      "numOfAddr": 35, 
      "lonmax": 3.5040151011036746, 
      "latmin": 50.903836129043306
    }, 
    {
      "latmax": 50.921521983686034, 
      "name": "Kastanjelaan", 
      "lonmin": 3.4457048252200715, 
      "sanName": "kastanjelaan", 
      "numOfAddr": 108, 
      "lonmax": 3.4510958328731975, 
      "latmin": 50.91470012204834
    }, 
    {
      "latmax": 50.947180257287975, 
      "name": "Kasteelstraat", 
      "lonmin": 3.4664640344030393, 
      "sanName": "kasteelstraat", 
      "numOfAddr": 43, 
      "lonmax": 3.4724534708711023, 
      "latmin": 50.94199634435137
    }, 
    {
      "latmax": 50.9692028635952, 
      "name": "Kerenstraat", 
      "lonmin": 3.489156123922012, 
      "sanName": "kerenstraat", 
      "numOfAddr": 2, 
      "lonmax": 3.489519311700711, 
      "latmin": 50.968602416595694
    }, 
    {
      "latmax": 50.94086390163498, 
      "name": "Kerkstraat", 
      "lonmin": 3.4560158738673916, 
      "sanName": "kerkstraat", 
      "numOfAddr": 69, 
      "lonmax": 3.4642965200979337, 
      "latmin": 50.93566102360383
    }, 
    {
      "latmax": 50.9551238244833, 
      "name": "Kerkweglos", 
      "lonmin": 3.484653433701505, 
      "sanName": "kerkweglos", 
      "numOfAddr": 17, 
      "lonmax": 3.487210651783643, 
      "latmin": 50.95293681210524
    }, 
    {
      "latmax": 50.91004102238231, 
      "name": "Kerselarenlaan", 
      "lonmin": 3.4518627630083696, 
      "sanName": "kerselarenlaan", 
      "numOfAddr": 31, 
      "lonmax": 3.455730847292345, 
      "latmin": 50.9083800829612
    }, 
    {
      "latmax": 50.92162175430536, 
      "name": "Kievitstraat", 
      "lonmin": 3.4553559378377363, 
      "sanName": "kievitstraat", 
      "numOfAddr": 14, 
      "lonmax": 3.457205050737824, 
      "latmin": 50.92093322450272
    }, 
    {
      "latmax": 50.93392706593381, 
      "name": "Kleinaert", 
      "lonmin": 3.4595381514284074, 
      "sanName": "kleinaert", 
      "numOfAddr": 4, 
      "lonmax": 3.459898292375366, 
      "latmin": 50.933378321864616
    }, 
    {
      "latmax": 50.960832232395155, 
      "name": "Kloosterstraat", 
      "lonmin": 3.4857495194347146, 
      "sanName": "kloosterstraat", 
      "numOfAddr": 8, 
      "lonmax": 3.485986698121196, 
      "latmin": 50.960092435147786
    }, 
    {
      "latmax": 50.91346401531551, 
      "name": "Knokstraat", 
      "lonmin": 3.4431305490272544, 
      "sanName": "knokstraat", 
      "numOfAddr": 35, 
      "lonmax": 3.449400051457258, 
      "latmin": 50.912275416919705
    }, 
    {
      "latmax": 50.92098057548903, 
      "name": "Koekoekstraat", 
      "lonmin": 3.4507196684937376, 
      "sanName": "koekoekstraat", 
      "numOfAddr": 25, 
      "lonmax": 3.454433864084479, 
      "latmin": 50.91843908976779
    }, 
    {
      "latmax": 50.912693865824416, 
      "name": "Kouterweg", 
      "lonmin": 3.43998517916729, 
      "sanName": "kouterweg", 
      "numOfAddr": 19, 
      "lonmax": 3.4430354360175075, 
      "latmin": 50.910364408421415
    }, 
    {
      "latmax": 50.910656505887744, 
      "name": "Kraaidreef", 
      "lonmin": 3.4312901625779175, 
      "sanName": "kraaidreef", 
      "numOfAddr": 34, 
      "lonmax": 3.447096210317644, 
      "latmin": 50.90741001826418
    }, 
    {
      "latmax": 50.939238703808066, 
      "name": "Kreupelstraat", 
      "lonmin": 3.4610818854622223, 
      "sanName": "kreupelstraat", 
      "numOfAddr": 24, 
      "lonmax": 3.4650796572333857, 
      "latmin": 50.93815214144505
    }, 
    {
      "latmax": 50.95144000512848, 
      "name": "Kruishoutemstraat", 
      "lonmin": 3.497389367039591, 
      "sanName": "kruishoutemstraat", 
      "numOfAddr": 115, 
      "lonmax": 3.5030695453506393, 
      "latmin": 50.93410474873523
    }, 
    {
      "latmax": 50.93542058557472, 
      "name": "Kruisstraat", 
      "lonmin": 3.4649990635497225, 
      "sanName": "kruisstraat", 
      "numOfAddr": 8, 
      "lonmax": 3.4656924762695653, 
      "latmin": 50.93414186649623
    }, 
    {
      "latmax": 50.953012000044936, 
      "name": "Lange Dreef", 
      "lonmin": 3.5113429721918177, 
      "sanName": "langedreef", 
      "numOfAddr": 7, 
      "lonmax": 3.5192194783979005, 
      "latmin": 50.948089493192754
    }, 
    {
      "latmax": 50.912463500275905, 
      "name": "Leenstraat", 
      "lonmin": 3.45254843766671, 
      "sanName": "leenstraat", 
      "numOfAddr": 65, 
      "lonmax": 3.4663820334179913, 
      "latmin": 50.90302420036751
    }, 
    {
      "latmax": 50.92494921499207, 
      "name": "Leeuwerikstraat", 
      "lonmin": 3.4526766165450433, 
      "sanName": "leeuwerikstraat", 
      "numOfAddr": 10, 
      "lonmax": 3.4538800603621795, 
      "latmin": 50.924224420110725
    }, 
    {
      "latmax": 50.95475243887166, 
      "name": "Leie Rechteroever", 
      "lonmin": 3.463786442135828, 
      "sanName": "leierechteroever", 
      "numOfAddr": 2, 
      "lonmax": 3.4647780971084456, 
      "latmin": 50.95422277149319
    }, 
    {
      "latmax": 50.9275545398839, 
      "name": "Leiestraat", 
      "lonmin": 3.437298518202192, 
      "sanName": "leiestraat", 
      "numOfAddr": 79, 
      "lonmax": 3.446551198275719, 
      "latmin": 50.92367283788661
    }, 
    {
      "latmax": 50.97209698380134, 
      "name": "Leihoekstraat", 
      "lonmin": 3.483249023974038, 
      "sanName": "leihoekstraat", 
      "numOfAddr": 69, 
      "lonmax": 3.5066458349084653, 
      "latmin": 50.960179741112114
    }, 
    {
      "latmax": 50.98001794924951, 
      "name": "Leimeersstraat", 
      "lonmin": 3.4964268789931316, 
      "sanName": "leimeersstraat", 
      "numOfAddr": 7, 
      "lonmax": 3.502696305348783, 
      "latmin": 50.975859712633806
    }, 
    {
      "latmax": 50.95395289978378, 
      "name": "Leliepark", 
      "lonmin": 3.498829586858901, 
      "sanName": "leliepark", 
      "numOfAddr": 63, 
      "lonmax": 3.5018412559401493, 
      "latmin": 50.95038511502155
    }, 
    {
      "latmax": 50.92500745121375, 
      "name": "Lijsterstraat", 
      "lonmin": 3.4505719719261174, 
      "sanName": "lijsterstraat", 
      "numOfAddr": 38, 
      "lonmax": 3.454690620831928, 
      "latmin": 50.92241963025684
    }, 
    {
      "latmax": 50.9233970863456, 
      "name": "Limnanderdreef", 
      "lonmin": 3.4381446641176248, 
      "sanName": "limnanderdreef", 
      "numOfAddr": 25, 
      "lonmax": 3.4418897913988835, 
      "latmin": 50.92195850394186
    }, 
    {
      "latmax": 50.92770705657097, 
      "name": "Lindenbergstraat", 
      "lonmin": 3.4481138615366422, 
      "sanName": "lindenbergstraat", 
      "numOfAddr": 6, 
      "lonmax": 3.449312411286405, 
      "latmin": 50.92695156055604
    }, 
    {
      "latmax": 50.91748625228257, 
      "name": "Lindenlaan", 
      "lonmin": 3.445402466963772, 
      "sanName": "lindenlaan", 
      "numOfAddr": 21, 
      "lonmax": 3.4473880932504164, 
      "latmin": 50.91627587216145
    }, 
    {
      "latmax": 50.92950974900241, 
      "name": "Linkeroever", 
      "lonmin": 3.426021881927376, 
      "sanName": "linkeroever", 
      "numOfAddr": 7, 
      "lonmax": 3.4316023513507456, 
      "latmin": 50.92436861044193
    }, 
    {
      "latmax": 50.90973768196301, 
      "name": "Looierijstraat", 
      "lonmin": 3.4284718014043847, 
      "sanName": "looierijstraat", 
      "numOfAddr": 5, 
      "lonmax": 3.4294592389105136, 
      "latmin": 50.907756950583384
    }, 
    {
      "latmax": 50.96007096098904, 
      "name": "Machelendorp", 
      "lonmin": 3.485344870548092, 
      "sanName": "machelendorp", 
      "numOfAddr": 10, 
      "lonmax": 3.4861956952147115, 
      "latmin": 50.95955448234109
    }, 
    {
      "latmax": 50.9534377620225, 
      "name": "Machelenstraat", 
      "lonmin": 3.463605499832099, 
      "sanName": "machelenstraat", 
      "numOfAddr": 50, 
      "lonmax": 3.475613503924569, 
      "latmin": 50.944039443515216
    }, 
    {
      "latmax": 50.91402047546032, 
      "name": "Maisstraat", 
      "lonmin": 3.4370403290964195, 
      "sanName": "maisstraat", 
      "numOfAddr": 11, 
      "lonmax": 3.4385700290707355, 
      "latmin": 50.913653845671135
    }, 
    {
      "latmax": 50.90564175237165, 
      "name": "Meersstraat", 
      "lonmin": 3.4210182732507186, 
      "sanName": "meersstraat", 
      "numOfAddr": 7, 
      "lonmax": 3.4295202290390887, 
      "latmin": 50.90297634309834
    }, 
    {
      "latmax": 50.912896718313114, 
      "name": "Meiweg", 
      "lonmin": 3.436232157255108, 
      "sanName": "meiweg", 
      "numOfAddr": 25, 
      "lonmax": 3.438122967095762, 
      "latmin": 50.910407751969394
    }, 
    {
      "latmax": 50.92457135721395, 
      "name": "Merelstraat", 
      "lonmin": 3.449347167404834, 
      "sanName": "merelstraat", 
      "numOfAddr": 18, 
      "lonmax": 3.450773341575827, 
      "latmin": 50.92342558091815
    }, 
    {
      "latmax": 50.95192542855888, 
      "name": "Meulebergstraat", 
      "lonmin": 3.487368549094611, 
      "sanName": "meulebergstraat", 
      "numOfAddr": 27, 
      "lonmax": 3.4959361859241183, 
      "latmin": 50.946355070194
    }, 
    {
      "latmax": 50.9333484502357, 
      "name": "Meylegemstraat", 
      "lonmin": 3.4777260825120515, 
      "sanName": "meylegemstraat", 
      "numOfAddr": 19, 
      "lonmax": 3.493468687597803, 
      "latmin": 50.92305708341224
    }, 
    {
      "latmax": 50.908676809094594, 
      "name": "Modest Huys-laan", 
      "lonmin": 3.4512349609493955, 
      "sanName": "modesthuyslaan", 
      "numOfAddr": 47, 
      "lonmax": 3.4595867061096666, 
      "latmin": 50.906470863221976
    }, 
    {
      "latmax": 50.91441840426533, 
      "name": "Moerbeekpark", 
      "lonmin": 3.4441943252841702, 
      "sanName": "moerbeekpark", 
      "numOfAddr": 26, 
      "lonmax": 3.4456490757035168, 
      "latmin": 50.91359380344855
    }, 
    {
      "latmax": 50.915275062581, 
      "name": "Moerbeekstraat", 
      "lonmin": 3.4425041680642305, 
      "sanName": "moerbeekstraat", 
      "numOfAddr": 43, 
      "lonmax": 3.4493574321060225, 
      "latmin": 50.90572386273053
    }, 
    {
      "latmax": 50.96028798009202, 
      "name": "Molenkouterstraat", 
      "lonmin": 3.48907317849054, 
      "sanName": "molenkouterstraat", 
      "numOfAddr": 58, 
      "lonmax": 3.498052785579602, 
      "latmin": 50.958342390085114
    }, 
    {
      "latmax": 50.96394992020033, 
      "name": "Molenmeersstraat", 
      "lonmin": 3.4956452674055423, 
      "sanName": "molenmeersstraat", 
      "numOfAddr": 7, 
      "lonmax": 3.499475919224447, 
      "latmin": 50.96015086503775
    }, 
    {
      "latmax": 50.93517989803586, 
      "name": "Molenstraat", 
      "lonmin": 3.461558324529098, 
      "sanName": "molenstraat", 
      "numOfAddr": 99, 
      "lonmax": 3.464830409203649, 
      "latmin": 50.928301801405965
    }, 
    {
      "latmax": 50.92312483350115, 
      "name": "Nachtegaalstraat", 
      "lonmin": 3.448671708224183, 
      "sanName": "nachtegaalstraat", 
      "numOfAddr": 80, 
      "lonmax": 3.4593039129155336, 
      "latmin": 50.92168268641228
    }, 
    {
      "latmax": 50.93363350158491, 
      "name": "Nieuwlandstraat", 
      "lonmin": 3.461467374772834, 
      "sanName": "nieuwlandstraat", 
      "numOfAddr": 41, 
      "lonmax": 3.467730391786165, 
      "latmin": 50.93241235312771
    }, 
    {
      "latmax": 50.934765517036396, 
      "name": "Nieuwstraat", 
      "lonmin": 3.465263693337919, 
      "sanName": "nieuwstraat", 
      "numOfAddr": 24, 
      "lonmax": 3.466866423756209, 
      "latmin": 50.93322684791186
    }, 
    {
      "latmax": 50.91871686179448, 
      "name": "Nijverheidsstraat", 
      "lonmin": 3.444566799958022, 
      "sanName": "nijverheidsstraat", 
      "numOfAddr": 5, 
      "lonmax": 3.4465926817076573, 
      "latmin": 50.917455473545814
    }, 
    {
      "latmax": 50.933150773997845, 
      "name": "Oeselgemstraat", 
      "lonmin": 3.4332365779893874, 
      "sanName": "oeselgemstraat", 
      "numOfAddr": 73, 
      "lonmax": 3.4444878545910678, 
      "latmin": 50.92220975690705
    }, 
    {
      "latmax": 50.94136273244915, 
      "name": "Oliebergstraat", 
      "lonmin": 3.4590400439156257, 
      "sanName": "oliebergstraat", 
      "numOfAddr": 46, 
      "lonmax": 3.464725732719073, 
      "latmin": 50.93958744656141
    }, 
    {
      "latmax": 50.91294686469212, 
      "name": "Olmenlaan", 
      "lonmin": 3.4535811723456695, 
      "sanName": "olmenlaan", 
      "numOfAddr": 58, 
      "lonmax": 3.461485874774054, 
      "latmin": 50.90793521366503
    }, 
    {
      "latmax": 50.92668598151204, 
      "name": "Olsenestraat", 
      "lonmin": 3.450339293608063, 
      "sanName": "olsenestraat", 
      "numOfAddr": 152, 
      "lonmax": 3.464112331913818, 
      "latmin": 50.91347721295279
    }, 
    {
      "latmax": 50.90644486852064, 
      "name": "Ommegangstraat", 
      "lonmin": 3.417285495765524, 
      "sanName": "ommegangstraat", 
      "numOfAddr": 6, 
      "lonmax": 3.4252908043728336, 
      "latmin": 50.90413398214795
    }, 
    {
      "latmax": 50.931667936263246, 
      "name": "Oudenaardestraat", 
      "lonmin": 3.472182071917533, 
      "sanName": "oudenaardestraat", 
      "numOfAddr": 134, 
      "lonmax": 3.488917388790776, 
      "latmin": 50.91855591056567
    }, 
    {
      "latmax": 50.90926789953212, 
      "name": "Oude Waalstraat", 
      "lonmin": 3.465859956235022, 
      "sanName": "oudewaalstraat", 
      "numOfAddr": 9, 
      "lonmax": 3.4681602687652013, 
      "latmin": 50.9059614030519
    }, 
    {
      "latmax": 50.91962551307675, 
      "name": "Oude Weg", 
      "lonmin": 3.426128819296803, 
      "sanName": "oudeweg", 
      "numOfAddr": 124, 
      "lonmax": 3.4422104049967883, 
      "latmin": 50.90948031347528
    }, 
    {
      "latmax": 50.97627700438629, 
      "name": "Overmeersstraat", 
      "lonmin": 3.489114936940093, 
      "sanName": "overmeersstraat", 
      "numOfAddr": 4, 
      "lonmax": 3.491334700188885, 
      "latmin": 50.97150723040308
    }, 
    {
      "latmax": 50.950140727283866, 
      "name": "Pannestraat", 
      "lonmin": 3.495764438628726, 
      "sanName": "pannestraat", 
      "numOfAddr": 16, 
      "lonmax": 3.498564652363701, 
      "latmin": 50.94782208048369
    }, 
    {
      "latmax": 50.92475605103446, 
      "name": "Papegaaistraat", 
      "lonmin": 3.452977352482097, 
      "sanName": "papegaaistraat", 
      "numOfAddr": 9, 
      "lonmax": 3.4546442589619164, 
      "latmin": 50.923574693156034
    }, 
    {
      "latmax": 50.925939702344664, 
      "name": "Paradijsstraat", 
      "lonmin": 3.4556492412894917, 
      "sanName": "paradijsstraat", 
      "numOfAddr": 15, 
      "lonmax": 3.4570120885545568, 
      "latmin": 50.924510949523025
    }, 
    {
      "latmax": 50.93936728806442, 
      "name": "Peper-Los", 
      "lonmin": 3.478188102479709, 
      "sanName": "peperlos", 
      "numOfAddr": 2, 
      "lonmax": 3.4782871087614353, 
      "latmin": 50.93845331373776
    }, 
    {
      "latmax": 50.95253000161157, 
      "name": "Pereboomstraat", 
      "lonmin": 3.4555770746885397, 
      "sanName": "pereboomstraat", 
      "numOfAddr": 1, 
      "lonmax": 3.4555770746885397, 
      "latmin": 50.95253000161157
    }, 
    {
      "latmax": 50.97015970200645, 
      "name": "Petegemstraat", 
      "lonmin": 3.4860354279407795, 
      "sanName": "petegemstraat", 
      "numOfAddr": 121, 
      "lonmax": 3.501435287300239, 
      "latmin": 50.95958312429791
    }, 
    {
      "latmax": 50.95716809488358, 
      "name": "Phlippostraat", 
      "lonmin": 3.4888750577540524, 
      "sanName": "phlippostraat", 
      "numOfAddr": 21, 
      "lonmax": 3.490815158267651, 
      "latmin": 50.95546912524636
    }, 
    {
      "latmax": 50.93287482939779, 
      "name": "Poelkenswegel", 
      "lonmin": 3.4599802646268714, 
      "sanName": "poelkenswegel", 
      "numOfAddr": 32, 
      "lonmax": 3.4627374109790865, 
      "latmin": 50.93048372342966
    }, 
    {
      "latmax": 50.95878508044424, 
      "name": "Polderstraat", 
      "lonmin": 3.494631356051598, 
      "sanName": "polderstraat", 
      "numOfAddr": 33, 
      "lonmax": 3.5012556485820316, 
      "latmin": 50.95482717273581
    }, 
    {
      "latmax": 50.93462088670771, 
      "name": "Ponteputstraat", 
      "lonmin": 3.4813053492670325, 
      "sanName": "ponteputstraat", 
      "numOfAddr": 14, 
      "lonmax": 3.491917058719469, 
      "latmin": 50.92880790075578
    }, 
    {
      "latmax": 50.92182151219625, 
      "name": "Pontstraat", 
      "lonmin": 3.4315811212738794, 
      "sanName": "pontstraat", 
      "numOfAddr": 25, 
      "lonmax": 3.4417462725893517, 
      "latmin": 50.91518786884849
    }, 
    {
      "latmax": 50.924883642420426, 
      "name": "Poort-Ter-Wallen-Los", 
      "lonmin": 3.486038456108801, 
      "sanName": "poortterwallenlos", 
      "numOfAddr": 2, 
      "lonmax": 3.487702953646974, 
      "latmin": 50.92419529294988
    }, 
    {
      "latmax": 50.95506563982417, 
      "name": "Posthoornstraat", 
      "lonmin": 3.493981126504613, 
      "sanName": "posthoornstraat", 
      "numOfAddr": 69, 
      "lonmax": 3.500762355733878, 
      "latmin": 50.95108542744891
    }, 
    {
      "latmax": 50.92796648327384, 
      "name": "Processiestraat", 
      "lonmin": 3.459443851634777, 
      "sanName": "processiestraat", 
      "numOfAddr": 21, 
      "lonmax": 3.4629661263152647, 
      "latmin": 50.925728942465
    }, 
    {
      "latmax": 50.95194644638079, 
      "name": "Putweg", 
      "lonmin": 3.498882994353931, 
      "sanName": "putweg", 
      "numOfAddr": 1, 
      "lonmax": 3.498882994353931, 
      "latmin": 50.95194644638079
    }, 
    {
      "latmax": 50.9361387494204, 
      "name": "Reigersvliet", 
      "lonmin": 3.46054685895356, 
      "sanName": "reigersvliet", 
      "numOfAddr": 13, 
      "lonmax": 3.4619534470870663, 
      "latmin": 50.93522860779112
    }, 
    {
      "latmax": 50.91279461328042, 
      "name": "Rietstraat", 
      "lonmin": 3.443332178463633, 
      "sanName": "rietstraat", 
      "numOfAddr": 34, 
      "lonmax": 3.4454882879395625, 
      "latmin": 50.91041890910861
    }, 
    {
      "latmax": 50.96338547458448, 
      "name": "Rijksweg", 
      "lonmin": 3.4787266865886366, 
      "sanName": "rijksweg", 
      "numOfAddr": 163, 
      "lonmax": 3.505956646708359, 
      "latmin": 50.94562474398044
    }, 
    {
      "latmax": 50.93679814417583, 
      "name": "Rijwegstraat", 
      "lonmin": 3.4719604879925616, 
      "sanName": "rijwegstraat", 
      "numOfAddr": 3, 
      "lonmax": 3.4727906386415945, 
      "latmin": 50.93439051486488
    }, 
    {
      "latmax": 50.9148126762963, 
      "name": "Roggestraat", 
      "lonmin": 3.437266942085364, 
      "sanName": "roggestraat", 
      "numOfAddr": 30, 
      "lonmax": 3.439534581525457, 
      "latmin": 50.91369332356711
    }, 
    {
      "latmax": 50.92394201480804, 
      "name": "Roodborststraat", 
      "lonmin": 3.4538120462993347, 
      "sanName": "roodborststraat", 
      "numOfAddr": 14, 
      "lonmax": 3.456407518045283, 
      "latmin": 50.92279436142606
    }, 
    {
      "latmax": 50.91114217180127, 
      "name": "Rootmoerelaan", 
      "lonmin": 3.45214987539664, 
      "sanName": "rootmoerelaan", 
      "numOfAddr": 11, 
      "lonmax": 3.4530732200607313, 
      "latmin": 50.910071089014956
    }, 
    {
      "latmax": 50.920665342008384, 
      "name": "Roterijstraat", 
      "lonmin": 3.4544817915330337, 
      "sanName": "roterijstraat", 
      "numOfAddr": 6, 
      "lonmax": 3.4554344283217198, 
      "latmin": 50.920111848911155
    }, 
    {
      "latmax": 50.95070347231246, 
      "name": "Rotsstraat", 
      "lonmin": 3.4625346374960393, 
      "sanName": "rotsstraat", 
      "numOfAddr": 14, 
      "lonmax": 3.4684284914675287, 
      "latmin": 50.94794339484114
    }, 
    {
      "latmax": 50.916665629835805, 
      "name": "Rozenlaan", 
      "lonmin": 3.4473426038683503, 
      "sanName": "rozenlaan", 
      "numOfAddr": 36, 
      "lonmax": 3.4490341140020675, 
      "latmin": 50.915563641083075
    }, 
    {
      "latmax": 50.958888146381476, 
      "name": "Schoolstraat", 
      "lonmin": 3.490725234202481, 
      "sanName": "schoolstraat", 
      "numOfAddr": 29, 
      "lonmax": 3.49510986263371, 
      "latmin": 50.95725865478188
    }, 
    {
      "latmax": 50.953567570144244, 
      "name": "Schrijversstraat", 
      "lonmin": 3.504537463813545, 
      "sanName": "schrijversstraat", 
      "numOfAddr": 14, 
      "lonmax": 3.506664865010008, 
      "latmin": 50.952520359958875
    }, 
    {
      "latmax": 50.93065213707685, 
      "name": "Sint-Pieterstraat", 
      "lonmin": 3.4581446287234447, 
      "sanName": "sintpieterstraat", 
      "numOfAddr": 31, 
      "lonmax": 3.4615050906311837, 
      "latmin": 50.92789710620032
    }, 
    {
      "latmax": 50.95389857846774, 
      "name": "Slooverlos", 
      "lonmin": 3.4815046784101735, 
      "sanName": "slooverlos", 
      "numOfAddr": 5, 
      "lonmax": 3.4849597764532914, 
      "latmin": 50.95216190598519
    }, 
    {
      "latmax": 50.94844608773603, 
      "name": "Sparrenstraat", 
      "lonmin": 3.503079488899395, 
      "sanName": "sparrenstraat", 
      "numOfAddr": 44, 
      "lonmax": 3.51033808617234, 
      "latmin": 50.934115613464016
    }, 
    {
      "latmax": 50.921362788363, 
      "name": "Spoorwegstraat", 
      "lonmin": 3.4575527807522204, 
      "sanName": "spoorwegstraat", 
      "numOfAddr": 12, 
      "lonmax": 3.4615882393166113, 
      "latmin": 50.918084300369664
    }, 
    {
      "latmax": 50.930091601237386, 
      "name": "Staatsbaan", 
      "lonmin": 3.4184486676046, 
      "sanName": "staatsbaan", 
      "numOfAddr": 239, 
      "lonmax": 3.457205062565411, 
      "latmin": 50.90711445302339
    }, 
    {
      "latmax": 50.91921798948594, 
      "name": "Statiestraat", 
      "lonmin": 3.4400586327912275, 
      "sanName": "statiestraat", 
      "numOfAddr": 139, 
      "lonmax": 3.450550320548456, 
      "latmin": 50.91305432347044
    }, 
    {
      "latmax": 50.93230777198166, 
      "name": "Stenemolenstraat", 
      "lonmin": 3.46393178496692, 
      "sanName": "stenemolenstraat", 
      "numOfAddr": 47, 
      "lonmax": 3.4657766325469614, 
      "latmin": 50.92886003167876
    }, 
    {
      "latmax": 50.95520525645361, 
      "name": "Stokstormstraat", 
      "lonmin": 3.5219281530194433, 
      "sanName": "stokstormstraat", 
      "numOfAddr": 5, 
      "lonmax": 3.5267141650379696, 
      "latmin": 50.95094278318937
    }, 
    {
      "latmax": 50.91641783520424, 
      "name": "Tarwestraat", 
      "lonmin": 3.441047866174406, 
      "sanName": "tarwestraat", 
      "numOfAddr": 12, 
      "lonmax": 3.442286876847035, 
      "latmin": 50.915382197984044
    }, 
    {
      "latmax": 50.9419536877012, 
      "name": "Terwallenstraat", 
      "lonmin": 3.474882118335812, 
      "sanName": "terwallenstraat", 
      "numOfAddr": 18, 
      "lonmax": 3.483760487924319, 
      "latmin": 50.93446705797414
    }, 
    {
      "latmax": 50.91203790402641, 
      "name": "Texelhoek", 
      "lonmin": 3.435056908133725, 
      "sanName": "texelhoek", 
      "numOfAddr": 15, 
      "lonmax": 3.436514115434147, 
      "latmin": 50.9108723290538
    }, 
    {
      "latmax": 50.9674476054323, 
      "name": "Torrestraat", 
      "lonmin": 3.499344762718595, 
      "sanName": "torrestraat", 
      "numOfAddr": 23, 
      "lonmax": 3.503159153517411, 
      "latmin": 50.96074943795395
    }, 
    {
      "latmax": 50.94259818218973, 
      "name": "Toverhoek", 
      "lonmin": 3.4622570317626864, 
      "sanName": "toverhoek", 
      "numOfAddr": 26, 
      "lonmax": 3.465202020731815, 
      "latmin": 50.94124767984587
    }, 
    {
      "latmax": 50.96323139286048, 
      "name": "Tuinwijk", 
      "lonmin": 3.490165205726389, 
      "sanName": "tuinwijk", 
      "numOfAddr": 80, 
      "lonmax": 3.4940564455598437, 
      "latmin": 50.960563109702754
    }, 
    {
      "latmax": 50.95302271707399, 
      "name": "Tuttegemstraat", 
      "lonmin": 3.4906910612209145, 
      "sanName": "tuttegemstraat", 
      "numOfAddr": 63, 
      "lonmax": 3.498249617495781, 
      "latmin": 50.942278263908825
    }, 
    {
      "latmax": 50.96841977995329, 
      "name": "Vaartstraat", 
      "lonmin": 3.4856666633160036, 
      "sanName": "vaartstraat", 
      "numOfAddr": 31, 
      "lonmax": 3.492355361961315, 
      "latmin": 50.964883554480835
    }, 
    {
      "latmax": 50.9277992524148, 
      "name": "Valleistraat", 
      "lonmin": 3.4539003506427477, 
      "sanName": "valleistraat", 
      "numOfAddr": 8, 
      "lonmax": 3.4555621751201615, 
      "latmin": 50.926784499161634
    }, 
    {
      "latmax": 50.956652362220076, 
      "name": "Veerstraat", 
      "lonmin": 3.481052723292505, 
      "sanName": "veerstraat", 
      "numOfAddr": 45, 
      "lonmax": 3.4901721082653365, 
      "latmin": 50.95335136310402
    }, 
    {
      "latmax": 50.941546873991705, 
      "name": "Veldweg", 
      "lonmin": 3.4997212555227444, 
      "sanName": "veldweg", 
      "numOfAddr": 6, 
      "lonmax": 3.5051946653028527, 
      "latmin": 50.93966146265314
    }, 
    {
      "latmax": 50.926520605010396, 
      "name": "Vennestraat", 
      "lonmin": 3.4474381978275264, 
      "sanName": "vennestraat", 
      "numOfAddr": 11, 
      "lonmax": 3.4485164259647147, 
      "latmin": 50.92504471163558
    }, 
    {
      "latmax": 50.93271976968506, 
      "name": "Verbindingsstraat", 
      "lonmin": 3.465499378024828, 
      "sanName": "verbindingsstraat", 
      "numOfAddr": 10, 
      "lonmax": 3.466622321708544, 
      "latmin": 50.93159632982179
    }, 
    {
      "latmax": 50.952346697170185, 
      "name": "Verlorenlos", 
      "lonmin": 3.4929128111970287, 
      "sanName": "verlorenlos", 
      "numOfAddr": 1, 
      "lonmax": 3.4929128111970287, 
      "latmin": 50.952346697170185
    }, 
    {
      "latmax": 50.91045136142969, 
      "name": "Vijvestraat", 
      "lonmin": 3.419889437540052, 
      "sanName": "vijvestraat", 
      "numOfAddr": 4, 
      "lonmax": 3.422591153220408, 
      "latmin": 50.910403502992764
    }, 
    {
      "latmax": 50.92395105590693, 
      "name": "Vinkstraat", 
      "lonmin": 3.449701348858681, 
      "sanName": "vinkstraat", 
      "numOfAddr": 28, 
      "lonmax": 3.4521468705051395, 
      "latmin": 50.9225915749302
    }, 
    {
      "latmax": 50.92876941042195, 
      "name": "Visserijstraat", 
      "lonmin": 3.4428384920207167, 
      "sanName": "visserijstraat", 
      "numOfAddr": 18, 
      "lonmax": 3.445168869111836, 
      "latmin": 50.92694006345862
    }, 
    {
      "latmax": 50.91801287408495, 
      "name": "Vlaanderenstraat", 
      "lonmin": 3.435662943379671, 
      "sanName": "vlaanderenstraat", 
      "numOfAddr": 2, 
      "lonmax": 3.435851671186813, 
      "latmin": 50.91757625827799
    }, 
    {
      "latmax": 50.917456037438924, 
      "name": "Vlasstraat", 
      "lonmin": 3.4398346733174034, 
      "sanName": "vlasstraat", 
      "numOfAddr": 51, 
      "lonmax": 3.441842397951798, 
      "latmin": 50.91379219480831
    }, 
    {
      "latmax": 50.932018107020674, 
      "name": "Vogelzang", 
      "lonmin": 3.4595726032911993, 
      "sanName": "vogelzang", 
      "numOfAddr": 82, 
      "lonmax": 3.4626033775544434, 
      "latmin": 50.92858998970183
    }, 
    {
      "latmax": 50.94589559616831, 
      "name": "Voordestraat", 
      "lonmin": 3.4732411433159722, 
      "sanName": "voordestraat", 
      "numOfAddr": 7, 
      "lonmax": 3.4767547197982, 
      "latmin": 50.94299176358752
    }, 
    {
      "latmax": 50.94633028303227, 
      "name": "Vossenholstraat", 
      "lonmin": 3.4816377004190273, 
      "sanName": "vossenholstraat", 
      "numOfAddr": 19, 
      "lonmax": 3.4979223930282166, 
      "latmin": 50.93905541690462
    }, 
    {
      "latmax": 50.941488006111435, 
      "name": "Vrijstraat", 
      "lonmin": 3.496153060523197, 
      "sanName": "vrijstraat", 
      "numOfAddr": 5, 
      "lonmax": 3.498348371090365, 
      "latmin": 50.94076112361042
    }, 
    {
      "latmax": 50.918389011589, 
      "name": "Waalbeekpark", 
      "lonmin": 3.459926858683402, 
      "sanName": "waalbeekpark", 
      "numOfAddr": 53, 
      "lonmax": 3.4631325281006, 
      "latmin": 50.91598270252562
    }, 
    {
      "latmax": 50.92181092405326, 
      "name": "Waalbeekstraat", 
      "lonmin": 3.4617344918688224, 
      "sanName": "waalbeekstraat", 
      "numOfAddr": 54, 
      "lonmax": 3.4672358623753525, 
      "latmin": 50.914189339785274
    }, 
    {
      "latmax": 50.92375757720308, 
      "name": "Waalstraat", 
      "lonmin": 3.447188633932112, 
      "sanName": "waalstraat", 
      "numOfAddr": 200, 
      "lonmax": 3.4702831977122583, 
      "latmin": 50.90815700704335
    }, 
    {
      "latmax": 50.92657948194194, 
      "name": "Warandestraat", 
      "lonmin": 3.452181835772023, 
      "sanName": "warandestraat", 
      "numOfAddr": 51, 
      "lonmax": 3.4601938209752814, 
      "latmin": 50.92247633330042
    }, 
    {
      "latmax": 50.91350717924002, 
      "name": "Waregemstraat", 
      "lonmin": 3.4445204959535487, 
      "sanName": "waregemstraat", 
      "numOfAddr": 75, 
      "lonmax": 3.4527943276906914, 
      "latmin": 50.90084859771754
    }, 
    {
      "latmax": 50.89993037597064, 
      "name": "Waterstraat", 
      "lonmin": 3.4374818685784394, 
      "sanName": "waterstraat", 
      "numOfAddr": 5, 
      "lonmax": 3.4417950949958818, 
      "latmin": 50.899076244058904
    }, 
    {
      "latmax": 50.95038232144915, 
      "name": "Weidestraat", 
      "lonmin": 3.4802894903659096, 
      "sanName": "weidestraat", 
      "numOfAddr": 2, 
      "lonmax": 3.4835913408376378, 
      "latmin": 50.9490570236089
    }, 
    {
      "latmax": 50.91161753843099, 
      "name": "Wiedauwstraat", 
      "lonmin": 3.4441052884405985, 
      "sanName": "wiedauwstraat", 
      "numOfAddr": 7, 
      "lonmax": 3.4450134813355286, 
      "latmin": 50.91120289075276
    }, 
    {
      "latmax": 50.918684032480556, 
      "name": "Wielkensstraat", 
      "lonmin": 3.4559794118061986, 
      "sanName": "wielkensstraat", 
      "numOfAddr": 6, 
      "lonmax": 3.4569974317384258, 
      "latmin": 50.91789636300484
    }, 
    {
      "latmax": 50.908369739894084, 
      "name": "Wilgenlaan", 
      "lonmin": 3.4556663179810325, 
      "sanName": "wilgenlaan", 
      "numOfAddr": 19, 
      "lonmax": 3.458181843261256, 
      "latmin": 50.90733515566626
    }, 
    {
      "latmax": 50.920705304356844, 
      "name": "Zandbergstraat", 
      "lonmin": 3.445894240707376, 
      "sanName": "zandbergstraat", 
      "numOfAddr": 3, 
      "lonmax": 3.4459436225232816, 
      "latmin": 50.92069952268329
    }, 
    {
      "latmax": 50.9581160629363, 
      "name": "Zandweg", 
      "lonmin": 3.4849476812816422, 
      "sanName": "zandweg", 
      "numOfAddr": 26, 
      "lonmax": 3.4886632527076227, 
      "latmin": 50.95512107680513
    }, 
    {
      "latmax": 50.92223570206845, 
      "name": "Zaubeekstraat", 
      "lonmin": 3.445709531023048, 
      "sanName": "zaubeekstraat", 
      "numOfAddr": 132, 
      "lonmax": 3.472595556208924, 
      "latmin": 50.91029716586574
    }, 
    {
      "latmax": 50.913765725101804, 
      "name": "Zonnelaan", 
      "lonmin": 3.4547020265410993, 
      "sanName": "zonnelaan", 
      "numOfAddr": 47, 
      "lonmax": 3.4622323948926557, 
      "latmin": 50.9076498001437
    }, 
    {
      "latmax": 50.91699218757578, 
      "name": "Zuidstraat", 
      "lonmin": 3.442015749303791, 
      "sanName": "zuidstraat", 
      "numOfAddr": 17, 
      "lonmax": 3.443141228769479, 
      "latmin": 50.91602200822015
    }, 
    {
      "latmax": 50.92313708898291, 
      "name": "Zwaluwstraat", 
      "lonmin": 3.4566767229850224, 
      "sanName": "zwaluwstraat", 
      "numOfAddr": 12, 
      "lonmax": 3.458063887996441, 
      "latmin": 50.92251995665442
    }
  ]
}