{
  "streets": [
    {
      "latmax": 51.18731474624844, 
      "name": "Abdijstraat", 
      "lonmin": 3.6823183299073947, 
      "sanName": "abdijstraat", 
      "numOfAddr": 71, 
      "lonmax": 3.687420084646636, 
      "latmin": 51.17068858962089
    }, 
    {
      "latmax": 51.1733840926236, 
      "name": "Antwerpse Heirweg", 
      "lonmin": 3.6714193503939385, 
      "sanName": "antwerpseheirweg", 
      "numOfAddr": 10, 
      "lonmax": 3.683121922074299, 
      "latmin": 51.17081413943965
    }, 
    {
      "latmax": 51.231307009016994, 
      "name": "Assenedestraat", 
      "lonmin": 3.678196006084171, 
      "sanName": "assenedestraat", 
      "numOfAddr": 60, 
      "lonmax": 3.68712857003823, 
      "latmin": 51.22815566428636
    }, 
    {
      "latmax": 51.229722188716096, 
      "name": "Beekstraat", 
      "lonmin": 3.6581679251972754, 
      "sanName": "beekstraat", 
      "numOfAddr": 95, 
      "lonmax": 3.678529242859258, 
      "latmin": 51.216646060224434
    }, 
    {
      "latmax": 51.22037790464028, 
      "name": "Bekputstraat", 
      "lonmin": 3.681833595791825, 
      "sanName": "bekputstraat", 
      "numOfAddr": 23, 
      "lonmax": 3.6852882544895693, 
      "latmin": 51.21266179270543
    }, 
    {
      "latmax": 51.2172776618731, 
      "name": "Berkstraat", 
      "lonmin": 3.6790542189264532, 
      "sanName": "berkstraat", 
      "numOfAddr": 3, 
      "lonmax": 3.6806785607182166, 
      "latmin": 51.216802796512795
    }, 
    {
      "latmax": 51.184869182544716, 
      "name": "Bijsterveld", 
      "lonmin": 3.708542959371389, 
      "sanName": "bijsterveld", 
      "numOfAddr": 5, 
      "lonmax": 3.71167029872814, 
      "latmin": 51.181086776607714
    }, 
    {
      "latmax": 51.241016569318276, 
      "name": "Blokmeersstraat", 
      "lonmin": 3.6571915838811044, 
      "sanName": "blokmeersstraat", 
      "numOfAddr": 11, 
      "lonmax": 3.6625197421994606, 
      "latmin": 51.23713161079417
    }, 
    {
      "latmax": 51.24987213588729, 
      "name": "Bloksheule", 
      "lonmin": 3.6622972411946626, 
      "sanName": "bloksheule", 
      "numOfAddr": 13, 
      "lonmax": 3.6686040391525165, 
      "latmin": 51.236673809920866
    }, 
    {
      "latmax": 51.204606640143005, 
      "name": "Bosstraat", 
      "lonmin": 3.6895193654602942, 
      "sanName": "bosstraat", 
      "numOfAddr": 58, 
      "lonmax": 3.6956573846972884, 
      "latmin": 51.19596225465622
    }, 
    {
      "latmax": 51.185180107943964, 
      "name": "Cisterci\u0089nzerinnenstraat", 
      "lonmin": 3.680511083215398, 
      "sanName": "cistercinzerinnenstraat", 
      "numOfAddr": 13, 
      "lonmax": 3.682647546033497, 
      "latmin": 51.18467790038585
    }, 
    {
      "latmax": 51.24840766852985, 
      "name": "Doodhoek", 
      "lonmin": 3.6805346610429717, 
      "sanName": "doodhoek", 
      "numOfAddr": 13, 
      "lonmax": 3.694109161776611, 
      "latmin": 51.2402102064671
    }, 
    {
      "latmax": 51.187289884906896, 
      "name": "Doorsteek", 
      "lonmin": 3.683741180719572, 
      "sanName": "doorsteek", 
      "numOfAddr": 3, 
      "lonmax": 3.684115259841829, 
      "latmin": 51.187266800229345
    }, 
    {
      "latmax": 51.23857445490938, 
      "name": "Dorp", 
      "lonmin": 3.6736500037467152, 
      "sanName": "dorp", 
      "numOfAddr": 147, 
      "lonmax": 3.6795710086224975, 
      "latmin": 51.22960266589421
    }, 
    {
      "latmax": 51.23127434140078, 
      "name": "Eendrachtstraat", 
      "lonmin": 3.672593480236876, 
      "sanName": "eendrachtstraat", 
      "numOfAddr": 51, 
      "lonmax": 3.674502755195407, 
      "latmin": 51.22836289240707
    }, 
    {
      "latmax": 51.190510538396325, 
      "name": "Eikelstraat", 
      "lonmin": 3.688276112813037, 
      "sanName": "eikelstraat", 
      "numOfAddr": 11, 
      "lonmax": 3.6897044528865415, 
      "latmin": 51.18997933994733
    }, 
    {
      "latmax": 51.19221075840128, 
      "name": "Ertveldesteenweg", 
      "lonmin": 3.6886729200121495, 
      "sanName": "ertveldesteenweg", 
      "numOfAddr": 160, 
      "lonmax": 3.7272100440468234, 
      "latmin": 51.18437743288597
    }, 
    {
      "latmax": 51.18664767908582, 
      "name": "Gooiken", 
      "lonmin": 3.689765443105927, 
      "sanName": "gooiken", 
      "numOfAddr": 2, 
      "lonmax": 3.693374404219746, 
      "latmin": 51.18550464291906
    }, 
    {
      "latmax": 51.23277624426562, 
      "name": "Graanmolenstraat", 
      "lonmin": 3.678835411811631, 
      "sanName": "graanmolenstraat", 
      "numOfAddr": 13, 
      "lonmax": 3.680482236157562, 
      "latmin": 51.23198015259288
    }, 
    {
      "latmax": 51.252366049180594, 
      "name": "Gravenstraat", 
      "lonmin": 3.612878614023515, 
      "sanName": "gravenstraat", 
      "numOfAddr": 56, 
      "lonmax": 3.6411413041079004, 
      "latmin": 51.24606184377714
    }, 
    {
      "latmax": 51.235614516600315, 
      "name": "Grote-Tiendewijk", 
      "lonmin": 3.6794510977327226, 
      "sanName": "grotetiendewijk", 
      "numOfAddr": 20, 
      "lonmax": 3.68280269635703, 
      "latmin": 51.234355177883145
    }, 
    {
      "latmax": 51.23296219203206, 
      "name": "Haantjen", 
      "lonmin": 3.6872524763539367, 
      "sanName": "haantjen", 
      "numOfAddr": 49, 
      "lonmax": 3.709984714889971, 
      "latmin": 51.227561664004
    }, 
    {
      "latmax": 51.22633522292424, 
      "name": "Hasselstraat", 
      "lonmin": 3.6951694145784715, 
      "sanName": "hasselstraat", 
      "numOfAddr": 21, 
      "lonmax": 3.711275840782426, 
      "latmin": 51.215733455521566
    }, 
    {
      "latmax": 51.215451316057546, 
      "name": "Hazelarenhoek", 
      "lonmin": 3.690821151890316, 
      "sanName": "hazelarenhoek", 
      "numOfAddr": 27, 
      "lonmax": 3.7115485473772387, 
      "latmin": 51.20876385877918
    }, 
    {
      "latmax": 51.180205298344674, 
      "name": "Heide", 
      "lonmin": 3.6653920773723536, 
      "sanName": "heide", 
      "numOfAddr": 40, 
      "lonmax": 3.6848432109816813, 
      "latmin": 51.177022818780934
    }, 
    {
      "latmax": 51.23630464417194, 
      "name": "Hendekenstraat", 
      "lonmin": 3.710670294528952, 
      "sanName": "hendekenstraat", 
      "numOfAddr": 24, 
      "lonmax": 3.7136628480752014, 
      "latmin": 51.220900060720275
    }, 
    {
      "latmax": 51.2402646562714, 
      "name": "Heulken", 
      "lonmin": 3.695680205544696, 
      "sanName": "heulken", 
      "numOfAddr": 18, 
      "lonmax": 3.698405355913862, 
      "latmin": 51.2296247821209
    }, 
    {
      "latmax": 51.23715406029058, 
      "name": "Hogevorst", 
      "lonmin": 3.635221809876273, 
      "sanName": "hogevorst", 
      "numOfAddr": 59, 
      "lonmax": 3.6733416249237427, 
      "latmin": 51.23159940839568
    }, 
    {
      "latmax": 51.24572984411061, 
      "name": "Hooghofstraat", 
      "lonmin": 3.6663318892625605, 
      "sanName": "hooghofstraat", 
      "numOfAddr": 14, 
      "lonmax": 3.6767691630705372, 
      "latmin": 51.2419080576759
    }, 
    {
      "latmax": 51.2324532232155, 
      "name": "Kaprijkestraat", 
      "lonmin": 3.6539557383611974, 
      "sanName": "kaprijkestraat", 
      "numOfAddr": 39, 
      "lonmax": 3.6764268573850636, 
      "latmin": 51.22746196323549
    }, 
    {
      "latmax": 51.23054965212173, 
      "name": "Kerkstraat", 
      "lonmin": 3.673793830706805, 
      "sanName": "kerkstraat", 
      "numOfAddr": 36, 
      "lonmax": 3.6770375097124837, 
      "latmin": 51.22990539434413
    }, 
    {
      "latmax": 51.19164173685443, 
      "name": "Kerrestraat", 
      "lonmin": 3.6625666937731545, 
      "sanName": "kerrestraat", 
      "numOfAddr": 54, 
      "lonmax": 3.6806141864480306, 
      "latmin": 51.188751043099295
    }, 
    {
      "latmax": 51.22700850126039, 
      "name": "Kiezelstraat", 
      "lonmin": 3.6941491009304155, 
      "sanName": "kiezelstraat", 
      "numOfAddr": 2, 
      "lonmax": 3.696217998940987, 
      "latmin": 51.226799605898854
    }, 
    {
      "latmax": 51.1833729733079, 
      "name": "Kloosterakkerstraat", 
      "lonmin": 3.6877689044600217, 
      "sanName": "kloosterakkerstraat", 
      "numOfAddr": 2, 
      "lonmax": 3.6878330222030233, 
      "latmin": 51.18323857969277
    }, 
    {
      "latmax": 51.23625701080865, 
      "name": "Kloosterlandstraat", 
      "lonmin": 3.682637621855623, 
      "sanName": "kloosterlandstraat", 
      "numOfAddr": 33, 
      "lonmax": 3.684107500116521, 
      "latmin": 51.232352183663174
    }, 
    {
      "latmax": 51.185834168546, 
      "name": "Kloosterstraat", 
      "lonmin": 3.6832337306079586, 
      "sanName": "kloosterstraat", 
      "numOfAddr": 1, 
      "lonmax": 3.6832337306079586, 
      "latmin": 51.185834168546
    }, 
    {
      "latmax": 51.24803533853907, 
      "name": "Knokstraat", 
      "lonmin": 3.6369721784008293, 
      "sanName": "knokstraat", 
      "numOfAddr": 5, 
      "lonmax": 3.6398715072049352, 
      "latmin": 51.2406857655297
    }, 
    {
      "latmax": 51.193145617222626, 
      "name": "Koning Albertstraat", 
      "lonmin": 3.681774410822925, 
      "sanName": "koningalbertstraat", 
      "numOfAddr": 43, 
      "lonmax": 3.687933543023748, 
      "latmin": 51.191949303195095
    }, 
    {
      "latmax": 51.23351125035914, 
      "name": "Korenmolenstraat", 
      "lonmin": 3.6810602148309295, 
      "sanName": "korenmolenstraat", 
      "numOfAddr": 15, 
      "lonmax": 3.6831905260989495, 
      "latmin": 51.23293975117846
    }, 
    {
      "latmax": 51.228132109435215, 
      "name": "Kraaigemstraat", 
      "lonmin": 3.672102305017991, 
      "sanName": "kraaigemstraat", 
      "numOfAddr": 69, 
      "lonmax": 3.6801379052564864, 
      "latmin": 51.21122801240181
    }, 
    {
      "latmax": 51.2151846806603, 
      "name": "Krekelmijt", 
      "lonmin": 3.686510692628779, 
      "sanName": "krekelmijt", 
      "numOfAddr": 14, 
      "lonmax": 3.6909428074907793, 
      "latmin": 51.20987017079699
    }, 
    {
      "latmax": 51.25390726276751, 
      "name": "Landsdijk", 
      "lonmin": 3.6321422359819753, 
      "sanName": "landsdijk", 
      "numOfAddr": 123, 
      "lonmax": 3.6618598230039416, 
      "latmin": 51.250370564656855
    }, 
    {
      "latmax": 51.18893995832351, 
      "name": "Ledestraat", 
      "lonmin": 3.6605946311326236, 
      "sanName": "ledestraat", 
      "numOfAddr": 75, 
      "lonmax": 3.6813456300806995, 
      "latmin": 51.18551779186209
    }, 
    {
      "latmax": 51.21097491128626, 
      "name": "Lembekestraat", 
      "lonmin": 3.6765657837848287, 
      "sanName": "lembekestraat", 
      "numOfAddr": 2, 
      "lonmax": 3.6772432330606764, 
      "latmin": 51.21067720769352
    }, 
    {
      "latmax": 51.22504565129805, 
      "name": "Lunterstraat", 
      "lonmin": 3.7040355443205564, 
      "sanName": "lunterstraat", 
      "numOfAddr": 6, 
      "lonmax": 3.7102170288844833, 
      "latmin": 51.22099739608611
    }, 
    {
      "latmax": 51.24236998358123, 
      "name": "Meersstraat", 
      "lonmin": 3.6413153102449702, 
      "sanName": "meersstraat", 
      "numOfAddr": 10, 
      "lonmax": 3.6558980668554946, 
      "latmin": 51.237456053416096
    }, 
    {
      "latmax": 51.23394856506487, 
      "name": "Menneken", 
      "lonmin": 3.6770451293284387, 
      "sanName": "menneken", 
      "numOfAddr": 3, 
      "lonmax": 3.6779923828726937, 
      "latmin": 51.23368649599356
    }, 
    {
      "latmax": 51.187283952530585, 
      "name": "Molenhoek", 
      "lonmin": 3.6759306554385485, 
      "sanName": "molenhoek", 
      "numOfAddr": 51, 
      "lonmax": 3.6815980293539936, 
      "latmin": 51.1802977378667
    }, 
    {
      "latmax": 51.20075170474489, 
      "name": "Muikemstraat", 
      "lonmin": 3.7011350702276236, 
      "sanName": "muikemstraat", 
      "numOfAddr": 26, 
      "lonmax": 3.719283112905828, 
      "latmin": 51.195601802584235
    }, 
    {
      "latmax": 51.18980048921688, 
      "name": "Mulderstraat", 
      "lonmin": 3.69431262743641, 
      "sanName": "mulderstraat", 
      "numOfAddr": 7, 
      "lonmax": 3.6948445091455726, 
      "latmin": 51.189188841594856
    }, 
    {
      "latmax": 51.23560371241268, 
      "name": "Nieuwe Boekhoutestraat", 
      "lonmin": 3.6781270172030163, 
      "sanName": "nieuweboekhoutestraat", 
      "numOfAddr": 61, 
      "lonmax": 3.693788852267627, 
      "latmin": 51.230108945348526
    }, 
    {
      "latmax": 51.230944734288386, 
      "name": "Omweg", 
      "lonmin": 3.7062577207432503, 
      "sanName": "omweg", 
      "numOfAddr": 1, 
      "lonmax": 3.7062577207432503, 
      "latmin": 51.230944734288386
    }, 
    {
      "latmax": 51.193147713501716, 
      "name": "Oosteeklo-Dorp", 
      "lonmin": 3.681802746910947, 
      "sanName": "oosteeklodorp", 
      "numOfAddr": 105, 
      "lonmax": 3.6901498386310747, 
      "latmin": 51.18731484240809
    }, 
    {
      "latmax": 51.21095283081401, 
      "name": "Oosthoek", 
      "lonmin": 3.689648032587012, 
      "sanName": "oosthoek", 
      "numOfAddr": 128, 
      "lonmax": 3.7193206608841276, 
      "latmin": 51.19304084906253
    }, 
    {
      "latmax": 51.242863895360586, 
      "name": "Oude Boekhoutestraat", 
      "lonmin": 3.6755620715589274, 
      "sanName": "oudeboekhoutestraat", 
      "numOfAddr": 35, 
      "lonmax": 3.699938339800659, 
      "latmin": 51.23643439471759
    }, 
    {
      "latmax": 51.20275325182046, 
      "name": "Rijkestraat", 
      "lonmin": 3.6767862213673044, 
      "sanName": "rijkestraat", 
      "numOfAddr": 113, 
      "lonmax": 3.6822447272280114, 
      "latmin": 51.18778028776101
    }, 
    {
      "latmax": 51.190261899897735, 
      "name": "Rodekruisstraat", 
      "lonmin": 3.6937971150936892, 
      "sanName": "rodekruisstraat", 
      "numOfAddr": 10, 
      "lonmax": 3.6953368007839487, 
      "latmin": 51.18970432128536
    }, 
    {
      "latmax": 51.231529056295315, 
      "name": "Rozemarijnstraat", 
      "lonmin": 3.6736195986787425, 
      "sanName": "rozemarijnstraat", 
      "numOfAddr": 25, 
      "lonmax": 3.6767591259850323, 
      "latmin": 51.230699792227135
    }, 
    {
      "latmax": 51.25222617153717, 
      "name": "Schare", 
      "lonmin": 3.672330945763399, 
      "sanName": "schare", 
      "numOfAddr": 14, 
      "lonmax": 3.6807906184053056, 
      "latmin": 51.25082584189542
    }, 
    {
      "latmax": 51.2305598149913, 
      "name": "Sint-Bernardusstraat", 
      "lonmin": 3.6841514069665777, 
      "sanName": "sintbernardusstraat", 
      "numOfAddr": 8, 
      "lonmax": 3.684864636691993, 
      "latmin": 51.22939359475641
    }, 
    {
      "latmax": 51.234999425983055, 
      "name": "Sint-Sebastiaanstraat", 
      "lonmin": 3.67919543715738, 
      "sanName": "sintsebastiaanstraat", 
      "numOfAddr": 27, 
      "lonmax": 3.6829947546500286, 
      "latmin": 51.233289599314304
    }, 
    {
      "latmax": 51.190147066393564, 
      "name": "Slijpstraat", 
      "lonmin": 3.6870532070067474, 
      "sanName": "slijpstraat", 
      "numOfAddr": 15, 
      "lonmax": 3.6893786406787377, 
      "latmin": 51.1893836660328
    }, 
    {
      "latmax": 51.174770898060956, 
      "name": "Spiegelstraat", 
      "lonmin": 3.688246100090182, 
      "sanName": "spiegelstraat", 
      "numOfAddr": 7, 
      "lonmax": 3.692451655776218, 
      "latmin": 51.16790474320727
    }, 
    {
      "latmax": 51.2426953204632, 
      "name": "Spoorwegstraat", 
      "lonmin": 3.6921785828475007, 
      "sanName": "spoorwegstraat", 
      "numOfAddr": 1, 
      "lonmax": 3.6921785828475007, 
      "latmin": 51.2426953204632
    }, 
    {
      "latmax": 51.254880161766984, 
      "name": "Stationsstraat", 
      "lonmin": 3.7132460447086792, 
      "sanName": "stationsstraat", 
      "numOfAddr": 1, 
      "lonmax": 3.7132460447086792, 
      "latmin": 51.254880161766984
    }, 
    {
      "latmax": 51.23322128859971, 
      "name": "Stekelaarstraat", 
      "lonmin": 3.679032429715808, 
      "sanName": "stekelaarstraat", 
      "numOfAddr": 25, 
      "lonmax": 3.6820354745591914, 
      "latmin": 51.23164708926316
    }, 
    {
      "latmax": 51.21054213209901, 
      "name": "Stroomstraat", 
      "lonmin": 3.6808718560614353, 
      "sanName": "stroomstraat", 
      "numOfAddr": 86, 
      "lonmax": 3.6900206584988053, 
      "latmin": 51.193052702818505
    }, 
    {
      "latmax": 51.17857273749125, 
      "name": "Stuivenberg", 
      "lonmin": 3.7239543206517567, 
      "sanName": "stuivenberg", 
      "numOfAddr": 14, 
      "lonmax": 3.728481547047693, 
      "latmin": 51.175724013729585
    }, 
    {
      "latmax": 51.19177107127688, 
      "name": "Tereecken", 
      "lonmin": 3.729448172346388, 
      "sanName": "tereecken", 
      "numOfAddr": 3, 
      "lonmax": 3.7303633852937406, 
      "latmin": 51.18772556055239
    }, 
    {
      "latmax": 51.20917911756636, 
      "name": "Veldstraat", 
      "lonmin": 3.695282491761838, 
      "sanName": "veldstraat", 
      "numOfAddr": 12, 
      "lonmax": 3.7208008194236566, 
      "latmin": 51.20180695164466
    }, 
    {
      "latmax": 51.22798599490548, 
      "name": "Vent", 
      "lonmin": 3.6832655552872806, 
      "sanName": "vent", 
      "numOfAddr": 24, 
      "lonmax": 3.690422014329987, 
      "latmin": 51.21466341714224
    }, 
    {
      "latmax": 51.234287006531346, 
      "name": "Verbindingsstraat", 
      "lonmin": 3.6819629486758694, 
      "sanName": "verbindingsstraat", 
      "numOfAddr": 9, 
      "lonmax": 3.683294365796036, 
      "latmin": 51.23383293059251
    }, 
    {
      "latmax": 51.19789898425044, 
      "name": "Vlasgaardstraat", 
      "lonmin": 3.7027102392136477, 
      "sanName": "vlasgaardstraat", 
      "numOfAddr": 38, 
      "lonmax": 3.7261741524975815, 
      "latmin": 51.1900261958562
    }, 
    {
      "latmax": 51.25331376350036, 
      "name": "Wannestraat", 
      "lonmin": 3.6357753622415587, 
      "sanName": "wannestraat", 
      "numOfAddr": 11, 
      "lonmax": 3.64246435122238, 
      "latmin": 51.252212421585845
    }, 
    {
      "latmax": 51.20355355769678, 
      "name": "Westakkerstraat", 
      "lonmin": 3.664532279824071, 
      "sanName": "westakkerstraat", 
      "numOfAddr": 20, 
      "lonmax": 3.6780045477432286, 
      "latmin": 51.19848018262846
    }, 
    {
      "latmax": 51.18933714590182, 
      "name": "Weststraat", 
      "lonmin": 3.660894757075068, 
      "sanName": "weststraat", 
      "numOfAddr": 1, 
      "lonmax": 3.660894757075068, 
      "latmin": 51.18933714590182
    }, 
    {
      "latmax": 51.232816352448204, 
      "name": "Windmolenstraat", 
      "lonmin": 3.68162398607373, 
      "sanName": "windmolenstraat", 
      "numOfAddr": 14, 
      "lonmax": 3.6832671219961393, 
      "latmin": 51.23207570700283
    }, 
    {
      "latmax": 51.22798257899016, 
      "name": "Zandstraat", 
      "lonmin": 3.6907083997037056, 
      "sanName": "zandstraat", 
      "numOfAddr": 11, 
      "lonmax": 3.6912817137762968, 
      "latmin": 51.22144711381442
    }, 
    {
      "latmax": 51.2091091946122, 
      "name": "Zoetelucht", 
      "lonmin": 3.66130523787607, 
      "sanName": "zoetelucht", 
      "numOfAddr": 6, 
      "lonmax": 3.671371858170671, 
      "latmin": 51.20740579790394
    }
  ]
}